085417.000,A,5050.1854,N,01520.9080,E,0.71,133.62,060808,,*06
$GPGGA,085418.000,5050.1856,N,01520.9081,E,1,11,0.9,1016.9,M,44.4,M,,0000*62
$GPGSA,A,3,07,10,25,26,15,28,27,24,08,03,13,,1.5,0.9,1.2*3D
$GPGSV,3,1,12,08,81,069,35,10,61,244,33,27,51,063,34,07,40,062,34*77
$GPGSV,3,2,12,28,32,162,26,26,32,291,28,25,21,064,30,15,18,290,20*75
$GPGSV,3,3,12,24,18,295,22,13,13,105,16,03,07,032,18,19,06,060,16*7B
$GPRMC,085418.000,A,5050.1856,N,01520.9081,E,0.08,214.65,060808,,*05
$GPGGA,085419.000,5050.1859,N,01520.9082,E,1,10,0.9,1017.1,M,44.4,M,,0000*67
$GPGSA,A,3,07,10,26,15,28,27,24,08,03,13,,,1.5,0.9,1.2*3A
$GPGSV,3,1,12,08,81,069,27,10,61,244,36,27,51,063,26,07,40,062,32*74
$GPGSV,3,2,12,28,32,162,26,26,32,291,32,25,21,064,25,15,18,290,20*7A
$GPGSV,3,3,12,24,18,295,23,13,13,105,17,03,07,032,18,19,06,060,15*78
$GPRMC,085419.000,A,5050.1859,N,01520.9082,E,0.89,150.17,060808,,*07
$GPGGA,085420.000,5050.1861,N,01520.9082,E,1,11,0.9,1017.1,M,44.4,M,,0000*67
$GPGSA,A,3,07,10,25,26,15,28,27,24,08,03,13,,1.5,0.9,1.2*3D
$GPGSV,3,1,12,08,81,069,26,10,61,244,36,27,51,063,27,07,40,062,17*73
$GPGSV,3,2,12,28,32,162,18,26,32,291,29,25,21,064,22,15,18,290,26*7C
$GPGSV,3,3,12,24,18,295,22,13,13,105,17,03,07,032,18,19,06,060,15*79
$GPRMC,085420.000,A,5050.1861,N,01520.9082,E,0.09,262.08,060808,,*02
$GPGGA,085421.000,5050.1859,N,01520.9081,E,1,11,0.9,1016.9,M,44.4,M,,0000*67
$GPGSA,A,3,07,10,25,26,15,28,27,24,08,03,13,,1.5,0.9,1.2*3D
$GPGSV,3,1,12,08,81,069,27,10,61,244,36,27,51,063,28,07,40,062,20*79
$GPGSV,3,2,12,28,32,162,24,26,32,291,13,25,21,064,23,15,18,290,27*7A
$GPGSV,3,3,12,24,18,295,20,13,13,105,17,03,07,032,18,19,06,060,15*7B
$GPRMC,085421.000,A,5050.1859,N,01520.9081,E,0.48,192.09,060808,,*03
$GPGGA,085422.000,5050.1854,N,01520.9081,E,1,11,0.9,1015.9,M,44.4,M,,0000*6A
$GPGSA,A,3,07,10,25,26,15,28,27,24,08,03,13,,1.5,0.9,1.2*3D
$GPGSV,3,1,12,08,81,069,28,10,61,244,36,27,51,063,28,07,40,062,21*77
$GPGSV,3,2,12,28,32,162,25,26,32,291,20,25,21,064,25,15,18,290,27*7D
$GPGSV,3,3,12,24,18,295,20,13,13,105,16,03,07,032,18,19,06,060,14*7B
$GPRMC,085422.000,A,5050.1854,N,01520.9081,E,0.48,71.06,060808,,*3E
$GPGGA,085423.000,5050.1852,N,01520.9085,E,1,11,0.9,1015.3,M,44.4,M,,0000*63
$GPGSA,A,3,07,10,25,26,15,28,27,24,08,03,13,,1.5,0.9,1.2*3D
$GPGSV,3,1,12,08,81,069,28,10,61,244,37,27,51,063,29,07,40,062,22*74
$GPGSV,3,2,12,28,32,162,26,26,32,291,21,25,21,064,30,15,18,290,27*7B
$GPGSV,3,3,12,24,18,295,21,13,13,105,16,03,07,032,18,19,06,060,14*7A
$GPRMC,085423.000,A,5050.1852,N,01520.9085,E,0.60,58.60,060808,,*3C
$GPGGA,085424.000,5050.1848,N,01520.9086,E,1,11,0.9,1014.8,M,44.4,M,,0000*66
$GPGSA,A,3,07,10,25,26,15,28,27,24,08,03,13,,1.5,0.9,1.2*3D
$GPGSV,3,1,12,08,81,069,28,10,61,244,37,27,51,063,33,07,40,062,22*7F
$GPGSV,3,2,12,28,32,162,27,26,32,291,22,25,21,064,30,15,18,290,27*79
$GPGSV,3,3,12,24,18,295,21,13,13,105,16,03,07,032,17,19,06,060,14*75
$GPRMC,085424.000,A,5050.1848,N,01520.9086,E,0.39,154.65,060808,,*07
$GPGGA,085425.000,5050.1843,N,01520.9084,E,1,11,0.9,1014.5,M,44.4,M,,0000*63
$GPGSA,A,3,07,10,25,26,15,28,27,24,08,03,13,,1.5,0.9,1.2*3D
$GPGSV,3,1,12,08,81,069,28,10,61,244,36,27,51,063,33,07,40,062,22*7E
$GPGSV,3,2,12,28,32,162,27,26,32,291,22,25,21,064,29,15,18,290,27*71
$GPGSV,3,3,12,24,18,295,22,13,13,105,16,03,07,032,17,19,06,060,13*71
$GPRMC,085425.000,A,5050.1843,N,01520.9084,E,0.16,246.92,060808,,*0A
$GPGGA,085426.000,5050.1840,N,01520.9084,E,1,11,0.9,1014.5,M,44.4,M,,0000*63
$GPGSA,A,3,07,10,25,26,15,28,27,24,08,03,13,,1.5,0.9,1.2*3D
$GPGSV,3,1,12,08,81,069,31,10,61,244,37,27,51,063,33,07,40,062,22*77
$GPGSV,3,2,12,28,32,162,28,26,32,291,22,25,21,064,29,15,18,290,27*7E
$GPGSV,3,3,12,24,18,295,22,13,13,105,16,03,07,032,17,19,06,060,13*71
$GPRMC,085426.000,A,5050.1840,N,01520.9084,E,0.38,147.76,060808,,*0E
$GPGGA,085427.000,5050.1837,N,01520.9083,E,1,11,0.9,1014.2,M,44.4,M,,0000*62
$GPGSA,A,3,07,10,25,26,15,28,27,24,08,03,13,,1.5,0.9,1.2*3D
$GPGSV,3,1,12,08,81,069,32,10,61,244,37,27,51,063,33,07,40,062,23*75
$GPGSV,3,2,12,28,32,162,28,26,32,291,21,25,21,064,29,15,18,290,27*7D
$GPGSV,3,3,12,24,18,295,22,13,13,105,16,03,07,032,16,19,06,060,13*70
$GPRMC,085427.000,A,5050.1837,N,01520.9083,E,0.41,175.79,060808,,*08
$GPGGA,085428.000,5050.1835,N,01520.9084,E,1,11,0.9,1014.2,M,44.4,M,,0000*68
$GPGSA,A,3,07,10,25,26,15,28,27,24,08,03,13,,1.5,0.9,1.2*3D
$GPGSV,3,1,12,08,81,069,32,10,61,244,35,27,51,063,33,07,40,062,29*7D
$GPGSV,3,2,12,28,32,162,28,26,32,291,27,25,21,064,29,15,18,290,27*7B
$GPGSV,3,3,12,24,18,295,25,13,13,105,18,03,07,032,17,19,06,060,13*78
$GPRMC,085428.000,A,5050.1835,N,01520.9084,E,0.32,140.87,060808,,*01
$GPGGA,085429.000,5050.1834,N,01520.9084,E,1,11,0.9,1013.8,M,44.4,M,,0000*65
$GPGSA,A,3,07,10,25,26,15,28,27,24,08,03,13,,1.5,0.9,1.2*3D
$GPGSV,3,1,12,08,81,069,32,10,61,244,28,27,51,063,33,07,40,062,34*7D
$GPGSV,3,2,12,28,32,162,27,26,32,291,30,25,21,064,29,15,18,290,23*76
$GPGSV,3,3,12,24,18,295,27,13,13,105,21,03,07,032,17,19,06,060,12*71
$GPRMC,085429.000,A,5050.1834,N,01520.9084,E,0.24,28.31,060808,,*34
$GPGGA,085430.000,5050.1832,N,01520.9086,E,1,10,0.9,1014.0,M,44.4,M,,0000*67
$GPGSA,A,3,07,10,26,15,28,27,24,08,03,13,,,1.5,0.9,1.2*3A
$GPGSV,3,1,12,08,81,069,32,10,61,244,29,27,51,063,33,07,40,062,34*7C
$GPGSV,3,2,12,28,32,162,27,26,32,291,25,25,21,064,24,15,18,290,19*76
$GPGSV,3,3,12,24,18,295,26,13,13,105,19,03,07,032,17,19,06,060,12*7B
$GPRMC,085430.000,A,5050.1832,N,01520.9086,E,0.57,131.12,060808,,*04
$GPGGA,085431.000,5050.1831,N,01520.9087,E,1,11,0.9,1013.8,M,44.4,M,,0000*6A
$GPGSA,A,3,07,10,25,26,15,28,27,24,08,03,13,,1.5,0.9,1.2*3D
$GPGSV,3,1,12,08,81,069,32,10,61,244,28,27,51,063,34,07,40,062,34*7A
$GPGSV,3,2,12,28,32,162,27,26,32,291,26,25,21,064,15,15,18,290,19*77
$GPGSV,3,3,12,24,18,295,25,13,13,105,18,03,07,032,17,19,06,060,12*79
$GPRMC,085431.000,A,5050.1831,N,01520.9087,E,0.39,313.99,060808,,*0E
$GPGGA,085432.000,5050.1832,N,01520.9086,E,1,11,0.9,1013.6,M,44.4,M,,0000*65
$GPGSA,A,3,07,10,25,26,15,28,27,24,08,03,13,,1.5,0.9,1.2*3D
$GPGSV,3,1,12,08,81,069,32,10,61,244,24,27,51,063,34,07,40,062,34*76
$GPGSV,3,2,12,28,32,162,27,26,32,291,25,25,21,064,19,15,18,290,19*78
$GPGSV,3,3,12,24,18,295,24,13,13,105,19,03,07,032,17,19,06,060,12*79
$GPRMC,085432.000,A,5050.1832,N,01520.9086,E,0.79,334.08,060808,,*06
$GPGGA,085433.000,5050.1834,N,01520.9085,E,1,11,0.9,1013.4,M,44.4,M,,0000*63
$GPGSA,A,3,07,10,25,26,15,28,27,24,08,03,13,,1.5,0.9,1.2*3D
$GPGSV,3,1,12,08,81,069,27,10,61,244,27,27,51,063,34,07,40,062,27*73
$GPGSV,3,2,12,28,32,162,27,26,32,291,21,25,21,064,20,15,18,290,19*76
$GPGSV,3,3,12,24,18,295,15,13,13,105,18,03,07,032,16,19,06,060,*78
$GPRMC,085433.000,A,5050.1834,N,01520.9085,E,0.86,351.17,060808,,*0F
$GPGGA,085434.000,5050.1837,N,01520.9084,E,1,09,1.4,1013.9,M,44.4,M,,0000*6E
$GPGSA,A,3,07,25,26,15,27,24,08,03,13,,,,1.9,1.4,1.3*37
$GPGSV,3,1,12,08,81,069,24,10,61,244,20,27,51,063,11,07,40,062,16*72
$GPGSV,3,2,12,28,32,162,24,26,32,291,15,25,21,064,20,15,18,290,18*73
$GPGSV,3,3,12,24,18,295,14,13,13,105,18,03,07,032,16,19,06,060,*79
$GPRMC,085434.000,A,5050.1837,N,01520.9084,E,0.91,318.04,060808,,*03
$GPGGA,085435.000,5050.1836,N,01520.9085,E,1,05,1.3,1014.5,M,44.4,M,,0000*6F
$GPGSA,A,3,10,15,28,08,03,,,,,,,,2.1,1.3,1.6*30
$GPGSV,3,1,12,08,81,069,21,10,61,244,11,27,51,063,09,07,40,062,12*78
$GPGSV,3,2,12,28,32,162,15,26,32,291,13,25,21,064,13,15,18,290,18*77
$GPGSV,3,3,12,24,18,295,12,13,13,105,09,03,07,032,16,19,06,060,*7F
$GPRMC,085435.000,A,5050.1836,N,01520.9085,E,1.42,147.47,060808,,*02
$GPGGA,085436.000,5050.1837,N,01520.9091,E,1,10,1.0,1015.0,M,44.4,M,,0000*6B
$GPGSA,A,3,07,10,25,26,15,28,27,24,08,13,,,1.6,1.0,1.3*34
$GPGSV,3,1,12,08,81,069,22,10,61,244,25,27,51,063,14,07,40,062,13*71
$GPGSV,3,2,12,28,32,162,26,26,32,291,13,25,21,064,20,15,18,290,18*77
$GPGSV,3,3,12,24,18,295,18,13,13,105,10,03,07,032,15,19,06,060,*7E
$GPRMC,085436.000,A,5050.1837,N,01520.9091,E,0.49,37.62,060808,,*3E
$GPGGA,085437.000,5050.1837,N,01520.9093,E,1,10,1.0,1015.7,M,44.4,M,,0000*6F
$GPGSA,A,3,07,10,25,26,15,28,27,24,08,13,,,1.6,1.0,1.3*34
$GPGSV,3,1,12,08,81,069,25,10,61,244,33,27,51,063,25,07,40,062,23*70
$GPGSV,3,2,12,28,32,162,32,26,32,291,15,25,21,064,25,15,18,290,18*71
$GPGSV,3,3,12,24,18,295,22,13,13,105,15,03,07,032,15,19,06,060,*72
$GPRMC,085437.000,A,5050.1837,N,01520.9093,E,1.00,176.83,060808,,*0A
$GPGGA,085438.000,5050.1838,N,01520.9093,E,1,11,0.9,1015.5,M,44.4,M,,0000*64
$GPGSA,A,3,07,10,25,26,15,28,27,24,08,03,13,,1.5,0.9,1.2*3D
$GPGSV,3,1,12,08,81,069,27,10,61,244,39,27,51,063,25,07,40,062,28*73
$GPGSV,3,2,12,28,32,162,32,26,32,291,20,25,21,064,23,15,18,290,18*71
$GPGSV,3,3,12,24,18,295,20,13,13,105,15,03,07,032,14,19,06,060,*71
$GPRMC,085438.000,A,5050.1838,N,01520.9093,E,0.63,330.92,060808,,*0E
$GPGGA,085439.000,5050.1841,N,01520.9090,E,1,10,1.0,1015.6,M,44.4,M,,0000*62
$GPGSA,A,3,07,10,25,26,15,28,27,24,08,13,,,1.6,1.0,1.3*34
$GPGSV,3,1,12,08,81,069,28,10,61,244,40,27,51,063,27,07,40,062,33*7A
$GPGSV,3,2,12,28,32,162,28,26,32,291,27,25,21,064,24,15,18,290,19*7B
$GPGSV,3,3,12,24,18,295,20,13,13,105,16,03,07,032,,19,06,060,20*75
$GPRMC,085439.000,A,5050.1841,N,01520.9090,E,0.56,354.68,060808,,*03
$GPGGA,085440.000,5050.1841,N,01520.9089,E,1,09,1.0,1016.2,M,44.4,M,,0000*6B
$GPGSA,A,3,07,10,25,26,15,28,27,08,13,,,,1.7,1.0,1.4*34
$GPGSV,3,1,12,08,81,069,28,10,61,244,35,27,51,063,27,07,40,062,32*79
$GPGSV,3,2,12,28,32,162,27,26,32,291,25,25,21,064,25,15,18,290,24*79
$GPGSV,3,3,12,24,18,295,13,13,13,105,17,03,07,032,13,19,06,060,18*7D
$GPRMC,085440.000,A,5050.1841,N,01520.9089,E,0.17,307.43,060808,,*0F
$GPGGA,085441.000,5050.1844,N,01520.9088,E,1,10,0.9,1016.9,M,44.4,M,,0000*65
$GPGSA,A,3,07,10,25,26,15,28,27,08,03,13,,,1.6,0.9,1.3*39
$GPGSV,3,1,12,08,81,069,27,10,61,244,35,27,51,063,26,07,40,062,32*77
$GPGSV,3,2,12,28,32,162,28,26,32,291,23,25,21,064,24,15,18,290,26*73
$GPGSV,3,3,12,24,18,295,10,13,13,105,18,03,07,032,15,19,06,060,20*7C
$GPRMC,085441.000,A,5050.1844,N,01520.9088,E,0.64,347.55,060808,,*0D
$GPGGA,085442.000,5050.1844,N,01520.9085,E,1,11,0.9,1017.0,M,44.4,M,,0000*62
$GPGSA,A,3,07,10,25,26,15,28,27,24,08,03,13,,1.5,0.9,1.2*3D
$GPGSV,3,1,12,08,81,069,28,10,61,244,33,27,51,063,28,07,40,062,32*70
$GPGSV,3,2,12,28,32,162,27,26,32,291,25,25,21,064,25,15,18,290,25*78
$GPGSV,3,3,12,24,18,295,11,13,13,105,16,03,07,032,17,19,06,060,20*71
$GPRMC,085442.000,A,5050.1844,N,01520.9085,E,0.43,210.98,060808,,*04
$GPGGA,085443.000,5050.1843,N,01520.9083,E,1,11,0.9,1016.8,M,44.4,M,,0000*6B
$GPGSA,A,3,07,10,25,26,15,28,27,24,08,03,13,,1.5,0.9,1.2*3D
$GPGSV,3,1,12,08,81,069,30,10,61,244,35,27,51,063,29,07,40,062,32*7E
$GPGSV,3,2,12,28,32,162,24,26,32,291,24,25,21,064,22,15,18,290,26*7E
$GPGSV,3,3,12,24,18,295,14,13,13,105,16,03,07,032,17,19,06,060,20*74
$GPRMC,085443.000,A,5050.1843,N,01520.9083,E,0.63,134.77,060808,,*02
$GPGGA,085444.000,5050.1845,N,01520.9081,E,1,11,0.9,1017.4,M,44.4,M,,0000*65
$GPGSA,A,3,07,10,25,26,15,28,27,24,08,03,13,,1.5,0.9,1.2*3D
$GPGSV,3,1,12,08,81,069,29,10,61,244,37,27,51,063,30,07,40,062,33*7D
$GPGSV,3,2,12,28,32,162,24,26,32,291,24,25,21,064,22,15,18,290,25*7D
$GPGSV,3,3,12,24,18,295,15,13,13,105,15,03,07,032,17,19,06,060,20*76
$GPRMC,085444.000,A,5050.1845,N,01520.9081,E,0.74,275.76,060808,,*00
$GPGGA,085445.000,5050.1845,N,01520.9077,E,1,11,0.9,1017.6,M,44.4,M,,0000*6F
$GPGSA,A,3,07,10,25,26,15,28,27,24,08,03,13,,1.5,0.9,1.2*3D
$GPGSV,3,1,12,08,81,069,29,10,61,244,37,27,51,063,30,07,40,062,32*7C
$GPGSV,3,2,12,28,32,162,28,26,32,291,27,25,21,064,21,15,18,290,25*71
$GPGSV,3,3,12,24,18,295,16,13,13,105,17,03,07,032,17,19,06,060,19*7D
$GPRMC,085445.000,A,5050.1845,N,01520.9077,E,0.65,196.22,060808,,*07
$GPGGA,085446.000,5050.1843,N,01520.9076,E,1,10,0.9,1017.4,M,44.4,M,,0000*68
$GPGSA,A,3,07,10,25,26,28,27,24,08,03,13,,,1.6,0.9,1.3*3B
$GPGSV,3,1,12,08,81,069,29,10,61,244,38,27,51,063,30,07,40,062,30*71
$GPGSV,3,2,12,28,32,162,29,26,32,291,28,25,21,064,21,15,18,290,18*71
$GPGSV,3,3,12,24,18,295,17,13,13,105,17,03,07,032,17,19,06,060,19*7C
$GPRMC,085446.000,A,5050.1843,N,01520.9076,E,1.19,178.02,060808,,*0B
$GPGGA,085447.000,5050.1841,N,01520.9075,E,1,11,0.9,1017.2,M,44.4,M,,0000*6F
$GPGSA,A,3,07,10,25,26,15,28,27,24,08,03,13,,1.5,0.9,1.2*3D
$GPGSV,3,1,12,08,81,069,30,10,61,244,38,27,51,063,29,07,40,062,28*78
$GPGSV,3,2,12,28,32,162,32,26,32,291,28,25,21,064,21,15,18,290,18*7B
$GPGSV,3,3,12,24,18,295,17,13,13,105,25,03,07,032,16,19,06,060,18*7D
$GPRMC,085447.000,A,5050.1841,N,01520.9075,E,0.57,242.15,060808,,*0C
$GPGGA,085448.000,5050.1843,N,01520.9074,E,1,10,0.9,1017.3,M,44.4,M,,0000*63
$GPGSA,A,3,07,10,25,26,15,28,27,24,03,13,,,1.7,0.9,1.5*30
$GPGSV,3,1,12,08,81,069,27,10,61,244,32,27,51,063,28,07,40,062,27*7A
$GPGSV,3,2,12,28,32,162,31,26,32,291,27,25,21,064,21,15,18,290,19*76
$GPGSV,3,3,12,24,18,295,17,13,13,105,22,03,07,032,16,19,06,060,18*7A
$GPRMC,085448.000,A,5050.1843,N,01520.9074,E,0.66,274.14,060808,,*06
$GPGGA,085449.000,5050.1846,N,01520.9074,E,1,09,0.9,1017.2,M,44.4,M,,0000*6E
$GPGSA,A,3,07,10,26,15,28,27,24,03,13,,,,1.7,0.9,1.5*37
$GPGSV,3,1,12,08,81,069,07,10,61,244,23,27,51,063,20,07,40,062,16*72
$GPGSV,3,2,12,28,32,162,26,26,32,291,20,25,21,064,10,15,18,290,18*74
$GPGSV,3,3,12,24,18,295,16,13,13,105,16,03,07,032,16,19,06,060,11*75
$GPRMC,085449.000,A,5050.1846,N,01520.9074,E,0.39,353.19,060808,,*01
$GPGGA,085450.000,5050.1846,N,01520.9071,E,1,08,1.2,1016.8,M,44.4,M,,0000*63
$GPGSA,A,3,07,10,26,15,28,27,24,08,,,,,2.2,1.2,1.9*3E
$GPGSV,3,1,12,08,81,069,11,10,61,244,23,27,51,063,20,07,40,062,15*76
$GPGSV,3,2,12,28,32,162,25,26,32,291,19,25,21,064,08,15,18,290,18*74
$GPGSV,3,3,12,24,18,295,16,13,13,105,12,03,07,032,15,19,06,060,07*75
$GPRMC,085450.000,A,5050.1846,N,01520.9071,E,0.38,294.93,060808,,*05
$GPGGA,085451.000,5050.1846,N,01520.9068,E,1,07,1.2,1016.1,M,44.4,M,,0000*6C
$GPGSA,A,3,07,10,26,15,28,27,08,,,,,,2.3,1.2,2.0*33
$GPGSV,3,1,12,08,81,069,15,10,61,244,23,27,51,063,21,07,40,062,16*70
$GPGSV,3,2,12,28,32,162,24,26,32,291,18,25,21,064,10,15,18,290,17*72
$GPGSV,3,3,12,24,18,295,15,13,13,105,11,03,07,032,15,19,06,060,07*75
$GPRMC,085451.000,A,5050.1846,N,01520.9068,E,0.49,5.14,060808,,*0F
$GPGGA,085452.000,5050.1847,N,01520.9070,E,1,07,1.2,1015.6,M,44.4,M,,0000*63
$GPGSA,A,3,07,10,26,15,28,27,08,,,,,,2.3,1.2,2.0*33
$GPGSV,3,1,12,08,81,069,17,10,61,244,23,27,51,063,20,07,40,062,18*7D
$GPGSV,3,2,12,28,32,162,23,26,32,291,18,25,21,064,11,15,18,290,17*74
$GPGSV,3,3,12,24,18,295,15,13,13,105,,03,07,032,14,19,06,060,*73
$GPRMC,085452.000,A,5050.1847,N,01520.9070,E,0.81,36.02,060808,,*37
$GPGGA,085453.000,5050.1848,N,01520.9065,E,1,07,1.2,1016.0,M,44.4,M,,0000*6C
$GPGSA,A,3,07,10,25,26,28,27,08,,,,,,2.3,1.2,1.9*3A
$GPGSV,3,1,12,08,81,069,17,10,61,244,22,27,51,063,19,07,40,062,18*76
$GPGSV,3,2,12,28,32,162,23,26,32,291,18,25,21,064,12,15,18,290,12*72
$GPGSV,3,3,12,24,18,295,15,13,13,105,10,03,07,032,14,19,06,060,*72
$GPRMC,085453.000,A,5050.1848,N,01520.9065,E,1.51,308.58,060808,,*00
$GPGGA,085454.000,5050.1849,N,01520.9057,E,1,08,1.1,1015.6,M,44.4,M,,0000*62
$GPGSA,A,3,07,10,25,26,15,28,27,08,,,,,2.0,1.1,1.7*30
$GPGSV,3,1,12,08,81,069,17,10,61,244,24,27,51,063,25,07,40,062,22*76
$GPGSV,3,2,12,28,32,162,25,26,32,291,30,25,21,064,24,15,18,290,15*7C
$GPGSV,3,3,12,24,18,295,15,13,13,105,10,03,07,032,21,19,06,060,*74
$GPRMC,085454.000,A,5050.1849,N,01520.9057,E,1.09,285.45,060808,,*02
$GPGGA,085455.000,5050.1853,N,01520.9050,E,1,10,1.0,1015.8,M,44.4,M,,0000*69
$GPGSA,A,3,07,10,25,26,15,28,27,24,08,03,,,1.7,1.0,1.4*33
$GPGSV,3,1,12,08,81,069,24,10,61,244,27,27,51,063,26,07,40,062,24*70
$GPGSV,3,2,12,28,32,162,27,26,32,291,34,25,21,064,26,15,18,290,20*7E
$GPGSV,3,3,12,24,18,295,16,13,13,105,,03,07,032,17,19,06,060,16*74
$GPRMC,085455.000,A,5050.1853,N,01520.9050,E,1.19,291.39,060808,,*00
$GPGGA,085456.000,5050.1854,N,01520.9050,E,1,11,0.9,1015.6,M,44.4,M,,0000*6A
$GPGSA,A,3,07,10,25,26,15,28,27,13,24,08,03,,1.5,0.9,1.2*3D
$GPGSV,3,1,12,08,81,069,28,10,61,244,28,27,51,063,38,07,40,062,37*7E
$GPGSV,3,2,12,28,32,162,25,26,32,291,36,25,21,064,28,15,18,290,30*71
$GPGSV,3,3,12,24,18,295,27,13,13,105,29,03,07,032,26,19,06,060,13*7A
$GPRMC,085456.000,A,5050.1854,N,01520.9050,E,0.48,21.47,060808,,*31
$GPGGA,085457.000,5050.1857,N,01520.9051,E,1,11,0.9,1016.0,M,44.4,M,,0000*6C
$GPGSA,A,3,07,10,25,26,15,28,27,13,24,08,03,,1.5,0.9,1.2*3D
$GPGSV,3,1,12,08,81,069,29,10,61,244,28,27,51,063,37,07,40,062,41*71
$GPGSV,3,2,12,28,32,162,26,26,32,291,36,25,21,064,37,15,18,290,29*74
$GPGSV,3,3,12,24,18,295,30,13,13,105,31,03,07,032,27,19,06,060,19*7E
$GPRMC,085457.000,A,5050.1857,N,01520.9051,E,0.67,348.81,060808,,*09
$GPGGA,085458.000,5050.1859,N,01520.9052,E,1,11,0.9,1015.8,M,44.4,M,,0000*65
$GPGSA,A,3,07,10,25,26,15,28,27,13,24,08,03,,1.5,0.9,1.2*3D
$GPGSV,3,1,12,08,81,069,29,10,61,244,28,27,51,063,32,07,40,062,34*76
$GPGSV,3,2,12,28,32,162,25,26,32,291,35,25,21,064,27,15,18,290,30*7D
$GPGSV,3,3,12,24,18,295,35,13,13,105,25,03,07,032,27,19,06,060,23*77
$GPRMC,085458.000,A,5050.1859,N,01520.9052,E,1.05,358.08,060808,,*0E
$GPGGA,085459.000,5050.1862,N,01520.9052,E,1,10,1.0,1016.7,M,44.4,M,,0000*69
$GPGSA,A,3,07,10,25,26,15,28,27,13,24,08,,,1.6,1.0,1.3*34
$GPGSV,3,1,12,08,81,069,29,10,61,244,31,27,51,063,33,07,40,062,34*7F
$GPGSV,3,2,12,28,32,162,26,26,32,291,34,25,21,064,32,15,18,290,30*7B
$GPGSV,3,3,12,24,18,295,24,13,13,105,23,03,07,032,22,19,06,060,26*71
$GPRMC,085459.000,A,5050.1862,N,01520.9052,E,0.80,335.44,060808,,*08
$GPGGA,085500.000,5050.1864,N,01520.9048,E,1,11,0.9,1017.3,M,44.4,M,,0000*65
$GPGSA,A,3,07,10,25,26,15,28,27,13,24,08,03,,1.5,0.9,1.2*3D
$GPGSV,3,1,12,08,81,069,29,10,61,244,35,27,51,063,32,07,40,062,33*7D
$GPGSV,3,2,12,28,32,162,27,26,32,291,34,25,21,064,30,15,18,290,37*7F
$GPGSV,3,3,12,24,18,295,35,13,13,105,23,03,07,032,22,19,06,060,15*71
$GPRMC,085500.000,A,5050.1864,N,01520.9048,E,0.52,300.57,060808,,*03
$GPGGA,085501.000,5050.1864,N,01520.9044,E,1,11,0.9,1017.3,M,44.4,M,,0000*68
$GPGSA,A,3,07,10,25,26,15,28,27,13,24,08,03,,1.5,0.9,1.2*3D
$GPGSV,3,1,12,08,81,069,24,10,61,244,35,27,51,063,32,07,40,062,27*75
$GPGSV,3,2,12,28,32,162,31,26,32,291,35,25,21,064,24,15,18,290,37*7C
$GPGSV,3,3,12,24,18,295,37,13,13,105,23,03,07,032,24,19,06,060,17*77
$GPRMC,085501.000,A,5050.1864,N,01520.9044,E,1.64,256.49,060808,,*07
$GPGGA,085502.000,5050.1862,N,01520.9039,E,1,11,0.9,1016.7,M,44.4,M,,0000*62
$GPGSA,A,3,07,10,25,26,15,28,27,13,24,08,03,,1.5,0.9,1.2*3D
$GPGSV,3,1,12,08,81,069,24,10,61,244,30,27,51,063,31,07,40,062,30*75
$GPGSV,3,2,12,28,32,162,28,26,32,291,37,25,21,064,28,15,18,290,37*7A
$GPGSV,3,3,12,24,18,295,36,13,13,105,30,03,07,032,25,19,06,060,28*79
$GPRMC,085502.000,A,5050.1862,N,01520.9039,E,1.06,245.02,060808,,*01
$GPGGA,085503.000,5050.1859,N,01520.9034,E,1,03,5.0,1017.1,M,44.4,M,,0000*6E
$GPGSA,A,2,27,24,08,,,,,,,,,,5.1,5.0,1.0*38
$GPGSV,3,1,12,08,81,069,23,10,61,244,11,27,51,063,17,07,40,062,23*77
$GPGSV,3,2,12,28,32,162,17,26,32,291,20,25,21,064,26,15,18,290,11*7A
$GPGSV,3,3,12,24,18,295,16,13,13,105,07,03,07,032,17,19,06,060,21*77
$GPRMC,085503.000,A,5050.1859,N,01520.9034,E,1.48,229.17,060808,,*01
$GPGGA,085504.000,5050.1857,N,01520.9029,E,1,00,50.0,1017.1,M,44.4,M,,0000*58
$GPGSA,A,2,,,,,,,,,,,,,50.0,50.0,50.0*06
$GPGSV,3,1,12,08,81,069,12,10,61,244,11,27,51,063,10,07,40,062,14*76
$GPGSV,3,2,12,28,32,162,07,26,32,291,16,25,21,064,13,15,18,290,07*7F
$GPGSV,3,3,12,24,18,295,07,13,13,105,08,03,07,032,,19,06,060,15*79
$GPRMC,085504.000,A,5050.1857,N,01520.9029,E,1.48,229.17,060808,,*04
$GPGGA,085505.000,5050.1856,N,01520.9031,E,1,04,4.5,1017.2,M,44.4,M,,0000*62
$GPGSA,A,3,07,10,25,26,,,,,,,,,7.2,4.5,5.6*30
$GPGSV,3,1,12,08,81,069,11,10,61,244,16,27,51,063,08,07,40,062,14*7B
$GPGSV,3,2,12,28,32,162,,26,32,291,20,25,21,064,12,15,18,290,07*7C
$GPGSV,3,3,12,24,18,295,07,13,13,105,07,03,07,032,,19,06,060,14*77
$GPRMC,085505.000,A,5050.1856,N,01520.9031,E,0.61,117.84,060808,,*03
$GPGGA,085506.000,5050.1853,N,01520.9039,E,1,06,1.2,1017.1,M,44.4,M,,0000*6F
$GPGSA,A,3,07,10,25,26,28,27,,,,,,,2.8,1.2,2.6*35
$GPGSV,3,1,12,08,81,069,,10,61,244,16,27,51,063,13,07,40,062,15*70
$GPGSV,3,2,12,28,32,162,18,26,32,291,19,25,21,064,24,15,18,290,09*74
$GPGSV,3,3,12,24,18,295,08,13,13,105,09,03,07,032,,19,06,060,17*75
$GPRMC,085506.000,A,5050.1853,N,01520.9039,E,0.83,119.52,060808,,*04
$GPGGA,085507.000,5050.1838,N,01520.9043,E,1,11,0.9,1015.2,M,44.4,M,,0000*63
$GPGSA,A,3,07,10,25,26,15,28,27,13,24,08,03,,1.5,0.9,1.2*3D
$GPGSV,3,1,12,08,81,069,32,10,61,244,23,27,51,063,29,07,40,062,35*7C
$GPGSV,3,2,12,28,32,162,30,26,32,291,29,25,21,064,33,15,18,290,20*70
$GPGSV,3,3,12,24,18,295,22,13,13,105,33,03,07,032,24,19,06,060,33*74
$GPRMC,085507.000,A,5050.1838,N,01520.9043,E,0.70,227.16,060808,,*07
$GPGGA,085508.000,5050.1837,N,01520.9044,E,1,11,0.9,1014.9,M,44.4,M,,0000*6E
$GPGSA,A,3,07,10,25,26,15,28,27,13,24,08,03,,1.5,0.9,1.2*3D
$GPGSV,3,1,12,08,81,069,34,10,61,244,30,27,51,063,35,07,40,062,39*79
$GPGSV,3,2,12,28,32,162,40,26,32,291,31,25,21,064,38,15,18,290,30*74
$GPGSV,3,3,12,24,18,295,25,13,13,105,40,03,07,032,27,19,06,060,36*71
$GPRMC,085508.000,A,5050.1837,N,01520.9044,E,0.67,264.43,060808,,*01
$GPGGA,085509.000,5050.1839,N,01520.9040,E,1,11,0.9,1014.8,M,44.4,M,,0000*64
$GPGSA,A,3,07,10,25,26,15,28,27,13,24,08,03,,1.5,0.9,1.2*3D
$GPGSV,3,1,12,08,81,069,33,10,61,244,30,27,51,063,36,07,40,062,39*7D
$GPGSV,3,2,12,28,32,162,40,26,32,291,27,25,21,064,37,15,18,290,23*7E
$GPGSV,3,3,12,24,18,295,26,13,13,105,39,03,07,032,28,19,06,060,37*72
$GPRMC,085509.000,A,5050.1839,N,01520.9040,E,0.23,87.08,060808,,*3A
$GPGGA,085510.000,5050.1839,N,01520.9039,E,1,04,5.6,1014.6,M,44.4,M,,0000*62
$GPGSA,A,3,07,10,25,15,,,,,,,,,7.7,5.6,5.4*35
$GPGSV,3,1,12,08,81,069,12,10,61,244,20,27,51,063,18,07,40,062,25*7E
$GPGSV,3,2,12,28,32,162,16,26,32,291,17,25,21,064,29,15,18,290,16*77
$GPGSV,3,3,12,24,18,295,16,13,13,105,17,03,07,032,16,19,06,060,32*75
$GPRMC,085510.000,A,5050.1839,N,01520.9039,E,0.52,71.62,060808,,*3F
$GPGGA,085511.000,5050.1845,N,01520.9045,E,1,07,1.1,1014.8,M,44.4,M,,0000*6D
$GPGSA,A,3,07,10,25,28,27,13,24,,,,,,2.0,1.1,1.7*3C
$GPGSV,3,1,12,08,81,069,07,10,61,244,15,27,51,063,10,07,40,062,27*76
$GPGSV,3,2,12,28,32,162,17,26,32,291,14,25,21,064,28,15,18,290,12*70
$GPGSV,3,3,12,24,18,295,13,13,13,105,16,03,07,032,07,19,06,060,27*75
$GPRMC,085511.000,A,5050.1845,N,01520.9045,E,1.66,56.13,060808,,*3B
$GPGGA,085512.000,5050.1850,N,01520.9050,E,1,07,1.2,1014.8,M,44.4,M,,0000*6D
$GPGSA,A,3,07,10,25,26,28,27,13,,,,,,2.4,1.2,2.1*3C
$GPGSV,3,1,12,08,81,069,07,10,61,244,14,27,51,063,15,07,40,062,27*72
$GPGSV,3,2,12,28,32,162,19,26,32,291,13,25,21,064,29,15,18,290,08*73
$GPGSV,3,3,12,24,18,295,12,13,13,105,17,03,07,032,,19,06,060,27*72
$GPRMC,085512.000,A,5050.1850,N,01520.9050,E,1.90,113.05,060808,,*06
$GPGGA,085513.000,5050.1843,N,01520.9060,E,1,06,2.5,1014.9,M,44.4,M,,0000*69
$GPGSA,A,3,07,10,25,28,27,13,,,,,,,4.6,2.5,3.9*31
$GPGSV,3,1,12,08,81,069,,10,61,244,12,27,51,063,16,07,40,062,27*70
$GPGSV,3,2,12,28,32,162,19,26,32,291,12,25,21,064,29,15,18,290,*7A
$GPGSV,3,3,12,24,18,295,,13,13,105,17,03,07,032,,19,06,060,27*71
$GPRMC,085513.000,A,5050.1843,N,01520.9060,E,3.64,116.74,060808,,*0C
$GPGGA,085514.000,5050.1835,N,01520.9074,E,1,06,2.5,1014.8,M,44.4,M,,0000*6B
$GPGSA,A,3,07,10,25,28,27,13,,,,,,,4.6,2.5,3.9*31
$GPGSV,3,1,12,08,81,069,,10,61,244,12,27,51,063,16,07,40,062,26*71
$GPGSV,3,2,12,28,32,162,19,26,32,291,11,25,21,064,29,15,18,290,*79
$GPGSV,3,3,12,24,18,295,,13,13,105,16,03,07,032,,19,06,060,26*71
$GPRMC,085514.000,A,5050.1835,N,01520.9074,E,3.90,126.95,060808,,*08
$GPGGA,085515.000,5050.1839,N,01520.9073,E,1,10,0.9,1013.6,M,44.4,M,,0000*61
$GPGSA,A,3,07,10,25,08,28,27,13,15,24,03,,,1.5,0.9,1.2*39
$GPGSV,3,1,12,08,81,069,31,10,61,244,26,27,51,063,36,07,40,062,37*76
$GPGSV,3,2,12,28,32,162,36,26,32,291,11,25,21,064,34,15,18,290,24*7E
$GPGSV,3,3,12,24,18,295,29,13,13,105,39,03,07,032,23,19,06,060,35*74
$GPRMC,085515.000,A,5050.1839,N,01520.9073,E,0.78,65.36,060808,,*38
$GPGGA,085516.000,5050.1843,N,01520.9069,E,1,10,0.9,1012.3,M,44.4,M,,0000*60
$GPGSA,A,3,07,10,25,08,28,27,13,15,24,03,,,1.5,0.9,1.2*39
$GPGSV,3,1,12,08,81,069,37,10,61,244,32,27,51,063,36,07,40,062,40*75
$GPGSV,3,2,12,28,32,162,39,26,32,291,,25,21,064,36,15,18,290,25*72
$GPGSV,3,3,12,24,18,295,21,13,13,105,39,03,07,032,19,19,06,060,37*77
$GPRMC,085516.000,A,5050.1843,N,01520.9069,E,0.59,176.37,060808,,*0C
$GPGGA,085517.000,5050.1845,N,01520.9067,E,1,11,0.9,1011.8,M,44.4,M,,0000*60
$GPGSA,A,3,07,10,25,26,08,28,27,13,15,24,03,,1.5,0.9,1.2*3D
$GPGSV,3,1,12,08,81,069,38,10,61,244,32,27,51,063,36,07,40,062,40*7A
$GPGSV,3,2,12,28,32,162,39,26,32,291,31,25,21,064,36,15,18,290,25*70
$GPGSV,3,3,12,24,18,295,26,13,13,105,38,03,07,032,26,19,06,060,37*7D
$GPRMC,085517.000,A,5050.1845,N,01520.9067,E,0.28,318.88,060808,,*0D
$GPGGA,085518.000,5050.1851,N,01520.9066,E,1,11,0.9,1010.9,M,44.4,M,,0000*6B
$GPGSA,A,3,07,10,25,26,08,28,27,13,15,24,03,,1.5,0.9,1.2*3D
$GPGSV,3,1,12,08,81,069,38,10,61,244,31,27,51,063,37,07,40,062,40*78
$GPGSV,3,2,12,28,32,162,39,26,32,291,33,25,21,064,35,15,18,290,25*71
$GPGSV,3,3,12,24,18,295,26,13,13,105,38,03,07,032,28,19,06,060,38*7C
$GPRMC,085518.000,A,5050.1851,N,01520.9066,E,0.59,319.10,060808,,*00
$GPGGA,085519.000,5050.1856,N,01520.9062,E,1,11,0.9,1010.7,M,44.4,M,,0000*67
$GPGSA,A,3,07,10,25,26,08,28,27,13,15,24,03,,1.5,0.9,1.2*3D
$GPGSV,3,1,12,08,81,069,38,10,61,244,22,27,51,063,37,07,40,062,40*7A
$GPGSV,3,2,12,28,32,162,31,26,32,291,33,25,21,064,36,15,18,290,26*79
$GPGSV,3,3,12,24,18,295,32,13,13,105,38,03,07,032,28,19,06,060,38*79
$GPRMC,085519.000,A,5050.1856,N,01520.9062,E,0.79,344.12,060808,,*0A
$GPGGA,085520.000,5050.1861,N,01520.9056,E,1,11,0.9,1010.5,M,44.4,M,,0000*6C
$GPGSA,A,3,07,10,25,26,08,28,27,13,15,24,03,,1.5,0.9,1.2*3D
$GPGSV,3,1,12,08,81,069,38,10,61,244,24,27,51,063,36,07,40,062,40*7D
$GPGSV,3,2,12,28,32,162,30,26,32,291,34,25,21,064,37,15,18,290,26*7E
$GPGSV,3,3,12,24,18,295,34,13,13,105,38,03,07,032,27,19,06,060,38*70
$GPRMC,085520.000,A,5050.1861,N,01520.9056,E,0.23,126.70,060808,,*0E
$GPGGA,085521.000,5050.1861,N,01520.9055,E,1,11,0.9,1011.2,M,44.4,M,,0000*68
$GPGSA,A,3,07,10,25,26,08,28,27,13,15,24,03,,1.5,0.9,1.2*3D
$GPGSV,3,1,12,08,81,069,38,10,61,244,28,27,51,063,37,07,40,062,40*70
$GPGSV,3,2,12,28,32,162,30,26,32,291,33,25,21,064,37,15,18,290,32*7C
$GPGSV,3,3,12,24,18,295,34,13,13,105,38,03,07,032,23,19,06,060,38*74
$GPRMC,085521.000,A,5050.1861,N,01520.9055,E,0.27,114.92,060808,,*05
$GPGGA,085522.000,5050.1862,N,01520.9053,E,1,11,0.9,1011.1,M,44.4,M,,0000*6D
$GPGSA,A,3,07,10,25,26,08,28,27,13,15,24,03,,1.5,0.9,1.2*3D
$GPGSV,3,1,12,08,81,069,39,10,61,244,29,27,51,063,37,07,40,062,40*70
$GPGSV,3,2,12,28,32,162,32,26,32,291,29,25,21,064,37,15,18,290,31*76
$GPGSV,3,3,12,24,18,295,33,13,13,105,38,03,07,032,26,19,06,060,38*76
$GPRMC,085522.000,A,5050.1862,N,01520.9053,E,0.04,352.35,060808,,*0F
$GPGGA,085523.000,5050.1863,N,01520.9049,E,1,11,0.9,1010.8,M,44.4,M,,0000*6E
$GPGSA,A,3,07,10,25,26,08,28,27,13,15,24,03,,1.5,0.9,1.2*3D
$GPGSV,3,1,12,08,81,069,39,10,61,244,29,27,51,063,37,07,40,062,41*71
$GPGSV,3,2,12,28,32,162,33,26,32,291,30,25,21,064,37,15,18,290,30*7E
$GPGSV,3,3,12,24,18,295,31,13,13,105,38,03,07,032,27,19,06,060,38*75
$GPRMC,085523.000,A,5050.1863,N,01520.9049,E,0.01,343.76,060808,,*06
$GPGGA,085524.000,5050.1863,N,01520.9050,E,1,11,0.9,1011.0,M,44.4,M,,0000*68
$GPGSA,A,3,07,10,25,26,08,28,27,13,15,24,03,,1.5,0.9,1.2*3D
$GPGSV,3,1,12,08,81,069,40,10,61,244,26,27,51,063,37,07,40,062,41*70
$GPGSV,3,2,12,28,32,162,33,26,32,291,31,25,21,064,37,15,18,290,30*7F
$GPGSV,3,3,12,24,18,295,26,13,13,105,38,03,07,032,27,19,06,060,38*73
$GPRMC,085524.000,A,5050.1863,N,01520.9050,E,0.20,336.79,060808,,*07
$GPGGA,085525.000,5050.1862,N,01520.9051,E,1,10,0.9,1011.4,M,44.4,M,,0000*6C
$GPGSA,A,3,07,25,26,08,28,27,13,15,24,03,,,1.6,0.9,1.3*3E
$GPGSV,3,1,12,08,81,069,40,10,61,244,,27,51,063,37,07,40,062,41*74
$GPGSV,3,2,12,28,32,162,34,26,32,291,30,25,21,064,37,15,18,290,30*79
$GPGSV,3,3,12,24,18,295,26,13,13,105,38,03,07,032,21,19,06,060,38*75
$GPRMC,085525.000,A,5050.1862,N,01520.9051,E,0.33,115.46,060808,,*0B
$GPGGA,085526.000,5050.1861,N,01520.9052,E,1,11,0.9,1011.9,M,44.4,M,,0000*63
$GPGSA,A,3,07,10,25,26,08,28,27,13,15,24,03,,1.5,0.9,1.2*3D
$GPGSV,3,1,12,08,81,069,40,10,61,244,26,27,51,063,37,07,40,062,40*71
$GPGSV,3,2,12,28,32,162,35,26,32,291,31,25,21,064,35,15,18,290,26*7C
$GPGSV,3,3,12,24,18,295,26,13,13,105,38,03,07,032,25,19,06,060,38*71
$GPRMC,085526.000,A,5050.1861,N,01520.9052,E,0.03,347.69,060808,,*03
$GPGGA,085527.000,5050.1860,N,01520.9053,E,1,11,0.9,1012.4,M,44.4,M,,0000*6C
$GPGSA,A,3,07,10,25,26,08,28,27,13,15,24,03,,1.5,0.9,1.2*3D
$GPGSV,3,1,12,08,81,069,40,10,61,244,28,27,51,063,37,07,40,062,40*7F
$GPGSV,3,2,12,28,32,162,41,26,32,291,30,25,21,064,32,15,18,290,21*7E
$GPGSV,3,3,12,24,18,295,26,13,13,105,38,03,07,032,25,19,06,060,38*71
$GPRMC,085527.000,A,5050.1860,N,01520.9053,E,0.10,311.49,060808,,*01
$GPGGA,085528.000,5050.1860,N,01520.9054,E,1,12,0.9,1012.8,M,44.4,M,,0000*6B
$GPGSA,A,3,07,10,25,26,08,28,27,13,15,24,03,19,1.5,0.9,1.2*35
$GPGSV,3,1,12,08,81,069,40,10,61,244,30,27,51,063,37,07,40,062,40*76
$GPGSV,3,2,12,28,32,162,41,26,32,291,25,25,21,064,33,15,18,290,22*78
$GPGSV,3,3,12,24,18,295,26,13,13,105,39,03,07,032,25,19,06,060,38*70
$GPRMC,085528.000,A,5050.1860,N,01520.9054,E,0.26,88.32,060808,,*33
$GPGGA,085529.000,5050.1859,N,01520.9057,E,1,12,0.9,1013.4,M,44.4,M,,0000*6E
$GPGSA,A,3,07,10,25,26,08,28,27,13,15,24,03,19,1.5,0.9,1.2*35
$GPGSV,3,1,12,08,80,067,40,10,61,242,31,27,50,063,37,07,39,062,40*71
$GPGSV,3,2,12,28,33,162,41,26,33,291,28,25,20,064,33,15,19,290,24*73
$GPGSV,3,3,12,24,18,294,27,13,12,105,39,19,07,059,38,03,07,031,25*79
$GPRMC,085529.000,A,5050.1859,N,01520.9057,E,0.36,97.71,060808,,*33
$GPGGA,085530.000,5050.1858,N,01520.9060,E,1,12,0.9,1013.7,M,44.4,M,,0000*60
$GPGSA,A,3,07,10,25,26,08,28,27,13,15,24,03,19,1.5,0.9,1.2*35
$GPGSV,3,1,12,08,80,067,40,10,61,242,31,27,50,063,38,07,39,062,40*7E
$GPGSV,3,2,12,28,33,162,41,26,33,291,29,25,20,064,32,15,19,290,24*73
$GPGSV,3,3,12,24,18,294,13,13,12,105,39,19,07,059,39,03,07,031,25*7F
$GPRMC,085530.000,A,5050.1858,N,01520.9060,E,0.33,96.25,060808,,*3B
$GPGGA,085531.000,5050.1858,N,01520.9062,E,1,12,0.9,1013.9,M,44.4,M,,0000*6D
$GPGSA,A,3,07,10,25,26,08,28,27,13,15,24,03,19,1.5,0.9,1.2*35
$GPGSV,3,1,12,08,80,067,40,10,61,242,31,27,50,063,38,07,39,062,39*70
$GPGSV,3,2,12,28,33,162,41,26,33,291,29,25,20,064,32,15,19,290,24*73
$GPGSV,3,3,12,24,18,294,14,13,12,105,39,19,07,059,39,03,07,031,26*7B
$GPRMC,085531.000,A,5050.1858,N,01520.9062,E,0.18,83.21,060808,,*31
$GPGGA,085532.000,5050.1858,N,01520.9063,E,1,12,0.9,1014.2,M,44.4,M,,0000*63
$GPGSA,A,3,07,10,25,26,08,28,27,13,15,24,03,19,1.5,0.9,1.2*35
$GPGSV,3,1,12,08,80,067,40,10,61,242,31,27,50,063,38,07,39,062,39*70
$GPGSV,3,2,12,28,33,162,41,26,33,291,28,25,20,064,32,15,19,290,25*73
$GPGSV,3,3,12,24,18,294,17,13,12,105,39,19,07,059,39,03,07,031,26*78
$GPRMC,085532.000,A,5050.1858,N,01520.9063,E,0.13,20.84,060808,,*3E
$GPGGA,085533.000,5050.1857,N,01520.9065,E,1,12,0.9,1014.4,M,44.4,M,,0000*6D
$GPGSA,A,3,07,10,25,26,08,28,27,13,15,24,03,19,1.5,0.9,1.2*35
$GPGSV,3,1,12,08,80,067,40,10,61,242,32,27,50,063,38,07,39,062,39*73
$GPGSV,3,2,12,28,33,162,41,26,33,291,28,25,20,064,32,15,19,290,25*73
$GPGSV,3,3,12,24,18,294,23,13,12,105,39,19,07,059,39,03,07,031,26*7F
$GPRMC,085533.000,A,5050.1857,N,01520.9065,E,0.16,60.81,060808,,*32
$GPGGA,085534.000,5050.1857,N,01520.9067,E,1,12,0.9,1014.5,M,44.4,M,,0000*69
$GPGSA,A,3,07,10,25,26,08,28,27,13,15,24,03,19,1.5,0.9,1.2*35
$GPGSV,3,1,12,08,80,067,41,10,61,242,31,27,50,063,38,07,39,062,39*71
$GPGSV,3,2,12,28,33,162,41,26,33,291,28,25,20,064,32,15,19,290,28*7E
$GPGSV,3,3,12,24,18,294,23,13,12,105,39,19,07,059,39,03,07,031,27*7E
$GPRMC,085534.000,A,5050.1857,N,01520.9067,E,0.11,53.17,060808,,*3F
$GPGGA,085535.000,5050.1857,N,01520.9069,E,1,12,0.9,1014.7,M,44.4,M,,0000*64
$GPGSA,A,3,07,10,25,26,08,28,27,13,15,24,03,19,1.5,0.9,1.2*35
$GPGSV,3,1,12,08,80,067,41,10,61,242,31,27,50,063,38,07,39,062,39*71
$GPGSV,3,2,12,28,33,162,41,26,33,291,28,25,20,064,32,15,19,290,29*7F
$GPGSV,3,3,12,24,18,294,23,13,12,105,39,19,07,059,39,03,07,031,27*7E
$GPRMC,085535.000,A,5050.1857,N,01520.9069,E,0.19,85.27,060808,,*30
$GPGGA,085536.000,5050.1857,N,01520.9069,E,1,12,0.9,1014.8,M,44.4,M,,0000*68
$GPGSA,A,3,07,10,25,26,08,28,27,13,15,24,03,19,1.5,0.9,1.2*35
$GPGSV,3,1,12,08,80,067,42,10,61,242,31,27,50,063,38,07,39,062,39*72
$GPGSV,3,2,12,28,33,162,41,26,33,291,29,25,20,064,32,15,19,290,28*7F
$GPGSV,3,3,12,24,18,294,23,13,12,105,39,19,07,059,39,03,07,031,27*7E
$GPRMC,085536.000,A,5050.1857,N,01520.9069,E,0.08,46.17,060808,,*3F
$GPGGA,085537.000,5050.1857,N,01520.9069,E,1,12,0.9,1014.8,M,44.4,M,,0000*69
$GPGSA,A,3,07,10,25,26,08,28,27,13,15,24,03,19,1.5,0.9,1.2*35
$GPGSV,3,1,12,08,80,067,42,10,61,242,31,27,50,063,38,07,39,062,39*72
$GPGSV,3,2,12,28,33,162,41,26,33,291,29,25,20,064,32,15,19,290,28*7F
$GPGSV,3,3,12,24,18,294,24,13,12,105,39,19,07,059,39,03,07,031,27*79
$GPRMC,085537.000,A,5050.1857,N,01520.9069,E,0.12,345.01,060808,,*02
$GPGGA,085538.000,5050.1857,N,01520.9069,E,1,12,0.9,1014.8,M,44.4,M,,0000*66
$GPGSA,A,3,07,10,25,26,08,28,27,13,15,24,03,19,1.5,0.9,1.2*35
$GPGSV,3,1,12,08,80,067,42,10,61,242,31,27,50,063,38,07,39,062,39*72
$GPGSV,3,2,12,28,33,162,41,26,33,291,29,25,20,064,32,15,19,290,28*7F
$GPGSV,3,3,12,24,18,294,24,13,12,105,39,19,07,059,39,03,07,031,28*76
$GPRMC,085538.000,A,5050.1857,N,01520.9069,E,0.09,17.13,060808,,*30
$GPGGA,085539.000,5050.1857,N,01520.9069,E,1,12,0.9,1014.8,M,44.4,M,,0000*67
$GPGSA,A,3,07,10,25,26,08,28,27,13,15,24,03,19,1.5,0.9,1.2*35
$GPGSV,3,1,12,08,80,067,42,10,61,242,31,27,50,063,38,07,39,062,39*72
$GPGSV,3,2,12,28,33,162,40,26,33,291,29,25,20,064,32,15,19,290,28*7E
$GPGSV,3,3,12,24,18,294,29,13,12,105,39,19,07,059,39,03,07,031,28*7B
$GPRMC,085539.000,A,5050.1857,N,01520.9069,E,0.09,5.74,060808,,*03
$GPGGA,085540.000,5050.1857,N,01520.9069,E,1,12,0.9,1014.9,M,44.4,M,,0000*68
$GPGSA,A,3,07,10,25,26,08,28,27,13,15,24,03,19,1.5,0.9,1.2*35
$GPGSV,3,1,12,08,80,067,42,10,61,242,32,27,50,063,38,07,39,062,39*71
$GPGSV,3,2,12,28,33,162,40,26,33,291,29,25,20,064,32,15,19,290,28*7E
$GPGSV,3,3,12,24,18,294,31,13,12,105,39,19,07,059,38,03,07,031,28*73
$GPRMC,085540.000,A,5050.1857,N,01520.9069,E,0.08,17.91,060808,,*34
$GPGGA,085541.000,5050.1857,N,01520.9069,E,1,12,0.9,1014.8,M,44.4,M,,0000*68
$GPGSA,A,3,07,10,25,26,08,28,27,13,15,24,03,19,1.5,0.9,1.2*35
$GPGSV,3,1,12,08,80,067,42,10,61,242,31,27,50,063,38,07,39,062,38*73
$GPGSV,3,2,12,28,33,162,40,26,33,291,29,25,20,064,32,15,19,290,28*7E
$GPGSV,3,3,12,24,18,294,30,13,12,105,39,19,07,059,38,03,07,031,28*72
$GPRMC,085541.000,A,5050.1857,N,01520.9069,E,0.06,48.94,060808,,*34
$GPGGA,085542.000,5050.1857,N,01520.9069,E,1,12,0.9,1014.8,M,44.4,M,,0000*6B
$GPGSA,A,3,07,10,25,26,08,28,27,13,15,24,03,19,1.5,0.9,1.2*35
$GPGSV,3,1,12,08,80,067,42,10,61,242,31,27,50,063,38,07,39,062,38*73
$GPGSV,3,2,12,28,33,162,40,26,33,291,29,25,20,064,32,15,19,290,28*7E
$GPGSV,3,3,12,24,18,294,29,13,12,105,39,19,07,059,38,03,07,031,28*7A
$GPRMC,085542.000,A,5050.1857,N,01520.9069,E,0.07,30.73,060808,,*30
$GPGGA,085543.000,5050.1857,N,01520.9068,E,1,12,0.9,1014.8,M,44.4,M,,0000*6B
$GPGSA,A,3,07,10,25,26,08,28,27,13,15,24,03,19,1.5,0.9,1.2*35
$GPGSV,3,1,12,08,80,067,42,10,61,242,31,27,50,063,38,07,39,062,38*73
$GPGSV,3,2,12,28,33,162,40,26,33,291,30,25,20,064,32,15,19,290,28*76
$GPGSV,3,3,12,24,18,294,29,13,12,105,39,19,07,059,38,03,07,031,28*7A
$GPRMC,085543.000,A,5050.1857,N,01520.9068,E,0.06,34.99,060808,,*31
$GPGGA,085544.000,5050.1857,N,01520.9068,E,1,12,0.9,1014.7,M,44.4,M,,0000*63
$GPGSA,A,3,07,10,25,26,08,28,27,13,15,24,03,19,1.5,0.9,1.2*35
$GPGSV,3,1,12,08,80,067,42,10,61,242,31,27,50,063,38,07,39,062,38*73
$GPGSV,3,2,12,28,33,162,40,26,33,291,30,25,20,064,32,15,19,290,28*76
$GPGSV,3,3,12,24,18,294,27,13,12,105,39,19,07,059,38,03,07,031,28*74
$GPRMC,085544.000,A,5050.1857,N,01520.9068,E,0.06,34.32,060808,,*37
$GPGGA,085545.000,5050.1857,N,01520.9068,E,1,12,0.9,1014.7,M,44.4,M,,0000*62
$GPGSA,A,3,07,10,25,26,08,28,27,13,15,24,03,19,1.5,0.9,1.2*35
$GPGSV,3,1,12,08,80,067,42,10,61,242,31,27,50,063,38,07,39,062,38*73
$GPGSV,3,2,12,28,33,162,40,26,33,291,30,25,20,064,32,15,19,290,28*76
$GPGSV,3,3,12,24,18,294,25,13,12,105,39,19,07,059,38,03,07,031,28*76
$GPRMC,085545.000,A,5050.1857,N,01520.9068,E,0.06,44.50,060808,,*35
$GPGGA,085546.000,5050.1857,N,01520.9068,E,1,12,0.9,1014.7,M,44.4,M,,0000*61
$GPGSA,A,3,07,10,25,26,08,28,27,13,15,24,03,19,1.5,0.9,1.2*35
$GPGSV,3,1,12,08,80,067,42,10,61,242,31,27,50,063,38,07,39,062,38*73
$GPGSV,3,2,12,28,33,162,40,26,33,291,30,25,20,064,32,15,19,290,28*76
$GPGSV,3,3,12,24,18,294,25,13,12,105,39,19,07,059,38,03,07,031,29*77
$GPRMC,085546.000,A,5050.1857,N,01520.9068,E,0.06,25.91,060808,,*3C
$GPGGA,085547.000,5050.1857,N,01520.9068,E,1,12,0.9,1014.7,M,44.4,M,,0000*60
$GPGSA,A,3,07,10,25,26,08,28,27,13,15,24,03,19,1.5,0.9,1.2*35
$GPGSV,3,1,12,08,80,067,42,10,61,242,31,27,50,063,38,07,39,062,38*73
$GPGSV,3,2,12,28,33,162,40,26,33,291,31,25,20,065,27,15,19,290,28*72
$GPGSV,3,3,12,24,18,294,24,13,12,105,39,19,07,059,38,03,07,031,29*76
$GPRMC,085547.000,A,5050.1857,N,01520.9068,E,0.07,35.32,060808,,*34
$GPGGA,085548.000,5050.1856,N,01520.9068,E,1,12,0.9,1014.7,M,44.4,M,,0000*6E
$GPGSA,A,3,07,10,25,26,08,28,27,13,15,24,03,19,1.5,0.9,1.2*35
$GPGSV,3,1,12,08,80,067,42,10,61,242,30,27,50,063,38,07,39,062,38*72
$GPGSV,3,2,12,28,33,162,40,26,33,291,31,25,20,065,26,15,19,290,28*73
$GPGSV,3,3,12,24,18,294,19,13,12,105,40,19,07,059,38,03,07,031,29*76
$GPRMC,085548.000,A,5050.1856,N,01520.9068,E,0.06,35.37,060808,,*3E
$GPGGA,085549.000,5050.1856,N,01520.9068,E,1,12,0.9,1014.7,M,44.4,M,,0000*6F
$GPGSA,A,3,07,10,25,26,08,28,27,13,15,24,03,19,1.5,0.9,1.2*35
$GPGSV,3,1,12,08,80,067,42,10,61,242,30,27,50,063,38,07,39,062,38*72
$GPGSV,3,2,12,28,33,162,40,26,33,291,31,25,20,065,26,15,19,290,28*73
$GPGSV,3,3,12,24,18,294,19,13,12,105,40,19,07,059,38,03,07,031,29*76
$GPRMC,085549.000,A,5050.1856,N,01520.9068,E,0.12,65.12,060808,,*38
$GPGGA,085550.000,5050.1856,N,01520.9069,E,1,12,0.9,1014.8,M,44.4,M,,0000*69
$GPGSA,A,3,07,10,25,26,08,28,27,13,15,24,03,19,1.5,0.9,1.2*35
$GPGSV,3,1,12,08,80,067,42,10,61,242,30,27,50,063,38,07,39,062,38*72
$GPGSV,3,2,12,28,33,162,40,26,33,291,31,25,20,065,26,15,19,290,28*73
$GPGSV,3,3,12,24,18,294,20,13,12,105,40,19,07,059,38,03,07,031,29*7C
$GPRMC,085550.000,A,5050.1856,N,01520.9069,E,0.18,82.62,060808,,*35
$GPGGA,085551.000,5050.1856,N,01520.9069,E,1,12,0.9,1014.8,M,44.4,M,,0000*68
$GPGSA,A,3,07,10,25,26,08,28,27,13,15,24,03,19,1.5,0.9,1.2*35
$GPGSV,3,1,12,08,80,067,42,10,61,242,30,27,50,063,38,07,39,062,38*72
$GPGSV,3,2,12,28,33,162,40,26,33,291,31,25,20,065,27,15,19,290,28*72
$GPGSV,3,3,12,24,18,294,21,13,12,105,40,19,07,059,38,03,07,031,29*7D
$GPRMC,085551.000,A,5050.1856,N,01520.9069,E,0.11,15.13,060808,,*35
$GPGGA,085552.000,5050.1856,N,01520.9069,E,1,12,0.9,1014.9,M,44.4,M,,0000*6A
$GPGSA,A,3,07,10,25,26,08,28,27,13,15,24,03,19,1.5,0.9,1.2*35
$GPGSV,3,1,12,08,80,067,42,10,61,242,30,27,50,063,38,07,39,062,38*72
$GPGSV,3,2,12,28,33,162,40,26,33,291,31,25,20,065,27,15,19,290,28*72
$GPGSV,3,3,12,24,18,294,22,13,12,105,40,19,07,059,38,03,07,031,29*7E
$GPRMC,085552.000,A,5050.1856,N,01520.9069,E,0.09,32.28,060808,,*32
$GPGGA,085553.000,5050.1856,N,01520.9069,E,1,12,0.9,1014.9,M,44.4,M,,0000*6B
$GPGSA,A,3,07,10,25,26,08,28,27,13,15,24,03,19,1.5,0.9,1.2*35
$GPGSV,3,1,12,08,80,067,42,10,61,242,30,27,50,063,38,07,39,062,38*72
$GPGSV,3,2,12,28,33,162,40,26,33,291,31,25,20,065,27,15,19,290,28*72
$GPGSV,3,3,12,24,18,294,22,13,12,105,40,19,07,059,38,03,07,031,29*7E
$GPRMC,085553.000,A,5050.1856,N,01520.9069,E,0.08,46.90,060808,,*32
$GPGGA,085554.000,5050.1856,N,01520.9069,E,1,12,0.9,1015.0,M,44.4,M,,0000*64
$GPGSA,A,3,07,10,25,26,08,28,27,13,15,24,03,19,1.5,0.9,1.2*35
$GPGSV,3,1,12,08,80,067,42,10,61,242,30,27,50,063,38,07,39,062,38*72
$GPGSV,3,2,12,28,33,162,40,26,33,291,31,25,20,065,27,15,19,290,28*72
$GPGSV,3,3,12,24,18,294,23,13,12,105,40,19,07,059,38,03,07,031,29*7F
$GPRMC,085554.000,A,5050.1856,N,01520.9069,E,0.09,46.16,060808,,*3A
$GPGGA,085555.000,5050.1856,N,01520.9069,E,1,12,0.9,1015.1,M,44.4,M,,0000*64
$GPGSA,A,3,07,10,25,26,08,28,27,13,15,24,03,19,1.5,0.9,1.2*35
$GPGSV,3,1,12,08,80,067,42,10,61,242,29,27,50,063,38,07,39,062,38*7A
$GPGSV,3,2,12,28,33,162,40,26,33,291,31,25,20,065,27,15,19,290,28*72
$GPGSV,3,3,12,24,18,294,23,13,12,105,40,19,07,059,38,03,07,031,29*7F
$GPRMC,085555.000,A,5050.1856,N,01520.9069,E,0.11,352.85,060808,,*0E
$GPGGA,085556.000,5050.1856,N,01520.9069,E,1,12,0.9,1015.1,M,44.4,M,,0000*67
$GPGSA,A,3,07,10,25,26,08,28,27,13,15,24,03,19,1.5,0.9,1.2*35
$GPGSV,3,1,12,08,80,067,42,10,61,242,29,27,50,063,38,07,39,062,39*7B
$GPGSV,3,2,12,28,33,162,40,26,33,291,31,25,20,065,26,15,19,290,29*72
$GPGSV,3,3,12,24,18,294,23,13,12,105,40,19,07,059,38,03,07,031,29*7F
$GPRMC,085556.000,A,5050.1856,N,01520.9069,E,0.07,28.83,060808,,*32
$GPGGA,085557.000,5050.1856,N,01520.9069,E,1,12,0.9,1015.2,M,44.4,M,,0000*65
$GPGSA,A,3,07,10,25,26,08,28,27,13,15,24,03,19,1.5,0.9,1.2*35
$GPGSV,3,1,12,08,80,067,42,10,61,242,29,27,50,063,38,07,39,062,39*7B
$GPGSV,3,2,12,28,33,162,40,26,33,291,31,25,20,065,26,15,19,290,29*72
$GPGSV,3,3,12,24,18,294,23,13,12,105,40,19,07,059,38,03,07,031,29*7F
$GPRMC,085557.000,A,5050.1856,N,01520.9069,E,0.13,70.98,060808,,*31
$GPGGA,085558.000,5050.1856,N,01520.9069,E,1,12,0.9,1015.2,M,44.4,M,,0000*6A
$GPGSA,A,3,07,10,25,26,08,28,27,13,15,24,03,19,1.5,0.9,1.2*35
$GPGSV,3,1,12,08,80,067,42,10,61,242,29,27,50,063,39,07,39,062,38*7B
$GPGSV,3,2,12,28,33,162,40,26,33,291,32,25,20,065,26,15,19,290,29*71
$GPGSV,3,3,12,24,18,294,23,13,12,105,40,19,07,059,38,03,07,031,29*7F
$GPRMC,085558.000,A,5050.1856,N,01520.9069,E,0.10,8.04,060808,,*07
$GPGGA,085559.000,5050.1855,N,01520.9069,E,1,12,0.9,1015.3,M,44.4,M,,0000*69
$GPGSA,A,3,07,10,25,26,08,28,27,13,15,24,03,19,1.5,0.9,1.2*35
$GPGSV,3,1,12,08,80,067,42,10,61,242,28,27,50,063,39,07,39,062,38*7A
$GPGSV,3,2,12,28,33,162,40,26,33,291,32,25,20,065,26,15,19,290,29*71
$GPGSV,3,3,12,24,18,294,23,13,12,105,40,19,07,059,38,03,07,031,29*7F
$GPRMC,085559.000,A,5050.1855,N,01520.9069,E,0.11,51.21,060808,,*3F
$GPGGA,085600.000,5050.1855,N,01520.9069,E,1,12,0.9,1015.4,M,44.4,M,,0000*61
$GPGSA,A,3,07,10,25,26,08,28,27,13,15,24,03,19,1.5,0.9,1.2*35
$GPGSV,3,1,12,08,80,067,42,10,61,242,24,27,50,063,39,07,39,062,38*76
$GPGSV,3,2,12,28,33,162,40,26,33,291,32,25,20,065,26,15,19,290,29*71
$GPGSV,3,3,12,24,18,294,23,13,12,105,40,19,07,059,38,03,07,031,29*7F
$GPRMC,085600.000,A,5050.1855,N,01520.9069,E,0.08,21.63,060808,,*39
$GPGGA,085601.000,5050.1855,N,01520.9069,E,1,12,0.9,1015.5,M,44.4,M,,0000*61
$GPGSA,A,3,07,10,25,26,08,28,27,13,15,24,03,19,1.5,0.9,1.2*35
$GPGSV,3,1,12,08,80,067,41,10,61,242,24,27,50,063,39,07,39,062,38*75
$GPGSV,3,2,12,28,33,162,40,26,33,291,32,25,20,065,26,15,19,290,29*71
$GPGSV,3,3,12,24,18,294,23,13,12,105,40,19,07,059,38,03,07,031,29*7F
$GPRMC,085601.000,A,5050.1855,N,01520.9069,E,0.13,51.19,060808,,*38
$GPGGA,085602.000,5050.1855,N,01520.9069,E,1,12,0.9,1015.5,M,44.4,M,,0000*62
$GPGSA,A,3,07,10,25,26,08,28,27,13,15,24,03,19,1.5,0.9,1.2*35
$GPGSV,3,1,12,08,80,067,41,10,61,242,24,27,50,063,39,07,39,062,38*75
$GPGSV,3,2,12,28,33,162,40,26,33,291,32,25,20,065,26,15,19,290,29*71
$GPGSV,3,3,12,24,18,294,23,13,12,105,40,19,07,059,38,03,07,031,29*7F
$GPRMC,085602.000,A,5050.1855,N,01520.9069,E,0.11,40.96,060808,,*3E
$GPGGA,085603.000,5050.1855,N,01520.9069,E,1,11,0.9,1015.7,M,44.4,M,,0000*62
$GPGSA,A,3,07,10,25,26,08,28,27,13,15,03,19,,1.5,0.9,1.2*33
$GPGSV,3,1,12,08,80,067,41,10,61,242,24,27,50,063,39,07,39,062,38*75
$GPGSV,3,2,12,28,33,162,41,26,33,291,32,25,20,065,26,15,19,290,29*70
$GPGSV,3,3,12,24,18,294,12,13,12,105,40,19,07,059,38,03,07,031,29*7D
$GPRMC,085603.000,A,5050.1855,N,01520.9069,E,0.09,48.22,060808,,*31
$GPGGA,085604.000,5050.1855,N,01520.9069,E,1,11,0.9,1015.9,M,44.4,M,,0000*6B
$GPGSA,A,3,07,10,25,26,08,28,27,13,15,03,19,,1.5,0.9,1.2*33
$GPGSV,3,1,12,08,80,067,41,10,61,242,23,27,50,063,39,07,39,062,38*72
$GPGSV,3,2,12,28,33,162,41,26,33,291,32,25,20,065,26,15,19,290,29*70
$GPGSV,3,3,12,24,18,294,12,13,12,105,40,19,07,059,38,03,07,031,29*7D
$GPRMC,085604.000,A,5050.1855,N,01520.9069,E,0.11,65.58,060808,,*3D
$GPGGA,085605.000,5050.1855,N,01520.9069,E,1,12,0.9,1015.9,M,44.4,M,,0000*69
$GPGSA,A,3,07,10,25,26,08,28,27,13,15,24,03,19,1.5,0.9,1.2*35
$GPGSV,3,1,12,08,80,067,41,10,61,242,23,27,50,063,39,07,39,062,38*72
$GPGSV,3,2,12,28,33,162,41,26,33,291,32,25,20,065,26,15,19,290,29*70
$GPGSV,3,3,12,24,18,294,17,13,12,105,40,19,07,059,38,03,07,031,30*70
$GPRMC,085605.000,A,5050.1855,N,01520.9069,E,0.09,56.28,060808,,*32
$GPGGA,085606.000,5050.1855,N,01520.9069,E,1,12,0.9,1016.0,M,44.4,M,,0000*60
$GPGSA,A,3,07,10,25,26,08,28,27,13,15,24,03,19,1.5,0.9,1.2*35
$GPGSV,3,1,12,08,80,067,41,10,61,242,24,27,50,063,39,07,39,062,38*75
$GPGSV,3,2,12,28,33,162,41,26,33,291,32,25,20,065,26,15,19,290,29*70
$GPGSV,3,3,12,24,18,294,25,13,12,105,40,19,07,059,38,03,07,031,30*71
$GPRMC,085606.000,A,5050.1855,N,01520.9069,E,0.11,78.67,060808,,*3F
$GPGGA,085607.000,5050.1855,N,01520.9070,E,1,12,0.9,1016.0,M,44.4,M,,0000*69
$GPGSA,A,3,07,10,25,26,08,28,27,13,15,24,03,19,1.5,0.9,1.2*35
$GPGSV,3,1,12,08,80,067,41,10,61,242,24,27,50,063,39,07,39,062,38*75
$GPGSV,3,2,12,28,33,162,41,26,33,291,32,25,20,065,26,15,19,290,29*70
$GPGSV,3,3,12,24,18,294,22,13,12,105,40,19,07,059,38,03,07,031,30*76
$GPRMC,085607.000,A,5050.1855,N,01520.9070,E,0.15,58.55,060808,,*31
$GPGGA,085608.000,5050.1855,N,01520.9070,E,1,12,0.9,1016.0,M,44.4,M,,0000*66
$GPGSA,A,3,07,10,25,26,08,28,27,13,15,24,03,19,1.5,0.9,1.2*35
$GPGSV,3,1,12,08,80,067,41,10,61,242,25,27,50,063,39,07,39,062,38*74
$GPGSV,3,2,12,28,33,162,41,26,33,291,32,25,20,065,26,15,19,290,29*70
$GPGSV,3,3,12,24,18,294,21,13,12,105,40,19,07,059,38,03,07,031,30*75
$GPRMC,085608.000,A,5050.1855,N,01520.9070,E,0.09,31.63,060808,,*39
$GPGGA,085609.000,5050.1855,N,01520.9070,E,1,11,0.9,1016.0,M,44.4,M,,0000*64
$GPGSA,A,3,07,10,25,26,08,28,27,13,15,03,19,,1.5,0.9,1.2*33
$GPGSV,3,1,12,08,80,067,41,10,61,242,27,27,50,063,39,07,39,062,38*76
$GPGSV,3,2,12,28,33,162,41,26,33,291,32,25,20,065,26,15,19,290,29*70
$GPGSV,3,3,12,24,18,294,09,13,12,105,40,19,07,059,38,03,07,031,30*7F
$GPRMC,085609.000,A,5050.1855,N,01520.9070,E,0.10,56.49,060808,,*39
$GPGGA,085610.000,5050.1855,N,01520.9070,E,1,12,0.9,1016.0,M,44.4,M,,0000*6F
$GPGSA,A,3,07,10,25,26,08,28,27,13,15,24,03,19,1.5,0.9,1.2*35
$GPGSV,3,1,12,08,80,067,41,10,61,242,30,27,50,063,39,07,39,062,38*70
$GPGSV,3,2,12,28,33,162,41,26,33,291,32,25,20,065,26,15,19,290,29*70
$GPGSV,3,3,12,24,18,294,14,13,12,105,40,19,07,059,38,03,07,031,30*73
$GPRMC,085610.000,A,5050.1855,N,01520.9070,E,0.08,5.63,060808,,*06
$GPGGA,085611.000,5050.1855,N,01520.9070,E,1,11,0.9,1016.1,M,44.4,M,,0000*6C
$GPGSA,A,3,07,10,25,26,08,28,27,13,15,03,19,,1.5,0.9,1.2*33
$GPGSV,3,1,12,08,80,067,41,10,61,242,30,27,50,063,39,07,39,062,38*70
$GPGSV,3,2,12,28,33,162,41,26,33,291,32,25,20,065,26,15,19,290,29*70
$GPGSV,3,3,12,24,18,294,14,13,12,105,40,19,07,059,38,03,07,031,30*73
$GPRMC,085611.000,A,5050.1855,N,01520.9070,E,0.11,46.50,060808,,*38
$GPGGA,085612.000,5050.1855,N,01520.9070,E,1,12,0.9,1016.0,M,44.4,M,,0000*6D
$GPGSA,A,3,07,10,25,26,08,28,27,13,15,24,03,19,1.5,0.9,1.2*35
$GPGSV,3,1,12,08,80,067,41,10,61,242,30,27,50,063,39,07,39,062,38*70
$GPGSV,3,2,12,28,33,162,41,26,33,291,32,25,20,065,26,15,19,290,29*70
$GPGSV,3,3,12,24,18,294,15,13,12,105,40,19,07,059,38,03,07,031,30*72
$GPRMC,085612.000,A,5050.1855,N,01520.9070,E,0.09,39.87,060808,,*30
$GPGGA,085613.000,5050.1855,N,01520.9070,E,1,09,1.0,1015.9,M,44.4,M,,0000*64
$GPGSA,A,3,07,10,25,28,27,13,24,03,19,,,,1.8,1.0,1.5*3F
$GPGSV,3,1,12,08,80,067,30,10,61,242,30,27,50,063,35,07,39,062,38*7A
$GPGSV,3,2,12,28,33,162,41,26,33,291,29,25,20,065,31,15,19,290,27*72
$GPGSV,3,3,12,24,18,294,27,13,12,105,37,19,07,059,38,03,07,031,31*72
$GPRMC,085613.000,A,5050.1855,N,01520.9070,E,0.16,254.36,060808,,*0C
$GPGGA,085614.000,5050.1856,N,01520.9072,E,1,08,1.1,1015.8,M,44.4,M,,0000*63
$GPGSA,A,3,07,10,25,26,28,13,15,19,,,,,2.1,1.1,1.9*38
$GPGSV,3,1,12,08,80,067,12,10,61,242,19,27,50,063,18,07,39,062,22*75
$GPGSV,3,2,12,28,33,162,17,26,33,291,15,25,20,065,23,15,19,290,09*71
$GPGSV,3,3,12,24,18,294,17,13,12,105,15,19,07,059,25,03,07,031,12*7C
$GPRMC,085614.000,A,5050.1856,N,01520.9072,E,0.89,61.61,060808,,*3A
$GPGGA,085615.000,5050.1857,N,01520.9078,E,1,09,1.5,1015.5,M,44.4,M,,0000*61
$GPGSA,A,3,07,10,25,26,08,27,13,15,19,,,,2.0,1.5,1.3*30
$GPGSV,3,1,12,08,80,067,14,10,61,242,15,27,50,063,15,07,39,062,25*75
$GPGSV,3,2,12,28,33,162,10,26,33,291,14,25,20,065,24,15,19,290,14*7C
$GPGSV,3,3,12,24,18,294,10,13,12,105,19,19,07,059,23,03,07,031,08*7A
$GPRMC,085615.000,A,5050.1857,N,01520.9078,E,1.89,75.53,060808,,*35
$GPGGA,085616.000,5050.1857,N,01520.9086,E,1,08,1.5,1015.6,M,44.4,M,,0000*61
$GPGSA,A,3,07,10,25,26,27,13,15,19,,,,,2.1,1.5,1.6*3C
$GPGSV,3,1,12,08,80,067,14,10,61,242,14,27,50,063,16,07,39,062,25*77
$GPGSV,3,2,12,28,33,162,10,26,33,291,13,25,20,065,25,15,19,290,13*7D
$GPGSV,3,3,12,24,18,294,08,13,12,105,16,19,07,059,23,03,07,031,08*7C
$GPRMC,085616.000,A,5050.1857,N,01520.9086,E,1.27,82.23,060808,,*3C
$GPGGA,085617.000,5050.1855,N,01520.9092,E,1,07,1.8,1015.3,M,44.4,M,,0000*60
$GPGSA,A,3,07,25,26,27,13,15,19,,,,,,2.5,1.8,1.8*3A
$GPGSV,3,1,12,08,80,067,13,10,61,242,12,27,50,063,17,07,39,062,25*77
$GPGSV,3,2,12,28,33,162,10,26,33,291,13,25,20,065,25,15,19,290,14*7A
$GPGSV,3,3,12,24,18,294,,13,12,105,16,19,07,059,23,03,07,031,*7C
$GPRMC,085617.000,A,5050.1855,N,01520.9092,E,1.23,88.08,060808,,*3D
$GPGGA,085618.000,5050.1845,N,01520.9100,E,1,07,1.8,1015.0,M,44.4,M,,0000*67
$GPGSA,A,3,07,25,26,27,13,15,19,,,,,,2.5,1.8,1.8*3A
$GPGSV,3,1,12,08,80,067,13,10,61,242,11,27,50,063,16,07,39,062,25*75
$GPGSV,3,2,12,28,33,162,,26,33,291,13,25,20,065,25,15,19,290,13*7C
$GPGSV,3,3,12,24,18,294,10,13,12,105,17,19,07,059,23,03,07,031,*7C
$GPRMC,085618.000,A,5050.1845,N,01520.9100,E,2.75,134.00,060808,,*07
$GPGGA,085619.000,5050.1841,N,01520.9106,E,1,06,1.8,1014.8,M,44.4,M,,0000*6C
$GPGSA,A,3,07,25,27,13,15,19,,,,,,,2.6,1.8,1.8*3D
$GPGSV,3,1,12,08,80,067,12,10,61,242,,27,50,063,17,07,39,062,25*75
$GPGSV,3,2,12,28,33,162,12,26,33,291,12,25,20,065,25,15,19,290,13*7E
$GPGSV,3,3,12,24,18,294,,13,12,105,17,19,07,059,22,03,07,031,*7C
$GPRMC,085619.000,A,5050.1841,N,01520.9106,E,2.14,129.82,060808,,*05
$GPGGA,085620.000,5050.1840,N,01520.9114,E,1,06,1.8,1014.6,M,44.4,M,,0000*6A
$GPGSA,A,3,07,25,27,13,15,19,,,,,,,2.6,1.8,1.8*3D
$GPGSV,3,1,12,08,80,067,12,10,61,242,,27,50,063,18,07,39,062,25*7A
$GPGSV,3,2,12,28,33,162,07,26,33,291,12,25,20,065,25,15,19,290,12*7B
$GPGSV,3,3,12,24,18,294,,13,12,105,18,19,07,059,21,03,07,031,*70
$GPRMC,085620.000,A,5050.1840,N,01520.9114,E,2.55,106.58,060808,,*02
$GPGGA,085621.000,5050.1842,N,01520.9122,E,1,05,4.5,1014.7,M,44.4,M,,0000*66
$GPGSA,A,3,07,25,27,13,19,,,,,,,,4.6,4.5,1.0*3F
$GPGSV,3,1,12,08,80,067,11,10,61,242,,27,50,063,18,07,39,062,25*79
$GPGSV,3,2,12,28,33,162,,26,33,291,12,25,20,065,24,15,19,290,12*7D
$GPGSV,3,3,12,24,18,294,,13,12,105,18,19,07,059,17,03,07,031,*75
$GPRMC,085621.000,A,5050.1842,N,01520.9122,E,1.35,69.30,060808,,*37
$GPGGA,085622.000,5050.1849,N,01520.9127,E,1,06,1.9,1014.8,M,44.4,M,,0000*6E
$GPGSA,A,3,07,25,26,27,13,19,,,,,,,2.7,1.9,2.0*36
$GPGSV,3,1,12,08,80,067,,10,61,242,14,27,50,063,18,07,39,062,25*7C
$GPGSV,3,2,12,28,33,162,,26,33,291,12,25,20,065,17,15,19,290,12*7D
$GPGSV,3,3,12,24,18,294,,13,12,105,19,19,07,059,15,03,07,031,*76
$GPRMC,085622.000,A,5050.1849,N,01520.9127,E,2.48,25.90,060808,,*31
$GPGGA,085623.000,5050.1856,N,01520.9142,E,1,05,2.5,1014.9,M,44.4,M,,0000*6F
$GPGSA,A,3,07,25,26,27,13,,,,,,,,3.9,2.5,3.0*3F
$GPGSV,3,1,12,08,80,067,17,10,61,242,08,27,50,063,18,07,39,062,25*77
$GPGSV,3,2,12,28,33,162,18,26,33,291,12,25,20,065,15,15,19,290,11*75
$GPGSV,3,3,12,24,18,294,,13,12,105,19,19,07,059,14,03,07,031,*77
$GPRMC,085623.000,A,5050.1856,N,01520.9142,E,3.42,59.25,060808,,*33
$GPGGA,085624.000,5050.1860,N,01520.9155,E,1,05,2.5,1014.9,M,44.4,M,,0000*6B
$GPGSA,A,3,07,25,26,27,13,,,,,,,,3.9,2.5,3.0*3F
$GPGSV,3,1,12,08,80,067,15,10,61,242,07,27,50,063,18,07,39,062,25*7A
$GPGSV,3,2,12,28,33,162,16,26,33,291,12,25,20,065,15,15,19,290,*7B
$GPGSV,3,3,12,24,18,294,,13,12,105,20,19,07,059,13,03,07,031,*7A
$GPRMC,085624.000,A,5050.1860,N,01520.9155,E,3.23,70.74,060808,,*3F
$GPGGA,085625.000,5050.1849,N,01520.9160,E,1,08,1.1,1015.7,M,44.4,M,,0000*62
$GPGSA,A,3,07,25,26,08,28,27,13,19,,,,,1.9,1.1,1.5*37
$GPGSV,3,1,12,08,80,067,15,10,61,242,,27,50,063,19,07,39,062,25*7C
$GPGSV,3,2,12,28,33,162,17,26,33,291,12,25,20,065,15,15,19,290,11*7A
$GPGSV,3,3,12,24,18,294,11,13,12,105,20,19,07,059,12,03,07,031,*7B
$GPRMC,085625.000,A,5050.1849,N,01520.9160,E,2.10,87.35,060808,,*3F
$GPGGA,085626.000,5050.1840,N,01520.9163,E,1,07,3.3,1016.1,M,44.4,M,,0000*61
$GPGSA,A,3,07,25,08,28,27,13,19,,,,,,4.3,3.3,2.8*32
$GPGSV,3,1,12,08,80,067,15,10,61,242,,27,50,063,19,07,39,062,25*7C
$GPGSV,3,2,12,28,33,162,17,26,33,291,12,25,20,065,16,15,19,290,11*79
$GPGSV,3,3,12,24,18,294,11,13,12,105,20,19,07,059,13,03,07,031,*7A
$GPRMC,085626.000,A,5050.1840,N,01520.9163,E,0.45,37.58,060808,,*34
$GPGGA,085627.000,5050.1842,N,01520.9160,E,1,05,4.8,1016.8,M,44.4,M,,0000*66
$GPGSA,A,3,07,25,08,13,19,,,,,,,,6.3,4.8,4.1*3C
$GPGSV,3,1,12,08,80,067,15,10,61,242,,27,50,063,16,07,39,062,25*73
$GPGSV,3,2,12,28,33,162,16,26,33,291,12,25,20,065,24,15,19,290,08*71
$GPGSV,3,3,12,24,18,294,08,13,12,105,21,19,07,059,19,03,07,031,*79
$GPRMC,085627.000,A,5050.1842,N,01520.9160,E,1.00,294.00,060808,,*02
$GPGGA,085628.000,5050.1842,N,01520.9152,E,1,05,4.8,1017.4,M,44.4,M,,0000*65
$GPGSA,A,3,07,25,08,13,19,,,,,,,,6.3,4.8,4.1*3C
$GPGSV,3,1,12,08,80,067,14,10,61,242,,27,50,063,12,07,39,062,25*76
$GPGSV,3,2,12,28,33,162,16,26,33,291,12,25,20,065,23,15,19,290,*7E
$GPGSV,3,3,12,24,18,294,,13,12,105,21,19,07,059,21,03,07,031,*7A
$GPRMC,085628.000,A,5050.1842,N,01520.9152,E,1.52,280.72,060808,,*0B
$GPGGA,085629.000,5050.1842,N,01520.9153,E,1,07,3.3,1017.2,M,44.4,M,,0000*6D
$GPGSA,A,3,07,25,08,28,27,13,19,,,,,,4.3,3.3,2.8*32
$GPGSV,3,1,12,08,80,067,14,10,61,242,,27,50,063,17,07,39,062,24*72
$GPGSV,3,2,12,28,33,162,16,26,33,291,12,25,20,065,22,15,19,290,*7F
$GPGSV,3,3,12,24,18,294,,13,12,105,21,19,07,059,20,03,07,031,*7B
$GPRMC,085629.000,A,5050.1842,N,01520.9153,E,0.45,187.29,060808,,*06
$GPGGA,085630.000,5050.1842,N,01520.9154,E,1,07,3.3,1018.2,M,44.4,M,,0000*6D
$GPGSA,A,3,07,25,08,28,27,13,19,,,,,,4.3,3.3,2.8*32
$GPGSV,3,1,12,08,80,067,14,10,61,242,,27,50,063,17,07,39,062,24*72
$GPGSV,3,2,12,28,33,162,16,26,33,291,,25,20,065,21,15,19,290,*7F
$GPGSV,3,3,12,24,18,294,,13,12,105,21,19,07,059,19,03,07,031,*71
$GPRMC,085630.000,A,5050.1842,N,01520.9154,E,1.06,205.16,060808,,*0A
$GPGGA,085631.000,5050.1840,N,01520.9154,E,1,06,3.7,1018.8,M,44.4,M,,0000*61
$GPGSA,A,3,07,25,28,27,13,19,,,,,,,4.6,3.7,2.8*3B
$GPGSV,3,1,12,08,80,067,14,10,61,242,,27,50,063,17,07,39,062,24*72
$GPGSV,3,2,12,28,33,162,17,26,33,291,,25,20,065,21,15,19,290,*7E
$GPGSV,3,3,12,24,18,294,,13,12,105,20,19,07,059,18,03,07,031,*71
$GPRMC,085631.000,A,5050.1840,N,01520.9154,E,0.86,207.48,060808,,*09
$GPGGA,085632.000,5050.1837,N,01520.9139,E,1,09,1.0,1018.2,M,44.4,M,,0000*69
$GPGSA,A,3,07,10,25,24,08,28,27,13,19,,,,1.6,1.0,1.3*3C
$GPGSV,3,1,12,08,80,067,18,10,61,242,25,27,50,063,24,07,39,062,29*74
$GPGSV,3,2,12,28,33,162,25,26,33,291,,25,20,065,29,15,19,290,23*76
$GPGSV,3,3,12,24,18,294,26,13,12,105,26,19,07,059,26,03,07,031,*7E
$GPRMC,085632.000,A,5050.1837,N,01520.9139,E,0.42,234.15,060808,,*01
$GPGGA,085633.000,5050.1849,N,01520.9102,E,1,12,0.9,1015.7,M,44.4,M,,0000*63
$GPGSA,A,3,07,10,25,24,08,28,27,13,15,03,26,19,1.5,0.9,1.2*35
$GPGSV,3,1,12,08,80,067,32,10,61,242,24,27,50,063,33,07,39,062,37*74
$GPGSV,3,2,12,28,33,162,36,26,33,291,32,25,20,065,36,15,19,290,30*79
$GPGSV,3,3,12,24,18,294,31,13,12,105,37,19,07,059,37,03,07,031,26*7C
$GPRMC,085633.000,A,5050.1849,N,01520.9102,E,0.39,345.19,060808,,*06
$GPGGA,085634.000,5050.1853,N,01520.9089,E,1,12,0.9,1014.9,M,44.4,M,,0000*62
$GPGSA,A,3,07,10,25,24,08,28,27,13,15,03,26,19,1.5,0.9,1.2*35
$GPGSV,3,1,12,08,80,067,35,10,61,242,25,27,50,063,35,07,39,062,39*7A
$GPGSV,3,2,12,28,33,162,35,26,33,291,37,25,20,065,38,15,19,290,32*73
$GPGSV,3,3,12,24,18,294,33,13,12,105,38,19,07,059,39,03,07,031,22*7B
$GPRMC,085634.000,A,5050.1853,N,01520.9089,E,0.20,151.80,060808,,*07
$GPGGA,085635.000,5050.1856,N,01520.9073,E,1,12,0.9,1014.1,M,44.4,M,,0000*6B
$GPGSA,A,3,07,10,25,24,08,28,27,13,15,03,26,19,1.5,0.9,1.2*35
$GPGSV,3,1,12,08,80,067,37,10,61,242,26,27,50,063,36,07,39,062,40*76
$GPGSV,3,2,12,28,33,162,34,26,33,291,37,25,20,065,39,15,19,290,31*70
$GPGSV,3,3,12,24,18,294,32,13,12,105,38,19,07,059,39,03,07,031,20*78
$GPRMC,085635.000,A,5050.1856,N,01520.9073,E,0.30,219.19,060808,,*08
$GPGGA,085636.000,5050.1853,N,01520.9066,E,1,12,0.9,1014.1,M,44.4,M,,0000*69
$GPGSA,A,3,07,10,25,24,08,28,27,13,15,03,26,19,1.5,0.9,1.2*35
$GPGSV,3,1,12,08,80,067,38,10,61,242,27,27,50,063,36,07,39,062,40*78
$GPGSV,3,2,12,28,33,162,29,26,33,291,36,25,20,065,39,15,19,290,31*7D
$GPGSV,3,3,12,24,18,294,31,13,12,105,38,19,07,059,39,03,07,031,30*7A
$GPRMC,085636.000,A,5050.1853,N,01520.9066,E,0.21,163.42,060808,,*0A
$GPGGA,085637.000,5050.1853,N,01520.9064,E,1,12,0.9,1012.6,M,44.4,M,,0000*6B
$GPGSA,A,3,07,10,25,24,08,28,27,13,15,03,26,19,1.5,0.9,1.2*35
$GPGSV,3,1,12,08,80,067,38,10,61,242,28,27,50,063,36,07,39,062,40*77
$GPGSV,3,2,12,28,33,162,25,26,33,291,35,25,20,065,39,15,19,290,31*72
$GPGSV,3,3,12,24,18,294,31,13,12,105,38,19,07,059,39,03,07,031,20*7B
$GPRMC,085637.000,A,5050.1853,N,01520.9064,E,0.06,109.58,060808,,*0B
$GPGGA,085638.000,5050.1853,N,01520.9061,E,1,12,0.9,1012.5,M,44.4,M,,0000*62
$GPGSA,A,3,07,10,25,24,08,28,27,13,15,03,26,19,1.5,0.9,1.2*35
$GPGSV,3,1,12,08,80,067,39,10,61,242,29,27,50,063,36,07,39,062,40*77
$GPGSV,3,2,12,28,33,162,29,26,33,291,35,25,20,065,39,15,19,290,30*7F
$GPGSV,3,3,12,24,18,294,32,13,12,105,39,19,07,059,38,03,07,031,23*7B
$GPRMC,085638.000,A,5050.1853,N,01520.9061,E,0.06,258.13,060808,,*09
$GPGGA,085639.000,5050.1854,N,01520.9060,E,1,12,0.9,1012.6,M,44.4,M,,0000*66
$GPGSA,A,3,07,10,25,24,08,28,27,13,15,03,26,19,1.5,0.9,1.2*35
$GPGSV,3,1,12,08,80,067,39,10,61,242,28,27,50,063,37,07,39,062,40*77
$GPGSV,3,2,12,28,33,162,32,26,33,291,35,25,20,065,39,15,19,290,30*75
$GPGSV,3,3,12,24,18,294,32,13,12,105,39,19,07,059,38,03,07,031,26*7E
$GPRMC,085639.000,A,5050.1854,N,01520.9060,E,0.06,120.20,060808,,*02
$GPGGA,085640.000,5050.1855,N,01520.9066,E,1,12,0.9,1012.8,M,44.4,M,,0000*61
$GPGSA,A,3,07,10,25,24,08,28,27,13,15,03,26,19,1.5,0.9,1.2*35
$GPGSV,3,1,12,08,80,067,39,10,61,242,29,27,50,063,37,07,39,062,40*76
$GPGSV,3,2,12,28,33,162,39,26,33,291,34,25,20,065,39,15,19,290,30*7F
$GPGSV,3,3,12,24,18,294,32,13,12,105,39,19,07,059,38,03,07,031,26*7E
$GPRMC,085640.000,A,5050.1855,N,01520.9066,E,0.18,108.04,060808,,*08
$GPGGA,085641.000,5050.1857,N,01520.9068,E,1,12,0.9,1012.8,M,44.4,M,,0000*6C
$GPGSA,A,3,07,10,25,24,08,28,27,13,15,03,26,19,1.5,0.9,1.2*35
$GPGSV,3,1,12,08,80,067,39,10,61,242,29,27,50,063,37,07,39,062,40*76
$GPGSV,3,2,12,28,33,162,39,26,33,291,34,25,20,065,38,15,19,290,30*7E
$GPGSV,3,3,12,24,18,294,32,13,12,105,39,19,07,059,38,03,07,031,26*7E
$GPRMC,085641.000,A,5050.1857,N,01520.9068,E,0.09,24.76,060808,,*3F
$GPGGA,085642.000,5050.1858,N,01520.9070,E,1,12,0.9,1012.9,M,44.4,M,,0000*68
