C,062141.000,A,3624.1780,N,02805.3608,E,0.41,55.32,140809,,,A*51
$GPGGA,062142.000,3624.1800,N,02805.3598,E,1,8,1.14,-14.6,M,33.2,M,,*4D
$GPGSA,A,3,07,08,02,25,10,04,13,23,,,,,1.43,1.14,0.86*02
$GPGSV,3,1,11,07,66,025,22,08,64,263,24,37,49,191,,13,47,074,29*79
$GPGSV,3,2,11,25,45,044,21,10,31,314,31,28,26,179,,02,18,258,27*7A
$GPGSV,3,3,11,23,15,098,17,04,14,225,23,03,04,064,27*4E
$GPRMC,062142.000,A,3624.1800,N,02805.3598,E,0.19,55.32,140809,,,A*52
$GPGGA,062143.000,3624.1795,N,02805.3591,E,1,8,1.14,-16.5,M,33.2,M,,*47
$GPGSA,A,3,07,08,02,25,10,04,13,23,,,,,1.43,1.14,0.86*02
$GPGSV,3,1,11,07,66,025,21,08,64,263,24,13,47,074,29,39,47,185,*7F
$GPGSV,3,2,11,25,45,044,21,10,31,314,31,28,26,179,,02,18,258,27*7A
$GPGSV,3,3,11,23,15,098,16,04,14,225,23,03,04,064,27*4F
$GPRMC,062143.000,A,3624.1795,N,02805.3591,E,0.27,55.32,140809,,,A*54
$GPGGA,062144.000,3624.1789,N,02805.3592,E,1,8,1.14,-17.2,M,33.2,M,,*48
$GPGSA,A,3,07,08,02,25,10,04,13,23,,,,,1.43,1.14,0.86*02
$GPGSV,3,1,11,07,66,025,19,08,64,263,22,13,47,074,29,39,47,185,*72
$GPGSV,3,2,11,25,45,044,22,10,31,314,31,28,26,179,,02,18,258,26*78
$GPGSV,3,3,11,23,15,098,15,04,14,225,23,03,04,064,27*4C
$GPRMC,062144.000,A,3624.1789,N,02805.3592,E,0.35,55.32,140809,,,A*5E
$GPGGA,062145.000,3624.1784,N,02805.3593,E,1,8,1.14,-17.5,M,33.2,M,,*42
$GPGSA,A,3,07,08,02,25,10,04,13,23,,,,,1.43,1.14,0.86*02
$GPGSV,3,1,11,07,66,025,17,08,64,263,21,13,47,074,29,39,47,185,*7F
$GPGSV,3,2,11,25,45,044,22,10,31,314,31,28,26,179,,02,18,258,25*7B
$GPGSV,3,3,11,23,15,098,16,04,14,225,23,03,04,064,27*4F
$GPRMC,062145.000,A,3624.1784,N,02805.3593,E,0.19,55.32,140809,,,A*5D
$GPGGA,062146.000,3624.1776,N,02805.3597,E,1,8,1.14,-16.9,M,33.2,M,,*45
$GPGSA,A,3,07,08,02,25,10,04,13,23,,,,,1.43,1.14,0.86*02
$GPGSV,3,1,11,07,66,025,16,08,64,263,20,13,47,074,29,39,47,185,*7F
$GPGSV,3,2,11,25,45,044,22,10,31,314,31,28,26,179,,02,18,258,25*7B
$GPGSV,3,3,11,23,15,098,16,04,14,225,22,03,04,064,27*4E
$GPRMC,062146.000,A,3624.1776,N,02805.3597,E,0.17,55.32,140809,,,A*59
$GPGGA,062147.000,3624.1758,N,02805.3607,E,1,9,0.93,-14.6,M,33.2,M,,*40
$GPGSA,A,3,07,08,02,25,10,04,13,23,28,,,,1.26,0.93,0.85*06
$GPGSV,3,1,11,07,66,025,18,08,64,263,19,13,47,074,30,39,47,185,*73
$GPGSV,3,2,11,25,45,044,23,10,31,314,31,28,26,179,25,02,18,258,26*7E
$GPGSV,3,3,11,23,15,098,17,04,14,225,22,03,04,064,27*4F
$GPRMC,062147.000,A,3624.1758,N,02805.3607,E,0.08,55.32,140809,,,A*50
$GPGGA,062148.000,3624.1729,N,02805.3616,E,1,9,0.93,-12.4,M,33.2,M,,*4D
$GPGSA,A,3,07,08,02,25,10,04,13,23,28,,,,1.26,0.93,0.85*06
$GPGSV,3,1,11,07,66,025,20,08,64,263,18,13,47,074,31,39,47,185,*78
$GPGSV,3,2,11,25,45,044,24,10,31,314,31,28,26,179,18,02,18,258,26*77
$GPGSV,3,3,11,23,15,098,18,04,14,225,24,03,04,064,27*46
$GPRMC,062148.000,A,3624.1729,N,02805.3616,E,0.22,55.32,140809,,,A*51
$GPGGA,062149.000,3624.1725,N,02805.3625,E,1,9,0.93,-12.8,M,33.2,M,,*4C
$GPGSA,A,3,07,08,02,25,10,04,13,23,28,,,,1.26,0.93,0.85*06
$GPGSV,3,1,11,07,66,025,21,08,64,263,17,13,47,074,32,39,47,185,*75
$GPGSV,3,2,11,25,45,044,25,10,31,314,31,28,26,179,25,02,18,258,27*79
$GPGSV,3,3,11,23,15,098,18,04,14,225,25,03,04,064,27*47
$GPRMC,062149.000,A,3624.1725,N,02805.3625,E,0.34,55.32,140809,,,A*5B
$GPGGA,062150.000,3624.1718,N,02805.3629,E,1,9,0.93,-13.6,M,33.2,M,,*49
$GPGSA,A,3,07,08,02,25,10,04,13,23,28,,,,1.26,0.93,0.85*06
$GPGSV,3,1,11,07,66,025,22,08,64,263,17,13,47,074,31,39,47,185,*75
$GPGSV,3,2,11,25,45,044,25,10,31,314,23,28,26,179,19,02,18,258,27*75
$GPGSV,3,3,11,23,15,098,26,04,14,225,24,03,04,064,19*46
$GPRMC,062150.000,A,3624.1718,N,02805.3629,E,0.35,55.32,140809,,,A*50
$GPGGA,062151.000,3624.1712,N,02805.3632,E,1,9,0.93,-13.6,M,33.2,M,,*48
$GPGSA,A,3,07,08,02,25,10,04,13,23,28,,,,1.26,0.93,0.85*06
$GPGSV,3,1,11,07,66,025,21,08,64,263,18,13,47,074,30,39,47,185,*78
$GPGSV,3,2,11,25,45,044,18,10,31,314,32,28,26,179,19,02,18,258,27*7B
$GPGSV,3,3,11,23,15,098,25,04,14,225,24,03,04,064,19*45
$GPRMC,062151.000,A,3624.1712,N,02805.3632,E,0.35,55.32,140809,,,A*51
$GPGGA,062152.000,3624.1709,N,02805.3631,E,1,9,0.93,-13.3,M,33.2,M,,*47
$GPGSA,A,3,07,08,02,25,10,04,13,23,28,,,,1.26,0.93,0.85*06
$GPGSV,3,1,11,07,66,025,22,08,64,263,19,13,47,074,30,25,45,044,19*71
$GPGSV,3,2,11,44,32,127,,10,31,314,32,28,26,179,21,02,18,258,25*78
$GPGSV,3,3,11,23,15,098,18,04,14,225,25,03,04,064,20*40
$GPRMC,062152.000,A,3624.1709,N,02805.3631,E,0.27,55.32,140809,,,A*58
$GPGGA,062153.000,3624.1699,N,02805.3630,E,1,9,0.93,-13.0,M,33.2,M,,*4C
$GPGSA,A,3,07,08,02,25,10,04,13,23,28,,,,1.26,0.93,0.85*06
$GPGSV,3,1,11,07,66,025,21,08,64,263,18,13,47,074,29,25,45,044,19*7B
$GPGSV,3,2,11,44,32,127,,10,31,314,31,28,26,179,22,02,18,258,26*7B
$GPGSV,3,3,11,23,15,098,18,04,14,225,26,03,04,064,20*43
$GPRMC,062153.000,A,3624.1699,N,02805.3630,E,0.17,55.32,140809,,,A*53
$GPGGA,062154.000,3624.1696,N,02805.3630,E,1,9,0.93,-13.4,M,33.2,M,,*40
$GPGSA,A,3,07,08,02,25,10,04,13,23,28,,,,1.26,0.93,0.85*06
$GPGSV,3,1,11,07,66,025,22,08,64,263,25,13,47,074,29,25,45,044,21*7D
$GPGSV,3,2,11,44,32,127,,10,31,314,29,28,26,179,22,02,18,258,26*72
$GPGSV,3,3,11,23,15,098,29,04,14,225,25,03,04,064,19*48
$GPRMC,062154.000,A,3624.1696,N,02805.3630,E,0.28,55.32,140809,,,A*57
$GPGGA,062155.000,3624.1696,N,02805.3634,E,1,9,0.93,-14.3,M,33.2,M,,*45
$GPGSA,A,3,07,08,02,25,10,04,13,23,28,,,,1.26,0.93,0.85*06
$GPGSV,3,1,11,07,66,025,20,08,64,263,26,13,47,074,29,25,45,044,19*77
$GPGSV,3,2,11,44,32,127,,10,31,314,29,28,26,179,20,02,18,258,24*72
$GPGSV,3,3,11,23,15,098,29,04,14,225,25,03,04,064,18*49
$GPRMC,062155.000,A,3624.1696,N,02805.3634,E,0.11,55.32,140809,,,A*58
$GPGGA,062156.000,3624.1690,N,02805.3635,E,1,9,0.93,-13.8,M,33.2,M,,*4D
$GPGSA,A,3,07,08,02,25,10,04,13,23,28,,,,1.26,0.93,0.85*06
$GPGSV,3,1,11,07,66,025,20,08,65,263,26,13,47,074,28,25,45,044,21*7C
$GPGSV,3,2,11,44,32,127,,10,31,314,29,28,26,179,22,02,18,258,17*70
$GPGSV,3,3,11,23,15,098,27,04,14,225,25,03,04,064,20*4C
$GPRMC,062156.000,A,3624.1690,N,02805.3635,E,0.12,55.32,140809,,,A*5F
$GPGGA,062157.000,3624.1687,N,02805.3637,E,1,9,0.93,-13.5,M,33.2,M,,*45
$GPGSA,A,3,07,08,02,25,10,04,13,23,28,,,,1.26,0.93,0.85*06
$GPGSV,3,1,11,07,66,025,22,08,65,263,26,13,47,074,28,25,45,044,22*7D
$GPGSV,3,2,11,44,32,127,,10,31,314,28,28,26,179,22,02,18,258,17*71
$GPGSV,3,3,11,23,15,098,26,04,14,225,24,03,04,064,22*4E
$GPRMC,062157.000,A,3624.1687,N,02805.3637,E,0.05,55.32,140809,,,A*5C
$GPGGA,062158.000,3624.1682,N,02805.3638,E,1,9,0.93,-12.8,M,33.2,M,,*4C
$GPGSA,A,3,07,08,02,25,10,04,13,23,28,,,,1.26,0.93,0.85*06
$GPGSV,3,1,11,07,66,025,23,08,65,263,27,13,47,074,17,25,45,044,23*70
$GPGSV,3,2,11,44,32,127,,10,31,313,28,28,26,179,20,02,18,258,25*75
$GPGSV,3,3,11,23,15,098,25,04,14,225,25,03,04,064,14*49
$GPRMC,062158.000,A,3624.1682,N,02805.3638,E,0.15,55.32,140809,,,A*58
$GPGGA,062159.000,3624.1688,N,02805.3637,E,1,9,0.93,-15.8,M,33.2,M,,*4F
$GPGSA,A,3,07,08,02,25,10,04,13,23,28,,,,1.26,0.93,0.85*06
$GPGSV,3,1,11,07,66,025,23,08,65,263,29,13,47,074,28,25,45,044,22*73
$GPGSV,3,2,11,44,32,127,,10,31,313,29,28,26,179,19,02,18,258,26*7D
$GPGSV,3,3,11,23,15,098,25,04,14,225,26,03,04,064,14*4A
$GPRMC,062159.000,A,3624.1688,N,02805.3637,E,0.18,55.32,140809,,,A*51
$GPGGA,062200.000,3624.1691,N,02805.3638,E,1,9,0.93,-17.7,M,33.2,M,,*4A
$GPGSA,A,3,07,08,02,25,10,04,13,23,28,,,,1.26,0.93,0.85*06
$GPGSV,3,1,11,07,66,025,25,08,65,263,30,13,47,074,26,25,45,044,21*70
$GPGSV,3,2,11,44,32,127,,10,31,313,29,28,26,179,19,02,18,258,26*7D
$GPGSV,3,3,11,23,15,098,25,04,14,225,26,03,04,064,*4F
$GPRMC,062200.000,A,3624.1691,N,02805.3638,E,0.18,55.32,140809,,,A*59
$GPGGA,062201.000,3624.1690,N,02805.3638,E,1,9,0.93,-17.6,M,33.2,M,,*4B
$GPGSA,A,3,07,08,02,25,10,04,13,23,28,,,,1.26,0.93,0.85*06
$GPGSV,3,1,11,07,66,025,26,08,65,263,30,13,47,074,26,25,45,044,19*78
$GPGSV,3,2,11,44,32,127,,10,31,313,29,28,26,179,18,02,18,258,27*7D
$GPGSV,3,3,11,23,15,098,25,04,14,225,26,03,04,064,*4F
$GPRMC,062201.000,A,3624.1690,N,02805.3638,E,0.09,55.32,140809,,,A*59
$GPGGA,062202.000,3624.1682,N,02805.3643,E,1,9,0.93,-15.9,M,33.2,M,,*4A
$GPGSA,A,3,07,08,02,25,10,04,13,23,28,,,,1.26,0.93,0.85*06
$GPGSV,3,1,11,07,66,025,27,08,65,263,29,13,47,074,25,25,45,044,19*72
$GPGSV,3,2,11,10,31,313,29,33,27,237,,28,26,179,19,02,18,258,27*7A
$GPGSV,3,3,11,23,15,098,24,04,14,225,25,03,04,064,*4D
$GPRMC,062202.000,A,3624.1682,N,02805.3643,E,0.27,55.32,140809,,,A*59
$GPGGA,062203.000,3624.1674,N,02805.3648,E,1,9,0.93,-15.0,M,33.2,M,,*40
$GPGSA,A,3,07,08,02,25,10,04,13,23,28,,,,1.26,0.93,0.85*06
$GPGSV,3,1,11,07,66,025,26,08,65,263,28,13,47,074,25,25,45,044,20*78
$GPGSV,3,2,11,10,31,313,28,33,27,237,,28,26,179,21,02,18,258,27*70
$GPGSV,3,3,11,23,15,098,24,04,14,225,25,03,04,064,*4D
$GPRMC,062203.000,A,3624.1674,N,02805.3648,E,0.25,55.32,140809,,,A*58
$GPGGA,062204.000,3624.1679,N,02805.3646,E,1,9,0.93,-15.1,M,33.2,M,,*45
$GPGSA,A,3,07,08,02,25,10,04,13,23,28,,,,1.26,0.93,0.85*06
$GPGSV,3,1,11,07,66,025,27,08,65,263,27,13,47,074,23,25,45,044,19*7A
$GPGSV,3,2,11,10,31,313,27,33,27,237,,28,26,179,22,02,18,258,28*73
$GPGSV,3,3,11,23,15,098,23,04,14,225,24,03,04,064,*4B
$GPRMC,062204.000,A,3624.1679,N,02805.3646,E,0.15,55.32,140809,,,A*5F
$GPGGA,062205.000,3624.1676,N,02805.3645,E,1,9,0.93,-14.5,M,33.2,M,,*4D
$GPGSA,A,3,07,08,02,25,10,04,13,23,28,,,,1.26,0.93,0.85*06
$GPGSV,3,1,11,07,66,025,27,08,65,263,27,13,47,074,23,25,45,044,18*7B
$GPGSV,3,2,11,10,31,313,20,33,27,237,,28,26,179,23,02,18,258,28*75
$GPGSV,3,3,11,23,15,098,24,04,14,225,23,03,04,064,*4B
$GPRMC,062205.000,A,3624.1676,N,02805.3645,E,0.15,55.32,140809,,,A*52
$GPGGA,062206.000,3624.1668,N,02805.3648,E,1,9,1.00,-14.0,M,33.2,M,,*42
$GPGSA,A,3,07,08,02,25,10,04,13,23,28,,,,1.89,1.00,1.60*02
$GPGSV,3,1,11,07,66,025,26,08,65,263,27,13,47,074,24,25,45,044,20*76
$GPGSV,3,2,11,10,31,313,21,33,27,237,,28,26,179,22,02,18,258,28*75
$GPGSV,3,3,11,23,15,098,24,04,14,225,22,03,04,064,*4A
$GPRMC,062206.000,A,3624.1668,N,02805.3648,E,0.13,55.32,140809,,,A*55
$GPGGA,062207.000,3624.1663,N,02805.3645,E,1,9,0.93,-13.6,M,33.2,M,,*4F
$GPGSA,A,3,07,08,02,25,10,04,13,23,28,,,,1.26,0.93,0.85*06
$GPGSV,3,1,11,07,66,025,25,08,65,263,27,13,47,074,26,25,45,044,22*75
$GPGSV,3,2,11,10,31,313,28,33,27,237,,28,26,179,23,02,18,258,27*72
$GPGSV,3,3,11,23,15,098,25,04,14,225,21,03,04,064,*48
$GPRMC,062207.000,A,3624.1663,N,02805.3645,E,0.15,55.32,140809,,,A*54
$GPGGA,062208.000,3624.1663,N,02805.3645,E,1,9,0.93,-13.6,M,33.2,M,,*40
$GPGSA,A,3,07,08,02,25,10,04,13,23,28,,,,1.26,0.93,0.85*06
$GPGSV,3,1,11,07,66,025,24,08,65,263,28,13,47,074,27,25,45,044,24*7C
$GPGSV,3,2,11,10,31,313,28,33,27,237,,28,26,179,23,02,18,258,26*73
$GPGSV,3,3,11,23,15,098,26,04,14,225,21,03,04,064,*4B
$GPRMC,062208.000,A,3624.1663,N,02805.3645,E,0.18,55.32,140809,,,A*56
$GPGGA,062209.000,3624.1664,N,02805.3644,E,1,9,0.93,-13.7,M,33.2,M,,*46
$GPGSA,A,3,07,08,02,25,10,04,13,23,28,,,,1.26,0.93,0.85*06
$GPGSV,3,1,11,07,66,025,24,08,65,263,29,13,47,074,28,25,45,044,24*72
$GPGSV,3,2,11,10,31,313,29,33,27,237,,28,26,179,22,02,18,258,25*70
$GPGSV,3,3,11,23,15,098,26,04,14,225,20,03,04,064,23*4B
$GPRMC,062209.000,A,3624.1664,N,02805.3644,E,0.13,55.32,140809,,,A*5A
$GPGGA,062210.000,3624.1664,N,02805.3644,E,1,9,0.93,-13.7,M,33.2,M,,*4E
$GPGSA,A,3,07,08,02,25,10,04,13,23,28,,,,1.26,0.93,0.85*06
$GPGSV,3,1,11,07,66,025,23,08,65,263,29,13,47,074,28,25,45,044,24*75
$GPGSV,3,2,11,10,31,313,29,33,27,237,,28,26,179,21,02,18,258,24*72
$GPGSV,3,3,11,23,15,098,26,04,14,225,20,03,04,064,26*4E
$GPRMC,062210.000,A,3624.1664,N,02805.3644,E,0.06,55.32,140809,,,A*56
$GPGGA,062211.000,3624.1664,N,02805.3644,E,1,9,0.93,-13.7,M,33.2,M,,*4F
$GPGSA,A,3,07,08,02,25,10,04,13,23,28,,,,1.26,0.93,0.85*06
$GPGSV,3,1,11,07,66,025,22,08,65,263,29,13,47,074,29,25,45,044,24*75
$GPGSV,3,2,11,10,31,313,29,33,27,237,,28,26,179,21,02,18,258,24*72
$GPGSV,3,3,11,23,15,098,26,04,14,225,19,03,04,064,26*44
$GPRMC,062211.000,A,3624.1664,N,02805.3644,E,0.20,55.32,140809,,,A*53
$GPGGA,062212.000,3624.1665,N,02805.3644,E,1,9,0.93,-13.8,M,33.2,M,,*42
$GPGSA,A,3,07,08,02,25,10,04,13,23,28,,,,1.26,0.93,0.85*06
$GPGSV,3,1,11,07,66,025,22,08,65,263,29,37,49,191,,13,47,074,29*75
$GPGSV,3,2,11,25,45,044,24,10,31,313,29,28,26,179,22,02,18,258,24*72
$GPGSV,3,3,11,23,15,098,26,04,14,225,19,03,04,064,27*45
$GPRMC,062212.000,A,3624.1665,N,02805.3644,E,0.13,55.32,140809,,,A*51
$GPGGA,062213.000,3624.1665,N,02805.3645,E,1,9,0.93,-13.8,M,33.2,M,,*42
$GPGSA,A,3,07,08,02,25,10,04,13,23,28,,,,1.26,0.93,0.85*06
$GPGSV,3,1,11,07,66,025,23,08,65,263,29,37,49,191,,13,47,074,29*74
$GPGSV,3,2,11,25,45,044,24,10,31,313,28,28,26,179,23,02,18,258,24*72
$GPGSV,3,3,11,23,15,098,25,04,14,225,18,03,04,064,25*45
$GPRMC,062213.000,A,3624.1665,N,02805.3645,E,0.11,55.32,140809,,,A*53
$GPGGA,062214.000,3624.1665,N,02805.3645,E,1,9,0.93,-13.8,M,33.2,M,,*45
$GPGSA,A,3,07,08,02,25,10,04,13,23,28,,,,1.26,0.93,0.85*06
$GPGSV,3,1,11,07,66,025,23,08,65,263,29,37,49,191,,13,47,074,29*74
$GPGSV,3,2,11,25,45,044,23,10,31,313,28,28,26,179,24,02,18,258,24*72
$GPGSV,3,3,11,23,15,098,26,04,14,225,19,03,04,064,25*47
$GPRMC,062214.000,A,3624.1665,N,02805.3645,E,0.16,55.32,140809,,,A*53
$GPGGA,062215.000,3624.1665,N,02805.3645,E,1,9,0.93,-13.8,M,33.2,M,,*44
$GPGSA,A,3,07,08,02,25,10,04,13,23,28,,,,1.26,0.93,0.85*06
$GPGSV,3,1,11,07,66,025,22,08,65,263,29,37,49,191,,13,47,074,29*75
$GPGSV,3,2,11,25,45,044,23,10,31,313,28,28,26,179,24,02,18,258,25*73
$GPGSV,3,3,11,23,15,098,26,04,14,225,19,03,04,064,26*44
$GPRMC,062215.000,A,3624.1665,N,02805.3645,E,0.06,55.32,140809,,,A*53
$GPGGA,062216.000,3624.1665,N,02805.3645,E,1,9,0.93,-13.8,M,33.2,M,,*47
$GPGSA,A,3,07,08,02,25,10,04,13,23,28,,,,1.26,0.93,0.85*06
$GPGSV,3,1,11,07,66,025,22,08,65,263,29,37,49,191,,13,47,074,30*7D
$GPGSV,3,2,11,25,45,044,23,10,31,313,28,28,26,179,23,02,18,258,26*77
$GPGSV,3,3,11,23,15,098,27,04,14,225,19,03,04,064,27*44
$GPRMC,062216.000,A,3624.1665,N,02805.3645,E,0.13,55.32,140809,,,A*54
$GPGGA,062217.000,3624.1665,N,02805.3645,E,1,9,1.00,-13.8,M,33.2,M,,*4D
$GPGSA,A,3,07,08,02,25,10,04,13,23,28,,,,1.89,1.00,1.60*02
$GPGSV,3,1,11,07,66,025,23,08,65,263,28,37,49,191,,13,47,074,31*7C
$GPGSV,3,2,11,25,45,044,22,10,31,313,29,28,26,179,21,02,18,258,26*75
$GPGSV,3,3,11,23,15,098,27,04,14,225,18,03,04,064,27*45
$GPRMC,062217.000,A,3624.1665,N,02805.3645,E,0.00,55.32,140809,,,A*57
$GPGGA,062218.000,3624.1665,N,02805.3645,E,1,9,0.93,-13.8,M,33.2,M,,*49
$GPGSA,A,3,07,08,02,25,10,04,13,23,28,,,,1.26,0.93,0.85*06
$GPGSV,3,1,11,07,66,025,24,08,65,263,27,37,49,191,,13,47,074,31*74
$GPGSV,3,2,11,25,45,044,23,10,31,313,29,28,26,179,19,02,18,258,26*7F
$GPGSV,3,3,11,23,15,098,28,04,14,225,18,03,04,064,27*4A
$GPRMC,062218.000,A,3624.1665,N,02805.3645,E,0.08,55.32,140809,,,A*50
$GPGGA,062219.000,3624.1665,N,02805.3645,E,1,9,0.93,-13.8,M,33.2,M,,*48
$GPGSA,A,3,07,08,02,25,10,04,13,23,28,,,,1.26,0.93,0.85*06
$GPGSV,3,1,11,07,66,025,23,08,65,263,27,37,49,191,,13,47,074,30*72
$GPGSV,3,2,11,25,45,044,23,10,31,313,28,28,26,179,18,02,18,258,25*7C
$GPGSV,3,3,11,23,15,098,27,04,14,225,18,03,04,064,25*47
$GPRMC,062219.000,A,3624.1665,N,02805.3645,E,0.16,55.32,140809,,,A*5E
$GPGGA,062220.000,3624.1664,N,02805.3645,E,1,9,0.93,-13.8,M,33.2,M,,*43
$GPGSA,A,3,07,08,02,25,10,04,13,23,28,,,,1.26,0.93,0.85*06
$GPGSV,3,1,11,07,66,025,23,08,65,263,26,37,49,191,,13,47,074,30*73
$GPGSV,3,2,11,25,45,044,24,10,31,313,28,28,26,179,17,02,18,258,25*74
$GPGSV,3,3,11,23,15,098,26,04,14,225,18,03,04,064,24*47
$GPRMC,062220.000,A,3624.1664,N,02805.3645,E,0.08,55.32,140809,,,A*5A
$GPGGA,062221.000,3624.1664,N,02805.3646,E,1,9,0.93,-13.8,M,33.2,M,,*41
$GPGSA,A,3,07,08,02,25,10,04,13,23,28,,,,1.26,0.93,0.85*06
$GPGSV,3,1,11,07,66,025,32,08,65,263,26,37,49,191,,13,47,074,28*7A
$GPGSV,3,2,11,25,45,044,24,10,31,313,27,28,26,179,17,02,18,258,27*79
$GPGSV,3,3,11,23,15,098,25,04,14,225,20,03,04,064,17*4F
$GPRMC,062221.000,A,3624.1664,N,02805.3646,E,0.13,55.32,140809,,,A*52
$GPGGA,062222.000,3624.1666,N,02805.3646,E,1,9,0.93,-13.8,M,33.2,M,,*40
$GPGSA,A,3,07,08,02,25,10,04,13,23,28,,,,1.26,0.93,0.85*06
$GPGSV,3,1,11,07,66,025,30,08,65,263,25,13,47,074,27,39,47,185,*71
$GPGSV,3,2,11,25,45,044,24,10,31,313,28,28,26,179,19,02,17,257,28*77
$GPGSV,3,3,11,23,15,098,25,04,14,225,21,03,04,064,18*41
$GPRMC,062222.000,A,3624.1666,N,02805.3646,E,0.24,55.32,140809,,,A*57
$GPGGA,062223.000,3624.1666,N,02805.3647,E,1,9,0.93,-13.9,M,33.2,M,,*41
$GPGSA,A,3,07,08,02,25,10,04,13,23,28,,,,1.26,0.93,0.85*06
$GPGSV,3,1,11,07,66,025,29,08,65,263,25,13,47,074,28,39,47,185,*76
$GPGSV,3,2,11,25,45,044,23,10,31,313,28,28,26,179,27,02,17,257,29*7C
$GPGSV,3,3,11,23,15,098,23,04,14,225,19,03,04,064,18*4C
$GPRMC,062223.000,A,3624.1666,N,02805.3647,E,0.27,55.32,140809,,,A*54
$GPGGA,062224.000,3624.1667,N,02805.3646,E,1,9,0.93,-13.9,M,33.2,M,,*46
$GPGSA,A,3,07,08,02,25,10,04,13,23,28,,,,1.26,0.93,0.85*06
$GPGSV,3,1,11,07,66,025,29,08,65,263,27,13,47,074,27,39,47,185,*7B
$GPGSV,3,2,11,25,45,044,22,10,31,313,29,28,26,179,27,02,17,257,27*72
$GPGSV,3,3,11,23,15,098,22,04,14,225,18,03,04,064,26*41
$GPRMC,062224.000,A,3624.1667,N,02805.3646,E,0.29,55.32,140809,,,A*5D
$GPGGA,062225.000,3624.1668,N,02805.3646,E,1,9,1.00,-13.9,M,33.2,M,,*43
$GPGSA,A,3,07,08,02,25,10,04,13,23,28,,,,1.89,1.00,1.60*02
$GPGSV,3,1,11,07,66,025,19,08,65,263,26,13,47,074,27,39,47,185,*79
$GPGSV,3,2,11,25,45,044,15,10,31,313,28,28,26,179,20,02,17,257,27*70
$GPGSV,3,3,11,23,15,098,22,04,14,225,17,03,04,064,25*4D
$GPRMC,062225.000,A,3624.1668,N,02805.3646,E,0.47,55.32,140809,,,A*5B
$GPGGA,062226.000,3624.1669,N,02805.3647,E,1,9,0.93,-13.8,M,33.2,M,,*4A
$GPGSA,A,3,07,08,02,25,10,04,13,23,28,,,,1.26,0.93,0.85*06
$GPGSV,3,1,11,07,66,025,20,08,65,263,26,13,47,074,26,39,47,185,*72
$GPGSV,3,2,11,25,45,044,22,10,31,313,28,28,26,179,19,02,17,257,28*71
$GPGSV,3,3,11,23,15,098,24,04,14,225,17,03,04,064,16*4B
$GPRMC,062226.000,A,3624.1669,N,02805.3647,E,0.50,55.32,140809,,,A*5E
$GPGGA,062227.000,3624.1671,N,02805.3648,E,1,9,1.00,-13.0,M,33.2,M,,*4E
$GPGSA,A,3,07,08,02,25,10,04,13,23,28,,,,1.89,1.00,1.60*02
$GPGSV,3,1,11,07,66,025,20,08,65,263,28,13,47,074,24,39,47,185,*7E
$GPGSV,3,2,11,25,45,044,22,10,31,313,28,28,26,179,18,02,17,257,29*71
$GPGSV,3,3,11,23,15,098,25,04,14,225,18,03,04,064,16*45
$GPRMC,062227.000,A,3624.1671,N,02805.3648,E,0.44,55.32,140809,,,A*5C
$GPGGA,062228.000,3624.1672,N,02805.3648,E,1,9,1.00,-13.0,M,33.2,M,,*42
$GPGSA,A,3,07,08,02,25,10,04,13,23,28,,,,1.89,1.00,1.60*02
$GPGSV,3,1,11,07,66,025,22,08,65,264,29,13,47,074,23,39,47,185,*7D
$GPGSV,3,2,11,25,45,044,22,10,31,313,28,28,26,179,18,02,17,257,29*71
$GPGSV,3,3,11,23,15,098,26,04,14,225,18,03,04,064,*41
$GPRMC,062228.000,A,3624.1672,N,02805.3648,E,0.24,55.32,140809,,,A*56
$GPGGA,062229.000,3624.1673,N,02805.3647,E,1,9,0.93,-13.0,M,33.2,M,,*46
$GPGSA,A,3,07,08,02,25,10,04,13,23,28,,,,1.26,0.93,0.85*06
$GPGSV,3,1,11,07,66,025,23,08,65,264,29,13,47,074,23,39,47,185,*7C
$GPGSV,3,2,11,25,45,044,23,10,31,313,29,28,26,179,18,02,17,257,29*71
$GPGSV,3,3,11,23,15,098,26,04,14,225,18,03,04,064,*41
$GPRMC,062229.000,A,3624.1673,N,02805.3647,E,0.29,55.32,140809,,,A*54
$GPGGA,062230.000,3624.1674,N,02805.3647,E,1,9,1.00,-13.0,M,33.2,M,,*42
$GPGSA,A,3,07,08,02,25,10,04,13,23,28,,,,1.89,1.00,1.60*02
$GPGSV,3,1,11,07,66,025,24,08,65,264,29,13,47,074,24,39,47,185,*7C
$GPGSV,3,2,11,25,45,044,24,10,31,313,29,28,26,179,18,02,17,257,29*76
$GPGSV,3,3,11,23,15,098,26,04,14,225,18,03,04,064,*41
$GPRMC,062230.000,A,3624.1674,N,02805.3647,E,0.32,55.32,140809,,,A*51
$GPGGA,062231.000,3624.1675,N,02805.3647,E,1,9,1.00,-13.0,M,33.2,M,,*42
$GPGSA,A,3,07,08,02,25,10,04,13,23,28,,,,1.89,1.00,1.60*02
$GPGSV,3,1,11,07,66,025,23,08,65,264,29,13,47,074,24,39,47,185,*7B
$GPGSV,3,2,11,25,45,044,24,10,31,313,29,28,26,179,18,02,17,257,28*77
$GPGSV,3,3,11,23,15,098,26,04,14,225,19,03,04,064,*40
$GPRMC,062231.000,A,3624.1675,N,02805.3647,E,0.30,55.32,140809,,,A*53
$GPGGA,062232.000,3624.1675,N,02805.3646,E,1,9,0.93,-13.0,M,33.2,M,,*4B
$GPGSA,A,3,07,08,02,25,10,04,13,23,28,,,,1.26,0.93,0.85*06
$GPGSV,3,1,11,07,66,025,22,08,65,264,27,13,47,074,24,25,45,044,17*71
$GPGSV,3,2,11,44,32,127,,10,31,313,29,28,26,179,17,02,17,257,27*72
$GPGSV,3,3,11,23,15,098,26,04,14,225,19,03,04,064,*40
$GPRMC,062232.000,A,3624.1675,N,02805.3646,E,0.23,55.32,140809,,,A*53
$GPGGA,062233.000,3624.1676,N,02805.3645,E,1,9,0.93,-13.0,M,33.2,M,,*4A
$GPGSA,A,3,07,08,02,25,10,04,13,23,28,,,,1.26,0.93,0.85*06
$GPGSV,3,1,11,07,66,025,22,08,65,264,27,13,47,074,24,25,45,044,17*71
$GPGSV,3,2,11,44,32,127,,10,31,313,29,28,26,179,16,02,17,257,27*73
$GPGSV,3,3,11,23,15,098,26,04,14,225,19,03,04,064,*40
$GPRMC,062233.000,A,3624.1676,N,02805.3645,E,0.09,55.32,140809,,,A*5A
$GPGGA,062234.000,3624.1676,N,02805.3645,E,1,9,0.93,-13.0,M,33.2,M,,*4D
$GPGSA,A,3,07,08,02,25,10,04,13,23,28,,,,1.26,0.93,0.85*06
$GPGSV,3,1,11,07,66,025,23,08,65,264,27,13,47,074,25,25,45,044,18*7E
$GPGSV,3,2,11,44,32,127,,10,31,313,29,28,26,179,16,02,17,257,28*7C
$GPGSV,3,3,11,23,15,098,26,04,14,225,19,03,04,064,*40
$GPRMC,062234.000,A,3624.1676,N,02805.3645,E,0.17,55.32,140809,,,A*52
$GPGGA,062235.000,3624.1676,N,02805.3645,E,1,9,0.93,-13.0,M,33.2,M,,*4C
$GPGSA,A,3,07,08,02,25,10,04,13,23,28,,,,1.26,0.93,0.85*06
$GPGSV,3,1,11,07,66,025,24,08,65,264,27,13,47,074,25,25,45,044,19*78
$GPGSV,3,2,11,44,32,127,,10,31,313,28,28,26,179,16,02,17,257,28*7D
$GPGSV,3,3,11,23,15,098,26,04,14,225,20,03,04,064,*4A
$GPRMC,062235.000,A,3624.1676,N,02805.3645,E,0.05,55.32,140809,,,A*50
$GPGGA,062236.000,3624.1676,N,02805.3646,E,1,9,0.93,-13.0,M,33.2,M,,*4C
$GPGSA,A,3,07,08,02,25,10,04,13,23,28,,,,1.26,0.93,0.85*06
$GPGSV,3,1,11,07,66,025,24,08,65,264,28,13,47,074,24,25,45,044,19*76
$GPGSV,3,2,11,44,32,127,,10,31,313,28,28,26,179,16,02,17,257,29*7C
$GPGSV,3,3,11,23,15,098,27,04,14,225,19,03,04,064,*41
$GPRMC,062236.000,A,3624.1676,N,02805.3646,E,0.16,55.32,140809,,,A*52
$GPGGA,062237.000,3624.1676,N,02805.3645,E,1,9,0.93,-13.0,M,33.2,M,,*4E
$GPGSA,A,3,07,08,02,25,10,04,13,23,28,,,,1.26,0.93,0.85*06
$GPGSV,3,1,11,07,66,025,24,08,65,264,29,13,47,074,23,25,45,044,20*7A
$GPGSV,3,2,11,44,32,127,,10,31,313,28,28,26,179,15,02,17,257,29*7F
$GPGSV,3,3,11,23,15,098,27,04,14,225,19,03,04,064,*41
$GPRMC,062237.000,A,3624.1676,N,02805.3645,E,0.13,55.32,140809,,,A*55
$GPGGA,062238.000,3624.1675,N,02805.3646,E,1,9,0.93,-13.0,M,33.2,M,,*41
$GPGSA,A,3,07,08,02,25,10,04,13,23,28,,,,1.26,0.93,0.85*06
$GPGSV,3,1,11,07,66,025,24,08,65,264,30,13,47,074,22,25,45,044,21*72
$GPGSV,3,2,11,44,32,127,,10,31,313,28,28,26,179,14,02,17,257,29*7E
$GPGSV,3,3,11,23,15,098,27,04,14,225,21,03,04,064,*4A
$GPRMC,062238.000,A,3624.1675,N,02805.3646,E,0.39,55.32,140809,,,A*52
$GPGGA,062239.000,3624.1675,N,02805.3647,E,1,9,0.93,-12.9,M,33.2,M,,*49
$GPGSA,A,3,07,08,02,25,10,04,13,23,28,,,,1.26,0.93,0.85*06
$GPGSV,3,1,11,07,66,025,24,08,65,264,30,13,47,074,22,25,45,044,21*72
$GPGSV,3,2,11,44,32,127,,10,31,313,28,28,26,179,13,02,17,257,29*79
$GPGSV,3,3,11,23,15,098,27,04,14,225,22,03,04,064,*49
$GPRMC,062239.000,A,3624.1675,N,02805.3647,E,0.25,55.32,140809,,,A*5F
$GPGGA,062240.000,3624.1675,N,02805.3648,E,1,9,0.93,-12.9,M,33.2,M,,*48
$GPGSA,A,3,07,08,02,25,10,04,13,23,28,,,,1.26,0.93,0.85*06
$GPGSV,3,1,11,07,66,025,24,08,65,264,30,13,47,074,22,25,45,044,14*74
$GPGSV,3,2,11,44,32,127,,10,31,313,28,28,26,179,14,02,17,257,28*7F
$GPGSV,3,3,11,23,15,098,27,04,14,225,23,03,04,064,*48
$GPRMC,062240.000,A,3624.1675,N,02805.3648,E,0.06,55.32,140809,,,A*5F
$GPGGA,062241.000,3624.1675,N,02805.3647,E,1,9,0.93,-12.9,M,33.2,M,,*46
$GPGSA,A,3,07,08,02,25,10,04,13,23,28,,,,1.26,0.93,0.85*06
$GPGSV,3,1,11,07,66,025,25,08,65,264,29,13,47,074,21,25,45,044,14*7E
$GPGSV,3,2,11,10,31,313,28,33,27,237,,28,26,179,22,02,17,257,27*73
$GPGSV,3,3,11,23,15,098,26,04,14,225,24,03,04,064,*4E
$GPRMC,062241.000,A,3624.1675,N,02805.3647,E,0.23,55.32,140809,,,A*56
$GPGGA,062242.000,3624.1675,N,02805.3647,E,1,9,0.93,-12.9,M,33.2,M,,*45
$GPGSA,A,3,07,08,02,25,10,04,13,23,28,,,,1.26,0.93,0.85*06
$GPGSV,3,1,11,07,66,025,24,08,65,264,29,13,47,074,19,25,45,044,15*75
$GPGSV,3,2,11,10,31,313,28,33,27,237,,28,26,179,22,02,17,257,26*72
$GPGSV,3,3,11,23,15,098,26,04,14,225,25,03,04,064,*4F
$GPRMC,062242.000,A,3624.1675,N,02805.3647,E,0.09,55.32,140809,,,A*5D
$GPGGA,062243.000,3624.1675,N,02805.3647,E,1,9,0.93,-12.9,M,33.2,M,,*44
$GPGSA,A,3,07,08,02,25,10,04,13,23,28,,,,1.26,0.93,0.85*06
$GPGSV,3,1,11,07,66,025,24,08,65,264,29,13,47,074,19,25,45,044,16*76
$GPGSV,3,2,11,10,31,313,26,33,27,237,,28,26,179,21,02,17,257,25*7C
$GPGSV,3,3,11,23,15,098,25,04,14,225,25,03,04,064,*4C
$GPRMC,062243.000,A,3624.1675,N,02805.3647,E,0.04,55.32,140809,,,A*51
$GPGGA,062244.000,3624.1675,N,02805.3646,E,1,9,0.93,-12.9,M,33.2,M,,*42
$GPGSA,A,3,07,08,02,25,10,04,13,23,28,,,,1.26,0.93,0.85*06
$GPGSV,3,1,11,07,66,025,24,08,65,264,28,13,47,074,19,25,45,044,18*79
$GPGSV,3,2,11,10,31,313,24,33,27,237,,28,26,179,20,02,17,257,25*7F
$GPGSV,3,3,11,23,15,098,25,04,14,225,25,03,04,064,*4C
$GPRMC,062244.000,A,3624.1675,N,02805.3646,E,0.06,55.32,140809,,,A*55
$GPGGA,062245.000,3624.1675,N,02805.3646,E,1,9,1.00,-12.9,M,33.2,M,,*48
$GPGSA,A,3,07,08,02,25,10,04,13,23,28,,,,1.89,1.00,1.60*02
$GPGSV,3,1,11,07,66,025,23,08,65,264,28,13,47,074,19,25,45,044,19*7F
$GPGSV,3,2,11,10,31,313,24,33,27,237,,28,26,179,19,02,17,257,25*75
$GPGSV,3,3,11,23,15,098,24,04,14,225,25,03,04,064,29*46
$GPRMC,062245.000,A,3624.1675,N,02805.3646,E,0.04,55.32,140809,,,A*56
$GPGGA,062246.000,3624.1675,N,02805.3646,E,1,9,0.93,-12.9,M,33.2,M,,*40
$GPGSA,A,3,07,08,02,25,10,04,13,23,28,,,,1.26,0.93,0.85*06
$GPGSV,3,1,11,07,66,025,23,08,65,264,28,13,47,074,19,25,45,044,21*74
$GPGSV,3,2,11,10,31,313,25,33,27,237,,28,26,179,17,02,17,257,25*7A
$GPGSV,3,3,11,23,15,098,24,04,14,225,25,03,04,064,13*4F
$GPRMC,062246.000,A,3624.1675,N,02805.3646,E,0.23,55.32,140809,,,A*50
$GPGGA,062247.000,3624.1675,N,02805.3647,E,1,9,0.93,-12.9,M,33.2,M,,*40
$GPGSA,A,3,07,08,02,25,10,04,13,23,28,,,,1.26,0.93,0.85*06
$GPGSV,3,1,11,07,66,025,23,08,65,264,28,13,47,074,20,25,45,044,20*7F
$GPGSV,3,2,11,10,31,313,25,33,27,237,,28,26,179,16,02,17,257,25*7B
$GPGSV,3,3,11,23,15,098,24,04,14,225,24,03,04,064,13*4E
$GPRMC,062247.000,A,3624.1675,N,02805.3647,E,0.23,55.32,140809,,,A*50
$GPGGA,062248.000,3624.1674,N,02805.3647,E,1,9,0.93,-12.9,M,33.2,M,,*4E
$GPGSA,A,3,07,08,02,25,10,04,13,23,28,,,,1.26,0.93,0.85*06
$GPGSV,3,1,11,07,66,025,23,08,65,264,28,13,47,074,20,25,45,044,22*7D
$GPGSV,3,2,11,10,31,313,26,28,27,179,24,33,27,237,,02,17,257,26*7B
$GPGSV,3,3,11,23,15,098,23,04,14,225,24,03,04,064,16*4C
$GPRMC,062248.000,A,3624.1674,N,02805.3647,E,0.16,55.32,140809,,,A*58
$GPGGA,062249.000,3624.1674,N,02805.3648,E,1,9,0.93,-12.9,M,33.2,M,,*40
$GPGSA,A,3,07,08,02,25,10,04,13,23,28,,,,1.26,0.93,0.85*06
$GPGSV,3,1,11,07,66,025,23,08,65,264,27,13,47,074,12,25,45,044,22*73
$GPGSV,3,2,11,10,31,313,26,28,27,179,24,33,27,237,,02,17,257,25*78
$GPGSV,3,3,11,23,15,098,21,04,14,225,23,03,04,064,17*48
$GPRMC,062249.000,A,3624.1674,N,02805.3648,E,0.08,55.32,140809,,,A*59
$GPGGA,062250.000,3624.1673,N,02805.3648,E,1,9,0.93,-12.9,M,33.2,M,,*4F
$GPGSA,A,3,07,08,02,25,10,04,13,23,28,,,,1.26,0.93,0.85*06
$GPGSV,3,1,11,07,66,025,25,08,65,264,26,13,47,074,21,25,45,044,22*74
$GPGSV,3,2,11,10,31,313,27,28,27,179,23,33,27,237,,02,17,257,25*7E
$GPGSV,3,3,11,23,15,098,21,04,14,225,23,03,04,064,16*49
$GPRMC,062250.000,A,3624.1673,N,02805.3648,E,0.32,55.32,140809,,,A*5F
$GPGGA,062251.000,3624.1673,N,02805.3649,E,1,9,0.93,-12.8,M,33.2,M,,*4E
$GPGSA,A,3,07,08,02,25,10,04,13,23,28,,,,1.26,0.93,0.85*06
$GPGSV,3,1,11,07,66,025,27,08,65,264,25,13,47,074,23,25,45,044,23*76
$GPGSV,3,2,11,10,31,313,28,28,27,179,23,02,17,257,23,23,15,098,21*73
$GPGSV,3,3,11,04,14,225,23,03,04,064,,34,,,*7E
$GPRMC,062251.000,A,3624.1673,N,02805.3649,E,0.26,55.32,140809,,,A*5A
$GPGGA,062252.000,3624.1673,N,02805.3649,E,1,9,0.93,-12.8,M,33.2,M,,*4D
$GPGSA,A,3,07,08,02,25,10,04,13,23,28,,,,1.26,0.93,0.85*06
$GPGSV,3,1,11,07,66,025,27,08,65,264,26,13,47,074,24,25,45,044,23*72
$GPGSV,3,2,11,10,31,313,28,28,27,179,22,02,17,257,22,23,15,098,21*73
$GPGSV,3,3,11,04,14,225,23,03,04,064,,34,,,*7E
$GPRMC,062252.000,A,3624.1673,N,02805.3649,E,0.18,55.32,140809,,,A*54
$GPGGA,062253.000,3624.1673,N,02805.3650,E,1,9,0.93,-12.8,M,33.2,M,,*44
$GPGSA,A,3,07,08,02,25,10,04,13,23,28,,,,1.26,0.93,0.85*06
$GPGSV,3,1,11,07,66,025,28,08,65,264,26,13,47,074,24,25,45,044,24*7A
$GPGSV,3,2,11,10,31,313,28,28,27,179,29,02,17,257,23,23,15,098,20*78
$GPGSV,3,3,11,04,14,225,24,03,04,064,17,34,,,*7F
$GPRMC,062253.000,A,3624.1673,N,02805.3650,E,0.23,55.32,140809,,,A*55
$GPGGA,062254.000,3624.1673,N,02805.3651,E,1,9,0.93,-12.8,M,33.2,M,,*42
$GPGSA,A,3,07,08,02,25,10,04,13,23,28,,,,1.26,0.93,0.85*06
$GPGSV,3,1,11,07,66,025,28,08,65,264,25,13,47,074,24,25,45,044,25*78
$GPGSV,3,2,11,10,31,313,27,28,27,179,29,02,17,257,22,23,15,098,20*76
$GPGSV,3,3,11,04,14,225,25,03,04,064,18,34,,,*71
$GPRMC,062254.000,A,3624.1673,N,02805.3651,E,0.23,55.32,140809,,,A*53
$GPGGA,062255.000,3624.1672,N,02805.3651,E,1,9,0.93,-12.8,M,33.2,M,,*42
$GPGSA,A,3,07,08,02,25,10,04,13,23,28,,,,1.26,0.93,0.85*06
$GPGSV,3,1,11,07,66,025,29,08,65,264,26,13,47,074,24,25,45,044,25*7A
$GPGSV,3,2,11,10,31,313,26,28,27,179,29,02,17,257,21,23,15,098,20*74
$GPGSV,3,3,11,04,14,225,24,03,04,064,17,34,,,*7F
$GPRMC,062255.000,A,3624.1672,N,02805.3651,E,0.08,55.32,140809,,,A*5A
$GPGGA,062256.000,3624.1673,N,02805.3651,E,1,9,0.93,-12.8,M,33.2,M,,*40
$GPGSA,A,3,07,08,02,25,10,04,13,23,28,,,,1.26,0.93,0.85*06
$GPGSV,3,1,11,07,66,025,29,08,65,264,27,13,47,074,25,25,45,044,25*7A
$GPGSV,3,2,11,10,31,313,25,28,27,179,28,02,17,257,20,23,15,098,20*77
$GPGSV,3,3,11,04,14,225,23,03,04,064,17,34,,,*78
$GPRMC,062256.000,A,3624.1673,N,02805.3651,E,0.37,55.32,140809,,,A*54
$GPGGA,062257.000,3624.1673,N,02805.3650,E,1,9,0.93,-12.8,M,33.2,M,,*40
$GPGSA,A,3,07,08,02,25,10,04,13,23,28,,,,1.26,0.93,0.85*06
$GPGSV,3,1,11,07,66,025,28,08,65,264,27,13,47,074,23,25,45,044,24*7C
$GPGSV,3,2,11,10,31,313,25,28,27,179,28,02,17,257,20,23,15,098,20*77
$GPGSV,3,3,11,04,14,225,22,03,04,064,17,36,,,*7B
$GPRMC,062257.000,A,3624.1673,N,02805.3650,E,0.42,55.32,140809,,,A*56
$GPGGA,062258.000,3624.1674,N,02805.3649,E,1,9,0.93,-12.8,M,33.2,M,,*40
$GPGSA,A,3,07,08,02,25,10,04,13,23,28,,,,1.26,0.93,0.85*06
$GPGSV,3,1,11,07,66,025,27,08,65,264,26,13,47,074,23,25,45,044,24*72
$GPGSV,3,2,11,10,31,313,25,28,27,179,26,02,17,257,21,23,15,098,20*78
$GPGSV,3,3,11,04,14,225,22,03,04,064,17,36,,,*7B
$GPRMC,062258.000,A,3624.1674,N,02805.3649,E,0.38,55.32,140809,,,A*5B
$GPGGA,062259.000,3624.1675,N,02805.3649,E,1,9,0.93,-12.8,M,33.2,M,,*40
$GPGSA,A,3,07,08,02,25,10,04,13,23,28,,,,1.26,0.93,0.85*06
$GPGSV,3,1,11,07,66,026,27,08,65,264,25,13,47,074,22,25,45,044,24*73
$GPGSV,3,2,11,10,31,313,26,28,27,179,17,02,17,257,22,23,15,098,19*70
$GPGSV,3,3,11,04,14,225,23,03,04,064,18,36,,,*75
$GPRMC,062259.000,A,3624.1675,N,02805.3649,E,0.20,55.32,140809,,,A*52
$GPGGA,062300.000,3624.1675,N,02805.3648,E,1,9,0.93,-12.8,M,33.2,M,,*4C
$GPGSA,A,3,07,08,02,25,10,04,13,23,28,,,,1.26,0.93,0.85*06
$GPGSV,3,1,11,07,66,026,28,08,65,264,24,13,47,074,22,25,45,044,24*7D
$GPGSV,3,2,11,10,31,313,26,28,27,179,25,02,17,257,22,23,15,098,19*71
$GPGSV,3,3,11,04,14,225,23,03,04,064,17,36,,,*7A
$GPRMC,062300.000,A,3624.1675,N,02805.3648,E,0.30,55.32,140809,,,A*5F
$GPGGA,062301.000,3624.1676,N,02805.3648,E,1,9,0.93,-12.8,M,33.2,M,,*4E
$GPGSA,A,3,07,08,02,25,10,04,13,23,28,,,,1.26,0.93,0.85*06
$GPGSV,3,1,11,07,66,026,27,08,65,264,24,13,47,074,22,25,45,044,25*73
$GPGSV,3,2,11,10,31,313,26,28,27,179,26,02,17,257,22,23,15,098,18*73
$GPGSV,3,3,11,04,14,225,23,03,04,064,17,36,,,*7A
$GPRMC,062301.000,A,3624.1676,N,02805.3648,E,0.17,55.32,140809,,,A*58
$GPGGA,062302.000,3624.1676,N,02805.3647,E,1,9,0.93,-12.8,M,33.2,M,,*42
$GPGSA,A,3,07,08,02,25,10,04,13,23,28,,,,1.26,0.93,0.85*06
$GPGSV,3,1,11,07,66,026,27,08,65,264,25,13,47,074,21,25,45,044,26*72
$GPGSV,3,2,11,10,31,313,26,28,27,179,27,02,17,257,21,23,15,098,18*71
$GPGSV,3,3,11,04,14,225,23,03,04,064,17,36,,,*7A
$GPRMC,062302.000,A,3624.1676,N,02805.3647,E,0.23,55.32,140809,,,A*53
$GPGGA,062303.000,3624.1677,N,02805.3646,E,1,9,0.93,-12.7,M,33.2,M,,*4C
$GPGSA,A,3,07,08,02,25,10,04,13,23,28,,,,1.26,0.93,0.85*06
$GPGSV,3,1,11,07,66,026,27,08,65,264,26,13,47,074,20,25,45,044,26*70
$GPGSV,3,2,11,10,31,313,26,28,27,179,26,02,17,257,21,23,15,098,18*70
$GPGSV,3,3,11,04,14,225,23,03,04,064,17,36,,,*7A
$GPRMC,062303.000,A,3624.1677,N,02805.3646,E,0.46,55.32,140809,,,A*51
$GPGGA,062304.000,3624.1677,N,02805.3645,E,1,9,0.93,-12.7,M,33.2,M,,*48
$GPGSA,A,3,07,08,02,25,10,04,13,23,28,,,,1.26,0.93,0.85*06
$GPGSV,3,1,11,07,66,026,27,08,65,264,25,13,47,074,19,25,45,044,27*78
$GPGSV,3,2,11,10,31,313,26,28,27,179,27,02,17,257,21,23,15,098,19*70
$GPGSV,3,3,11,04,14,225,22,03,04,064,18,38,,,*7A
$GPRMC,062304.000,A,3624.1677,N,02805.3645,E,0.25,55.32,140809,,,A*50
$GPGGA,062305.000,3624.1677,N,02805.3644,E,1,9,0.93,-12.7,M,33.2,M,,*48
$GPGSA,A,3,07,08,02,25,10,04,13,23,28,,,,1.26,0.93,0.85*06
$GPGSV,3,1,11,07,66,026,27,08,65,264,26,13,47,075,20,25,45,044,27*70
$GPGSV,3,2,11,10,31,313,25,28,27,179,28,02,17,257,21,23,15,098,19*7C
$GPGSV,3,3,11,04,14,225,20,03,04,064,19,38,,,*79
$GPRMC,062305.000,A,3624.1677,N,02805.3644,E,0.27,55.32,140809,,,A*52
$GPGGA,062306.000,3624.1678,N,02805.3644,E,1,9,0.93,-12.7,M,33.2,M,,*44
$GPGSA,A,3,07,08,02,25,10,04,13,23,28,,,,1.26,0.93,0.85*06
$GPGSV,3,1,11,07,66,026,27,08,65,264,26,13,47,075,20,25,45,044,27*70
$GPGSV,3,2,11,10,31,313,25,28,27,179,26,02,17,257,22,23,15,098,18*70
$GPGSV,3,3,11,04,14,225,19,03,04,064,20,38,,,*79
$GPRMC,062306.000,A,3624.1678,N,02805.3644,E,0.26,55.32,140809,,,A*5F
$GPGGA,062307.000,3624.1679,N,02805.3643,E,1,9,0.93,-12.7,M,33.2,M,,*43
$GPGSA,A,3,07,08,02,25,10,04,13,23,28,,,,1.26,0.93,0.85*06
$GPGSV,3,1,11,07,66,026,27,08,65,264,25,13,47,075,19,25,45,044,25*7B
$GPGSV,3,2,11,10,31,313,26,28,27,179,26,02,17,257,22,23,15,098,17*7C
$GPGSV,3,3,11,04,14,225,19,03,04,064,20,38,,,*79
$GPRMC,062307.000,A,3624.1679,N,02805.3643,E,0.20,55.32,140809,,,A*5E
$GPGGA,062308.000,3624.1679,N,02805.3643,E,1,9,1.00,-12.7,M,33.2,M,,*47
$GPGSA,A,3,07,08,02,25,10,04,13,23,28,,,,1.89,1.00,1.60*02
$GPGSV,3,1,11,07,66,026,26,08,65,264,24,13,47,075,19,25,45,044,25*7B
$GPGSV,3,2,11,10,31,313,27,28,27,179,26,02,17,257,21,23,15,098,16*7F
$GPGSV,3,3,11,04,14,225,20,03,04,064,19,38,,,*79
$GPRMC,062308.000,A,3624.1679,N,02805.3643,E,0.16,55.32,140809,,,A*54
$GPGGA,062309.000,3624.1680,N,02805.3643,E,1,9,1.00,-12.7,M,33.2,M,,*40
$GPGSA,A,3,07,08,02,25,10,04,13,23,28,,,,1.89,1.00,1.60*02
$GPGSV,3,1,11,07,66,026,27,08,65,264,22,13,47,075,19,25,45,044,25*7C
$GPGSV,3,2,11,10,31,313,27,28,27,179,26,02,17,257,21,23,15,098,15*7C
$GPGSV,3,3,11,04,14,225,21,03,04,064,19,38,,,*78
$GPRMC,062309.000,A,3624.1680,N,02805.3643,E,0.05,55.32,140809,,,A*51
$GPGGA,062310.000,3624.1680,N,02805.3643,E,1,9,0.93,-12.7,M,33.2,M,,*43
$GPGSA,A,3,07,08,02,25,10,04,13,23,28,,,,1.26,0.93,0.85*06
$GPGSV,3,1,11,07,66,026,27,08,65,264,22,13,47,075,19,25,45,044,25*7C
$GPGSV,3,2,11,10,31,313,26,28,27,179,26,02,17,257,22,23,15,098,15*7E
$GPGSV,3,3,11,04,14,225,21,03,04,064,19,40,,,*77
$GPRMC,062310.000,A,3624.1680,N,02805.3643,E,0.15,55.32,140809,,,A*58
$GPGGA,062311.000,3624.1680,N,02805.3643,E,1,9,0.93,-12.7,M,33.2,M,,*42
$GPGSA,A,3,07,08,02,25,10,04,13,23,28,,,,1.26,0.93,0.85*06
$GPGSV,3,1,11,07,66,026,27,08,65,264,22,13,47,075,19,25,45,044,25*7C
$GPGSV,3,2,11,10,31,313,27,28,27,179,25,02,17,257,22,23,15,098,15*7C
$GPGSV,3,3,11,04,14,225,22,03,04,064,18,40,,,*75
$GPRMC,062311.000,A,3624.1680,N,02805.3643,E,0.14,55.32,140809,,,A*58
$GPGGA,062312.000,3624.1680,N,02805.3642,E,1,9,0.93,-12.7,M,33.2,M,,*40
$GPGSA,A,3,07,08,02,25,10,04,13,23,28,,,,1.26,0.93,0.85*06
$GPGSV,3,1,11,07,66,026,27,08,65,264,21,13,47,075,20,25,45,044,24*74
$GPGSV,3,2,11,10,31,313,27,28,27,179,24,02,17,257,21,23,15,098,15*7E
$GPGSV,3,3,11,04,14,225,22,03,04,064,18,40,,,*75
$GPRMC,062312.000,A,3624.1680,N,02805.3642,E,0.16,55.32,140809,,,A*58
$GPGGA,062313.000,3624.1680,N,02805.3642,E,1,9,0.93,-12.7,M,33.2,M,,*41
$GPGSA,A,3,07,08,02,25,10,04,13,23,28,,,,1.26,0.93,0.85*06
$GPGSV,3,1,11,07,66,026,18,08,65,264,19,13,47,075,20,25,45,044,22*75
$GPGSV,3,2,11,10,31,313,27,28,27,179,24,02,17,257,20,23,15,098,15*7F
$GPGSV,3,3,11,04,14,225,22,03,04,064,20,40,,,*7E
$GPRMC,062313.000,A,3624.1680,N,02805.3642,E,0.16,55.32,140809,,,A*59
$GPGGA,062314.000,3624.1680,N,02805.3642,E,1,9,1.00,-12.7,M,33.2,M,,*4D
$GPGSA,A,3,07,08,02,25,10,04,13,23,28,,,,1.89,1.00,1.60*02
$GPGSV,3,1,11,07,66,026,17,08,65,264,21,13,47,075,20,25,45,044,22*71
$GPGSV,3,2,11,10,31,313,27,28,27,179,22,02,17,257,19,23,15,098,15*73
$GPGSV,3,3,11,04,14,225,21,03,04,064,27,40,,,*7A
$GPRMC,062314.000,A,3624.1680,N,02805.3642,E,0.40,55.32,140809,,,A*5D
$GPGGA,062315.000,3624.1681,N,02805.3641,E,1,9,0.93,-12.7,M,33.2,M,,*45
$GPGSA,A,3,07,08,02,25,10,04,13,23,28,,,,1.26,0.93,0.85*06
$GPGSV,3,1,11,07,66,026,16,08,65,264,23,13,47,075,19,25,45,044,14*7D
$GPGSV,3,2,11,10,31,313,27,28,27,179,22,02,17,257,17,23,14,098,15*7C
$GPGSV,3,3,11,04,14,225,19,03,04,064,28,40,,,*7E
$GPRMC,062315.000,A,3624.1681,N,02805.3641,E,0.22,55.32,140809,,,A*5A
$GPGGA,062316.000,3624.1681,N,02805.3640,E,1,9,0.93,-12.7,M,33.2,M,,*47
$GPGSA,A,3,07,08,02,25,10,04,13,23,28,,,,1.26,0.93,0.85*06
$GPGSV,3,1,11,07,66,026,15,08,65,264,24,13,47,075,19,25,45,044,14*79
$GPGSV,3,2,11,10,31,313,28,28,27,179,23,02,17,257,17,23,14,098,16*71
$GPGSV,3,3,11,04,14,225,18,03,04,064,28,41,,,*7E
$GPRMC,062316.000,A,3624.1681,N,02805.3640,E,0.23,55.32,140809,,,A*59
$GPGGA,062317.000,3624.1681,N,02805.3639,E,1,9,0.93,-12.7,M,33.2,M,,*48
$GPGSA,A,3,07,08,02,25,10,04,13,23,28,,,,1.26,0.93,0.85*06
$GPGSV,3,1,11,07,66,026,15,08,65,264,25,13,47,075,19,25,44,044,16*7B
$GPGSV,3,2,11,10,31,313,30,28,27,179,24,02,17,257,16,23,14,098,16*7E
$GPGSV,3,3,11,04,14,225,18,03,04,064,27,41,,,*71
$GPRMC,062317.000,A,3624.1681,N,02805.3639,E,0.17,55.32,140809,,,A*51
$GPGGA,062318.000,3624.1681,N,02805.3639,E,1,9,0.93,-12.7,M,33.2,M,,*47
$GPGSA,A,3,07,08,02,25,10,04,13,23,28,,,,1.26,0.93,0.85*06
$GPGSV,3,1,11,07,66,026,16,08,65,264,25,13,47,075,20,25,44,044,17*73
$GPGSV,3,2,11,10,31,313,31,28,27,179,17,02,17,257,15,23,14,098,16*7C
$GPGSV,3,3,11,04,14,225,18,03,04,064,27,41,,,*71
$GPRMC,062318.000,A,3624.1681,N,02805.3639,E,0.11,55.32,140809,,,A*58
$GPGGA,062319.000,3624.1682,N,02805.3638,E,1,9,0.93,-12.7,M,33.2,M,,*44
$GPGSA,A,3,07,08,02,25,10,04,13,23,28,,,,1.26,0.93,0.85*06
$GPGSV,3,1,11,07,66,026,17,08,65,264,25,13,47,075,20,25,44,044,17*72
$GPGSV,3,2,11,10,31,313,31,28,27,179,17,02,17,257,15,23,14,098,17*7D
$GPGSV,3,3,11,04,14,225,17,03,04,064,27,41,,,*7E
$GPRMC,062319.000,A,3624.1682,N,02805.3638,E,0.19,55.32,140809,,,A*53
$GPGGA,062320.000,3624.1682,N,02805.3638,E,1,9,0.93,-12.7,M,33.2,M,,*4E
$GPGSA,A,3,07,08,02,25,10,04,13,23,28,,,,1.26,0.93,0.85*06
$GPGSV,3,1,11,07,66,026,17,08,65,264,26,13,47,075,19,25,44,044,16*7A
$GPGSV,3,2,11,10,31,313,31,28,27,179,17,02,17,257,15,23,14,098,18*72
$GPGSV,3,3,11,04,14,225,17,03,04,064,27,41,,,*7E
$GPRMC,062320.000,A,3624.1682,N,02805.3638,E,0.17,55.32,140809,,,A*57
$GPGGA,062321.000,3624.1682,N,02805.3637,E,1,9,0.93,-12.7,M,33.2,M,,*40
$GPGSA,A,3,07,08,02,25,10,04,13,23,28,,,,1.26,0.93,0.85*06
$GPGSV,3,1,11,07,66,026,17,08,65,264,26,13,47,075,19,25,44,044,16*7A
$GPGSV,3,2,11,10,31,313,30,28,27,179,17,02,17,257,16,23,14,098,18*70
$GPGSV,3,3,11,04,14,225,16,03,04,064,26,41,,,*7E
$GPRMC,062321.000,A,3624.1682,N,02805.3637,E,0.13,55.32,140809,,,A*5D
$GPGGA,062322.000,3624.1682,N,02805.3637,E,1,9,0.93,-12.7,M,33.2,M,,*43
$GPGSA,A,3,07,08,02,25,10,04,13,23,28,,,,1.26,0.93,0.85*06
$GPGSV,3,1,11,07,66,026,16,08,65,264,27,13,47,075,18,25,44,044,16*7B
$GPGSV,3,2,11,10,31,313,30,28,27,179,17,02,17,257,17,23,14,098,18*71
$GPGSV,3,3,11,04,14,225,15,03,04,064,26,41,,,*7D
$GPRMC,062322.000,A,3624.1682,N,02805.3637,E,0.31,55.32,140809,,,A*5E
$GPGGA,062323.000,3624.1675,N,02805.3641,E,1,9,0.93,-12.4,M,33.2,M,,*48
$GPGSA,A,3,07,08,02,25,10,04,13,23,28,,,,1.26,0.93,0.85*06
$GPGSV,3,1,11,07,66,026,16,08,65,264,28,13,47,075,17,25,44,044,17*7A
$GPGSV,3,2,11,10,31,313,29,28,27,179,17,02,17,257,17,23,14,098,19*78
$GPGSV,3,3,11,04,14,225,16,03,04,064,26,43,,,*7C
$GPRMC,062323.000,A,3624.1675,N,02805.3641,E,0.16,55.32,140809,,,A*53
$GPGGA,062324.000,3624.1676,N,02805.3640,E,1,9,0.93,-12.5,M,33.2,M,,*4C
$GPGSA,A,3,07,08,02,25,10,04,13,23,28,,,,1.26,0.93,0.85*06
$GPGSV,3,1,11,07,66,026,16,08,65,264,28,13,47,075,16,25,44,044,18*74
$GPGSV,3,2,11,10,31,313,28,28,27,179,17,02,17,257,17,23,14,098,20*73
$GPGSV,3,3,11,04,14,225,17,03,04,064,26,43,,,*7D
$GPRMC,062324.000,A,3624.1676,N,02805.3640,E,0.17,55.32,140809,,,A*57
$GPGGA,062325.000,3624.1676,N,02805.3640,E,1,9,0.93,-12.5,M,33.2,M,,*4D
$GPGSA,A,3,07,08,02,25,10,04,13,23,28,,,,1.26,0.93,0.85*06
$GPGSV,3,1,11,07,66,026,16,08,65,264,28,13,47,075,15,25,44,044,19*76
$GPGSV,3,2,11,10,31,313,28,28,27,179,17,02,17,257,18,23,14,098,20*7C
$GPGSV,3,3,11,04,14,225,17,03,04,064,26,43,,,*7D
$GPRMC,062325.000,A,3624.1676,N,02805.3640,E,0.09,55.32,140809,,,A*59
$GPGGA,062326.000,3624.1676,N,02805.3640,E,1,9,0.93,-12.5,M,33.2,M,,*4E
$GPGSA,A,3,07,08,02,25,10,04,13,23,28,,,,1.26,0.93,0.85*06
$GPGSV,3,1,11,07,66,026,17,08,65,264,28,13,47,075,15,25,44,044,20*7D
$GPGSV,3,2,11,10,31,313,28,28,27,179,19,02,17,257,18,23,14,098,19*78
$GPGSV,3,3,11,04,14,225,16,03,04,064,26,43,,,*7C
$GPRMC,062326.000,A,3624.1676,N,02805.3640,E,0.13,55.32,140809,,,A*51
$GPGGA,062327.000,3624.1676,N,02805.3641,E,1,9,0.93,-12.5,M,33.2,M,,*4E
$GPGSA,A,3,07,08,02,25,10,04,13,23,28,,,,1.26,0.93,0.85*06
$GPGSV,3,1,11,07,66,026,18,08,65,264,27,13,47,075,15,25,44,044,20*7D
$GPGSV,3,2,11,10,31,313,28,28,27,179,19,02,17,257,18,23,14,098,20*72
$GPGSV,3,3,11,04,14,225,16,03,04,063,26,43,,,*7B
$GPRMC,062327.000,A,3624.1676,N,02805.3641,E,0.34,55.32,140809,,,A*54
$GPGGA,062328.000,3624.1676,N,02805.3642,E,1,8,0.99,-12.5,M,33.2,M,,*49
$GPGSA,A,3,07,08,02,25,10,13,23,28,,,,,1.31,0.99,0.85*0E
$GPGSV,3,1,11,07,66,026,18,08,65,264,27,13,47,075,17,25,44,044,20*7F
$GPGSV,3,2,11,10,31,313,29,28,27,179,19,02,17,257,18,23,14,098,19*79
$GPGSV,3,3,11,04,14,225,,03,04,063,27,43,,,*7D
$GPRMC,062328.000,A,3624.1676,N,02805.3642,E,0.25,55.32,140809,,,A*58
$GPGGA,062329.000,3624.1677,N,02805.3642,E,1,8,0.99,-12.5,M,33.2,M,,*49
$GPGSA,A,3,07,08,02,25,10,13,23,28,,,,,1.31,0.99,0.85*0E
$GPGSV,3,1,11,07,66,026,18,08,65,264,26,13,47,075,24,25,44,044,19*74
$GPGSV,3,2,11,10,31,313,30,28,27,179,20,02,17,257,18,23,14,098,20*71
$GPGSV,3,3,11,04,14,225,,03,04,063,27,43,,,*7D
$GPRMC,062329.000,A,3624.1677,N,02805.3642,E,0.22,55.32,140809,,,A*5F
$GPGGA,062330.000,3624.1676,N,02805.3643,E,1,9,0.93,-12.5,M,33.2,M,,*4A
$GPGSA,A,3,07,08,02,25,10,04,13,23,28,,,,1.26,0.93,0.85*06
$GPGSV,3,1,11,07,66,026,18,08,65,264,26,13,47,075,24,25,44,044,18*75
$GPGSV,3,2,11,10,31,313,30,28,27,179,21,02,17,257,17,23,14,098,21*7E
$GPGSV,3,3,11,04,14,225,17,03,04,063,27,45,,,*7D
$GPRMC,062330.000,A,3624.1676,N,02805.3643,E,0.32,55.32,140809,,,A*56
$GPGGA,062331.000,3624.1675,N,02805.3644,E,1,9,0.93,-12.5,M,33.2,M,,*4F
$GPGSA,A,3,07,08,02,25,10,04,13,23,28,,,,1.26,0.93,0.85*06
$GPGSV,3,1,11,07,65,026,18,08,65,264,25,13,47,075,25,25,44,044,18*74
$GPGSV,3,2,11,10,31,313,30,28,27,179,21,02,17,257,17,23,14,098,22*7D
$GPGSV,3,3,11,04,14,225,17,03,04,063,27,45,,,*7D
$GPRMC,062331.000,A,3624.1675,N,02805.3644,E,0.22,55.32,140809,,,A*52
$GPGGA,062332.000,3624.1676,N,02805.3644,E,1,9,0.93,-12.5,M,33.2,M,,*4F
$GPGSA,A,3,07,08,02,25,10,04,13,23,28,,,,1.26,0.93,0.85*06
$GPGSV,3,1,11,07,65,026,17,08,65,265,25,13,47,075,23,25,44,044,17*73
$GPGSV,3,2,11,10,31,313,29,28,27,179,19,02,17,257,18,23,14,098,21*72
$GPGSV,3,3,11,04,14,225,19,03,04,063,27,45,,,*73
$GPRMC,062332.000,A,3624.1676,N,02805.3644,E,0.26,55.32,140809,,,A*56
$GPGGA,062333.000,3624.1676,N,02805.3645,E,1,9,0.93,-12.5,M,33.2,M,,*4F
$GPGSA,A,3,07,08,02,25,10,04,13,23,28,,,,1.26,0.93,0.85*06
$GPGSV,3,1,11,07,65,026,16,08,65,265,26,13,47,075,24,25,44,044,17*76
$GPGSV,3,2,11,10,31,313,28,28,27,179,18,02,17,257,18,23,14,098,21*72
$GPGSV,3,3,11,04,14,225,17,03,04,063,27,45,,,*7D
$GPRMC,062333.000,A,3624.1676,N,02805.3645,E,0.50,55.32,140809,,,A*57
$GPGGA,062334.000,3624.1677,N,02805.3647,E,1,9,0.93,-12.5,M,33.2,M,,*4B
$GPGSA,A,3,07,08,02,25,10,04,13,23,28,,,,1.26,0.93,0.85*06
$GPGSV,3,1,11,07,65,026,16,08,65,265,26,13,47,075,23,25,44,044,19*7F
$GPGSV,3,2,11,10,32,313,27,28,27,179,18,02,17,257,18,23,14,098,22*7D
$GPGSV,3,3,11,04,14,225,16,03,04,063,26,45,,,*7D
$GPRMC,062334.000,A,3624.1677,N,02805.3647,E,0.45,55.32,140809,,,A*57
$GPGGA,062335.000,3624.1677,N,02805.3648,E,1,9,0.93,-12.5,M,33.2,M,,*45
$GPGSA,A,3,07,08,02,25,10,04,13,23,28,,,,1.26,0.93,0.85*06
$GPGSV,3,1,11,07,65,026,16,08,65,265,27,13,47,075,22,25,44,044,18*7E
$GPGSV,3,2,11,10,32,313,27,28,27,179,18,02,17,257,17,23,14,098,23*73
$GPGSV,3,3,11,04,14,225,16,03,04,063,26,45,,,*7D
$GPRMC,062335.000,A,3624.1677,N,02805.3648,E,0.52,55.32,140809,,,A*5F
$GPGGA,062336.000,3624.1678,N,02805.3650,E,1,9,0.93,-12.4,M,33.2,M,,*41
$GPGSA,A,3,07,08,02,25,10,04,13,23,28,,,,1.26,0.93,0.85*06
$GPGSV,3,1,11,07,65,026,15,08,65,265,28,13,47,075,23,25,44,044,18*73
$GPGSV,3,2,11,10,32,313,27,28,27,179,18,02,17,257,17,23,14,098,23*73
$GPGSV,3,3,11,04,14,225,16,03,04,063,26,46,,,*7E
$GPRMC,062336.000,A,3624.1678,N,02805.3650,E,0.15,55.32,140809,,,A*59
$GPGGA,062337.000,3624.1677,N,02805.3650,E,1,9,0.93,-12.4,M,33.2,M,,*4F
$GPGSA,A,3,07,08,02,25,10,04,13,23,28,,,,1.26,0.93,0.85*06
$GPGSV,3,1,11,07,65,026,16,08,65,265,27,13,47,075,24,25,44,044,18*78
$GPGSV,3,2,11,10,32,313,26,28,27,179,17,02,17,257,17,23,14,098,23*7D
$GPGSV,3,3,11,04,14,225,15,03,04,063,26,46,,,*7D
$GPRMC,062337.000,A,3624.1677,N,02805.3650,E,0.15,55.32,140809,,,A*57
$GPGGA,062338.000,3624.1677,N,02805.3650,E,1,9,0.93,-12.4,M,33.2,M,,*40
$GPGSA,A,3,07,08,02,25,10,04,13,23,28,,,,1.26,0.93,0.85*06
$GPGSV,3,1,11,07,65,026,15,08,65,265,26,13,47,075,25,25,44,044,18*7B
$GPGSV,3,2,11,10,32,313,24,28,27,179,17,02,17,257,17,23,14,098,24*78
$GPGSV,3,3,11,04,14,225,14,03,04,063,26,46,,,*7C
$GPRMC,062338.000,A,3624.1677,N,02805.3650,E,0.25,55.32,140809,,,A*5B
$GPGGA,062339.000,3624.1678,N,02805.3650,E,1,9,1.01,-12.4,M,33.2,M,,*44
$GPGSA,A,3,07,08,02,25,10,04,13,23,28,,,,1.89,1.01,1.60*03
$GPGSV,3,1,11,07,65,026,14,08,65,265,26,13,47,075,25,25,44,044,17*75
$GPGSV,3,2,11,10,32,313,24,28,27,179,17,02,17,257,18,23,14,098,25*76
$GPGSV,3,3,11,04,14,225,15,03,04,063,25,46,,,*7E
$GPRMC,062339.000,A,3624.1678,N,02805.3650,E,0.39,55.32,140809,,,A*58
$GPGGA,062340.000,3624.1679,N,02805.3650,E,1,8,0.94,-12.4,M,33.2,M,,*47
$GPGSA,A,3,08,02,25,10,04,13,23,28,,,,,1.28,0.94,0.87*0A
$GPGSV,3,1,11,07,65,026,,08,65,265,26,13,47,075,25,25,44,044,17*70
$GPGSV,3,2,11,10,32,313,25,28,27,179,16,02,17,257,19,23,14,098,26*74
$GPGSV,3,3,11,04,14,225,16,03,04,063,24,46,,,*7C
$GPRMC,062340.000,A,3624.1679,N,02805.3650,E,0.53,55.32,140809,,,A*5B
$GPGGA,062341.000,3624.1680,N,02805.3650,E,1,8,1.01,-12.4,M,33.2,M,,*4D
$GPGSA,A,3,08,02,25,10,04,13,23,28,,,,,2.02,1.01,1.75*00
$GPGSV,3,1,11,07,65,026,,08,65,265,26,13,47,075,25,25,44,044,18*7F
$GPGSV,3,2,11,10,32,313,24,28,27,179,15,02,17,257,20,23,14,098,26*7C
$GPGSV,3,3,11,04,14,225,17,03,04,063,23,46,,,*7A
$GPRMC,062341.000,A,3624.1680,N,02805.3650,E,0.64,350.85,140809,,,A*62
$GPGGA,062342.000,3624.1686,N,02805.3647,E,1,9,1.01,-12.2,M,33.2,M,,*49
$GPGSA,A,3,07,08,02,25,10,04,13,23,28,,,,1.89,1.01,1.60*03
$GPGSV,3,1,11,07,65,026,17,08,65,265,26,13,47,075,25,25,44,044,18*79
$GPGSV,3,2,11,10,32,313,25,28,27,179,14,02,17,257,21,23,14,098,26*7D
$GPGSV,3,3,11,04,14,225,16,03,04,063,22,49,,,*75
$GPRMC,062342.000,A,3624.1686,N,02805.3647,E,0.71,346.05,140809,,,A*6A
$GPGGA,062343.000,3624.1690,N,02805.3647,E,1,8,1.28,-11.9,M,33.2,M,,*4D
$GPGSA,A,3,07,08,02,25,10,04,13,23,,,,,2.12,1.28,1.69*0A
$GPGSV,3,1,11,07,65,026,17,08,65,265,24,13,47,075,23,25,44,044,18*7D
$GPGSV,3,2,11,10,32,313,24,28,27,179,,02,17,257,22,23,14,098,27*7B
$GPGSV,3,3,11,04,14,225,16,03,04,063,21,49,,,*76
$GPRMC,062343.000,A,3624.1690,N,02805.3647,E,0.68,340.17,140809,,,A*61
$GPGGA,062344.000,3624.1692,N,02805.3649,E,1,9,0.93,-11.8,M,33.2,M,,*47
$GPGSA,A,3,07,08,02,25,10,04,13,23,28,,,,1.26,0.93,0.85*06
$GPGSV,3,1,11,07,65,026,17,08,65,265,23,13,47,075,23,25,44,044,19*7B
$GPGSV,3,2,11,10,32,313,23,28,27,179,15,02,17,257,22,23,14,098,28*77
$GPGSV,3,3,11,04,14,225,17,03,04,063,22,49,,,*74
$GPRMC,062344.000,A,3624.1692,N,02805.3649,E,0.63,1.71,140809,,,A*67
$GPGGA,062345.000,3624.1690,N,02805.3647,E,1,9,1.01,-11.7,M,33.2,M,,*4F
$GPGSA,A,3,07,08,02,25,10,04,13,23,28,,,,1.89,1.01,1.60*03
$GPGSV,3,1,11,07,65,026,19,08,65,265,22,13,47,075,21,25,44,044,27*7B
$GPGSV,3,2,11,10,32,313,24,28,27,179,17,02,17,257,21,23,14,098,28*71
$GPGSV,3,3,11,04,14,225,18,03,04,063,21,49,,,*78
$GPRMC,062345.000,A,3624.1690,N,02805.3647,E,0.27,1.71,140809,,,A*6A
$GPGGA,062346.000,3624.1684,N,02805.3644,E,1,9,1.01,-11.6,M,33.2,M,,*4B
$GPGSA,A,3,07,08,02,25,10,04,13,23,28,,,,1.89,1.01,1.60*03
$GPGSV,3,1,11,07,65,026,18,08,65,265,21,13,47,075,20,25,44,044,26*79
$GPGSV,3,2,11,10,32,313,23,28,27,179,13,02,17,257,19,23,14,098,28*79
$GPGSV,3,3,11,04,14,225,19,03,04,063,21,49,,,*79
$GPRMC,062346.000,A,3624.1684,N,02805.3644,E,0.24,1.71,140809,,,A*6C
$GPGGA,062347.000,3624.1683,N,02805.3644,E,1,9,0.93,-11.5,M,33.2,M,,*44
$GPGSA,A,3,07,08,02,25,10,04,13,23,28,,,,1.26,0.93,0.85*06
$GPGSV,3,1,11,07,65,026,19,08,65,265,20,13,47,075,18,25,44,044,26*72
$GPGSV,3,2,11,10,32,313,23,28,27,179,13,02,17,257,17,23,14,099,27*79
$GPGSV,3,3,11,04,14,225,20,03,04,063,21,49,,,*73
$GPRMC,062347.000,A,3624.1683,N,02805.3644,E,0.19,1.71,140809,,,A*64
$GPGGA,062348.000,3624.1677,N,02805.3644,E,1,9,0.93,-10.9,M,33.2,M,,*4D
$GPGSA,A,3,07,08,02,25,10,04,13,23,28,,,,1.26,0.93,0.85*06
$GPGSV,3,1,11,07,65,026,20,08,65,265,29,37,49,191,,13,47,075,19*73
$GPGSV,3,2,11,25,44,044,26,10,32,313,25,28,27,179,13,02,17,257,18*72
$GPGSV,3,3,11,23,14,099,26,04,14,225,20,03,04,063,22*4D
$GPRMC,062348.000,A,3624.1677,N,02805.3644,E,0.17,1.71,140809,,,A*6E
$GPGGA,062349.000,3624.1677,N,02805.3644,E,1,9,0.93,-10.9,M,33.2,M,,*4C
$GPGSA,A,3,07,08,02,25,10,04,13,23,28,,,,1.26,0.93,0.85*06
$GPGSV,3,1,11,07,65,026,21,08,65,265,28,37,49,191,,13,47,075,17*7D
$GPGSV,3,2,11,25,44,044,25,10,32,313,26,28,27,179,14,02,17,257,18*75
$GPGSV,3,3,11,23,14,099,25,04,14,225,20,03,04,063,21*4D
$GPRMC,062349.000,A,3624.1677,N,02805.3644,E,0.23,1.71,140809,,,A*68
$GPGGA,062350.000,3624.1676,N,02805.3645,E,1,9,0.93,-10.9,M,33.2,M,,*44
$GPGSA,A,3,07,08,02,25,10,04,13,23,28,,,,1.26,0.93,0.85*06
$GPGSV,3,1,11,07,65,026,20,08,65,265,27,37,49,191,,13,47,075,17*73
$GPGSV,3,2,11,25,44,044,23,10,32,313,28,28,27,179,15,02,17,257,17*73
$GPGSV,3,3,11,23,14,099,24,04,14,225,20,03,04,063,22*4F
$GPRMC,062350.000,A,3624.1676,N,02805.3645,E,0.44,1.71,140809,,,A*61
$GPGGA,062351.000,3624.1675,N,02805.3646,E,1,9,0.93,-10.9,M,33.2,M,,*45
$GPGSA,A,3,07,08,02,25,10,04,13,23,28,,,,1.26,0.93,0.85*06
$GPGSV,3,1,11,07,65,026,11,08,65,265,27,37,49,191,,13,47,075,19*7F
$GPGSV,3,2,11,25,44,044,22,10,32,313,29,28,27,179,16,02,17,257,18*7F
$GPGSV,3,3,11,23,14,099,25,04,14,225,19,03,04,063,23*45
$GPRMC,062351.000,A,3624.1675,N,02805.3646,E,0.34,1.71,140809,,,A*67
$GPGGA,062352.000,3624.1675,N,02805.3647,E,1,8,0.94,-10.9,M,33.2,M,,*41
$GPGSA,A,3,08,02,25,10,04,13,23,28,,,,,1.28,0.94,0.87*0A
$GPGSV,3,1,11,07,65,026,,08,65,265,27,37,49,191,,13,47,075,21*74
$GPGSV,3,2,11,25,44,044,20,10,32,313,29,28,27,179,16,02,17,257,19*7C
$GPGSV,3,3,11,23,14,099,25,04,14,225,18,03,04,063,24*43
$GPRMC,062352.000,A,3624.1675,N,02805.3647,E,0.27,1.71,140809,,,A*67
$GPGGA,062353.000,3624.1674,N,02805.3647,E,1,8,0.94,-10.9,M,33.2,M,,*41
$GPGSA,A,3,08,02,25,10,04,13,23,28,,,,,1.28,0.94,0.87*0A
$GPGSV,3,1,11,07,65,026,,08,65,265,26,37,49,191,,13,47,075,22*76
$GPGSV,3,2,11,25,44,044,19,10,32,313,30,28,27,179,18,02,17,257,20*7A
$GPGSV,3,3,11,23,14,099,25,04,14,225,17,03,04,063,24*4C
$GPRMC,062353.000,A,3624.1674,N,02805.3647,E,0.17,1.71,140809,,,A*64
$GPGGA,062354.000,3624.1674,N,02805.3648,E,1,8,0.94,-10.9,M,33.2,M,,*49
$GPGSA,A,3,08,02,25,10,04,13,23,28,,,,,1.28,0.94,0.87*0A
$GPGSV,3,1,11,07,65,026,,08,65,265,26,37,49,191,,13,47,075,23*77
$GPGSV,3,2,11,25,44,044,19,10,32,313,31,28,27,179,19,02,17,257,20*7A
$GPGSV,3,3,11,23,14,099,25,04,14,225,17,03,04,063,24*4C
$GPRMC,062354.000,A,3624.1674,N,02805.3648,E,0.31,1.71,140809,,,A*68
$GPGGA,062355.000,3624.1674,N,02805.3649,E,1,8,0.94,-10.9,M,33.2,M,,*49
$GPGSA,A,3,08,02,25,10,04,13,23,28,,,,,1.28,0.94,0.87*0A
$GPGSV,3,1,11,07,65,026,,08,65,265,25,37,49,191,,13,47,075,23*74
$GPGSV,3,2,11,25,44,044,18,10,32,313,31,28,27,179,19,02,17,257,21*7A
$GPGSV,3,3,11,23,14,099,26,04,14,225,17,03,04,063,25*4E
$GPRMC,062355.000,A,3624.1674,N,02805.3649,E,0.09,1.71,140809,,,A*63
$GPGGA,062356.000,3624.1674,N,02805.3649,E,1,8,0.94,-10.9,M,33.2,M,,*4A
$GPGSA,A,3,08,02,25,10,04,13,23,28,,,,,1.28,0.94,0.87*0A
$GPGSV,3,1,11,07,65,026,16,08,65,265,25,37,49,191,,13,47,075,21*71
$GPGSV,3,2,11,25,44,044,17,10,32,313,30,28,27,179,18,02,17,257,20*74
$GPGSV,3,3,11,23,14,099,26,04,14,225,17,03,04,063,25*4E
$GPRMC,062356.000,A,3624.1674,N,02805.3649,E,0.08,1.71,140809,,,A*61
$GPGGA,062357.000,3624.1674,N,02805.3649,E,1,8,0.94,-10.9,M,33.2,M,,*4B
$GPGSA,A,3,08,02,25,10,04,13,23,28,,,,,1.28,0.94,0.87*0A
$GPGSV,3,1,11,07,65,026,,08,65,265,24,37,49,191,,13,47,075,19*7C
$GPGSV,3,2,11,25,44,044,17,10,32,313,30,28,27,179,19,02,17,257,19*7F
$GPGSV,3,3,11,23,14,099,26,04,14,225,17,03,04,063,26*4D
$GPRMC,062357.000,A,3624.1674,N,02805.3649,E,0.37,1.71,140809,,,A*6C
$GPGGA,062358.000,3624.1673,N,02805.3649,E,1,8,0.94,-10.9,M,33.2,M,,*43
$GPGSA,A,3,08,02,25,10,04,13,23,28,,,,,1.28,0.94,0.87*0A
$GPGSV,3,1,11,07,65,026,,08,65,265,25,13,47,075,20,39,47,185,*72
$GPGSV,3,2,11,25,44,044,16,10,32,313,30,28,27,179,19,02,17,257,18*7F
$GPGSV,3,3,11,23,14,099,27,04,14,225,17,03,04,063,26*4C
$GPRMC,062358.000,A,3624.1673,N,02805.3649,E,0.34,1.71,140809,,,A*67
$GPGGA,062359.000,3624.1672,N,02805.3648,E,1,8,0.94,-10.9,M,33.2,M,,*42
$GPGSA,A,3,08,02,25,10,04,13,23,28,,,,,1.28,0.94,0.87*0A
$GPGSV,3,1,11,07,65,026,,08,65,265,26,13,47,075,20,39,47,185,*71
$GPGSV,3,2,11,25,44,044,15,10,32,313,29,28,27,179,19,02,17,257,18*74
$GPGSV,3,3,11,23,14,099,27,04,14,225,17,03,04,063,25*4F
$GPRMC,062359.000,A,3624.1672,N,02805.3648,E,0.30,1.71,140809,,,A*62
$GPGGA,062400.000,3624.1672,N,02805.3647,E,1,7,1.02,-10.9,M,33.2,M,,*47
$GPGSA,A,3,08,02,10,04,13,23,28,,,,,,1.34,1.02,0.87*0E
$GPGSV,3,1,11,07,65,026,,08,65,265,27,13,47,075,19,39,47,185,*7A
$GPGSV,3,2,11,25,44,044,,10,32,313,29,28,27,179,20,02,17,257,18*7A
$GPGSV,3,3,11,23,14,099,27,04,13,224,17,03,04,063,25*49
$GPRMC,062400.000,A,3624.1672,N,02805.3647,E,0.23,1.71,140809,,,A*64
$GPGGA,062401.000,3624.1673,N,02805.3647,E,1,8,0.94,-10.9,M,33.2,M,,*46
$GPGSA,A,3,08,02,25,10,04,13,23,28,,,,,1.28,0.94,0.87*0A
$GPGSV,3,1,11,07,65,026,,08,65,265,26,13,47,075,20,39,47,185,*71
$GPGSV,3,2,11,25,44,044,16,10,32,313,30,28,27,179,22,02,17,257,17*78
$GPGSV,3,3,11,23,14,099,27,04,13,224,17,03,04,063,25*49
$GPRMC,062401.000,A,3624.1673,N,02805.3647,E,0.36,1.71,140809,,,A*60
$GPGGA,062402.000,3624.1674,N,02805.3646,E,1,7,1.11,-10.9,M,33.2,M,,*40
$GPGSA,A,3,08,02,25,10,13,23,28,,,,,,1.42,1.11,0.88*01
$GPGSV,3,1,11,07,65,026,,08,65,265,25,13,47,075,21,39,47,185,*73
$GPGSV,3,2,11,25,44,044,17,10,32,313,30,28,27,179,23,02,17,257,18*77
$GPGSV,3,3,11,23,14,099,26,04,13,224,,03,04,063,25*4E
$GPRMC,062402.000,A,3624.1674,N,02805.3646,E,0.36,1.71,140809,,,A*65
$GPGGA,062403.000,3624.1674,N,02805.3646,E,1,7,1.01,-11.0,M,33.2,M,,*48
$GPGSA,A,3,08,02,25,10,13,23,28,,,,,,1.34,1.01,0.88*01
$GPGSV,3,1,11,07,65,026,,08,65,265,17,13,47,075,22,39,47,185,*71
$GPGSV,3,2,11,25,44,044,17,10,32,313,30,28,27,179,24,02,17,257,18*70
$GPGSV,3,3,11,23,14,099,26,04,13,224,17,03,04,063,25*48
$GPRMC,062403.000,A,3624.1674,N,02805.3646,E,0.16,1.71,140809,,,A*66
$GPGGA,062404.000,3624.1675,N,02805.3646,E,1,7,1.14,-11.0,M,33.2,M,,*4A
$GPGSA,A,3,08,02,25,10,13,23,28,,,,,,2.16,1.14,1.84*0B
$GPGSV,3,1,11,07,65,026,,08,65,265,18,13,47,075,21,39,47,185,*7D
$GPGSV,3,2,11,25,44,044,12,10,32,313,31,28,27,179,24,02,17,257,18*74
$GPGSV,3,3,11,23,14,099,27,04,13,224,,03,04,063,25*4F
$GPRMC,062404.000,A,3624.1675,N,02805.3646,E,0.23,1.71,140809,,,A*66
$GPGGA,062405.000,3624.1674,N,02805.3646,E,1,6,1.11,-11.0,M,33.2,M,,*4E
$GPGSA,A,3,08,02,10,13,23,28,,,,,,,1.42,1.11,0.88*06
$GPGSV,3,1,11,07,65,026,,08,65,265,27,13,47,075,20,39,47,185,*70
$GPGSV,3,2,11,25,44,044,,10,32,313,31,28,27,179,17,02,17,257,20*7C
$GPGSV,3,3,11,23,14,099,27,04,13,224,,03,04,063,25*4F
$GPRMC,062405.000,A,3624.1674,N,02805.3646,E,0.51,1.71,140809,,,A*63
$GPGGA,062406.000,3624.1673,N,02805.3647,E,1,8,0.99,-11.0,M,33.2,M,,*44
$GPGSA,A,3,07,08,02,25,10,13,23,28,,,,,1.31,0.99,0.85*0E
$GPGSV,3,1,11,07,65,026,22,08,65,265,26,13,47,075,21,39,47,185,*70
$GPGSV,3,2,11,25,44,044,17,10,32,313,30,28,27,179,19,02,17,257,21*74
$GPGSV,3,3,11,23,14,099,26,04,13,224,,03,04,063,24*4F
$GPRMC,062406.000,A,3624.1673,N,02805.3647,E,0.51,1.71,140809,,,A*66
$GPGGA,062407.000,3624.1673,N,02805.3649,E,1,8,0.99,-11.0,M,33.2,M,,*4B
$GPGSA,A,3,07,08,02,25,10,13,23,28,,,,,1.31,0.99,0.85*0E
$GPGSV,3,1,11,07,65,026,17,08,65,265,19,13,47,075,28,25,44,044,21*72
$GPGSV,3,2,11,10,32,313,29,44,32,127,,28,27,179,19,02,17,257,20*79
$GPGSV,3,3,11,23,14,099,25,04,13,224,,03,04,063,23*4B
$GPRMC,062407.000,A,3624.1673,N,02805.3649,E,0.52,1.71,140809,,,A*6A
$GPGGA,062408.000,3624.1672,N,02805.3650,E,1,9,0.93,-11.0,M,33.2,M,,*46
$GPGSA,A,3,07,08,02,25,10,04,13,23,28,,,,1.26,0.93,0.85*06
$GPGSV,3,1,11,07,65,026,20,08,65,265,20,13,47,075,26,25,44,044,26*75
$GPGSV,3,2,11,10,32,313,28,44,32,127,,28,27,179,20,02,17,257,19*78
$GPGSV,3,3,11,23,14,099,17,04,13,224,18,03,04,063,23*43
$GPRMC,062408.000,A,3624.1672,N,02805.3650,E,0.51,1.71,140809,,,A*6F
$GPGGA,062409.000,3624.1672,N,02805.3652,E,1,9,0.93,-11.0,M,33.2,M,,*45
$GPGSA,A,3,07,08,02,25,10,04,13,23,28,,,,1.26,0.93,0.85*06
$GPGSV,3,1,11,07,65,026,26,08,65,265,30,13,47,075,25,25,44,044,32*74
$GPGSV,3,2,11,10,32,313,29,44,32,127,,28,27,179,21,02,17,257,19*78
$GPGSV,3,3,11,23,14,099,17,04,13,224,15,03,04,063,23*4E
$GPRMC,062409.000,A,3624.1672,N,02805.3652,E,0.77,91.20,140809,,,A*55
$GPGGA,062410.000,3624.1675,N,02805.3659,E,1,9,0.93,-10.9,M,33.2,M,,*49
$GPGSA,A,3,07,08,02,25,10,04,13,23,28,,,,1.26,0.93,0.85*06
$GPGSV,3,1,11,07,65,026,30,08,65,265,29,13,47,075,15,25,44,044,32*78
$GPGSV,3,2,11,10,32,313,29,44,32,127,,28,27,179,21,02,17,257,20*72
$GPGSV,3,3,11,23,14,099,17,04,13,224,17,03,04,063,21*4E
$GPRMC,062410.000,A,3624.1675,N,02805.3659,E,1.24,77.01,140809,,,A*5D
$GPGGA,062411.000,3624.1681,N,02805.3668,E,1,9,0.93,-10.7,M,33.2,M,,*4F
$GPGSA,A,3,07,08,02,25,10,04,13,23,28,,,,1.26,0.93,0.85*06
$GPGSV,3,1,11,07,65,026,28,08,65,265,29,13,47,075,17,25,44,044,31*70
$GPGSV,3,2,11,10,32,313,29,44,32,127,,28,27,179,21,02,17,257,20*72
$GPGSV,3,3,11,23,14,099,17,04,13,224,18,03,04,063,14*47
$GPRMC,062411.000,A,3624.1681,N,02805.3668,E,1.69,75.68,140809,,,A*51
$GPGGA,062412.000,3624.1688,N,02805.3673,E,1,9,0.93,-10.3,M,33.2,M,,*4B
$GPGSA,A,3,07,08,02,25,10,04,13,23,28,,,,1.26,0.93,0.85*06
$GPGSV,3,1,11,07,65,026,27,08,65,265,29,13,47,075,17,25,44,044,31*7F
$GPGSV,3,2,11,10,32,313,29,44,32,127,,28,27,179,28,02,17,257,21*7A
$GPGSV,3,3,11,23,14,099,19,04,13,224,18,03,04,063,14*49
$GPRMC,062412.000,A,3624.1688,N,02805.3673,E,2.24,63.76,140809,,,A*53
$GPGGA,062413.000,3624.1689,N,02805.3687,E,1,9,0.93,-10.3,M,33.2,M,,*40
$GPGSA,A,3,07,08,02,25,10,04,13,23,28,,,,1.26,0.93,0.85*06
