$GPGGA,164443.000,3622.6929,N,02814.1373,E,1,7,1.29,6.7,M,33.1,M,,*59
$GPGSA,A,3,31,24,29,30,21,12,10,,,,,,1.56,1.29,0.89*06
$GPGSV,3,1,11,24,80,094,31,29,66,359,34,30,61,130,23,21,52,212,34*7C
$GPGSV,3,2,11,31,38,283,31,44,32,127,,12,31,128,26,10,24,071,23*71
$GPGSV,3,3,11,02,05,044,,16,05,312,,18,02,177,*46
$GPRMC,164443.000,A,3622.6929,N,02814.1373,E,0.25,57.38,110809,,,A*59
$GPGGA,164444.000,3622.6929,N,02814.1372,E,1,8,1.21,6.7,M,33.1,M,,*58
$GPGSA,A,3,31,24,29,30,21,12,10,02,,,,,1.98,1.21,1.56*0D
$GPGSV,3,1,11,24,80,094,31,29,66,359,34,30,61,130,22,21,52,212,33*7A
$GPGSV,3,2,11,31,38,283,31,44,32,127,,12,31,128,26,10,24,071,21*73
$GPGSV,3,3,11,02,05,044,19,16,05,312,,18,02,177,*4E
$GPRMC,164444.000,A,3622.6929,N,02814.1372,E,0.34,57.38,110809,,,A*5F
$GPGGA,164445.000,3622.6929,N,02814.1371,E,1,8,1.21,6.7,M,33.1,M,,*5A
$GPGSA,A,3,31,24,29,30,21,12,10,02,,,,,1.98,1.21,1.57*0C
$GPGSV,3,1,11,24,80,094,31,29,66,359,34,30,61,130,20,21,52,212,32*79
$GPGSV,3,2,11,31,38,283,32,44,32,127,,12,31,128,17,10,24,071,20*73
$GPGSV,3,3,11,02,05,044,19,16,05,312,,18,02,177,*4E
$GPRMC,164445.000,A,3622.6929,N,02814.1371,E,0.76,57.38,110809,,,A*5B
$GPGGA,164446.000,3622.6928,N,02814.1362,E,1,8,1.12,6.5,M,33.1,M,,*58
$GPGSA,A,3,31,24,29,30,21,12,10,02,,,,,1.40,1.12,0.84*06
$GPGSV,3,1,11,24,80,094,30,29,66,359,35,30,61,130,19,21,52,212,31*70
$GPGSV,3,2,11,31,38,283,33,44,32,127,,12,31,128,18,10,24,071,20*7D
$GPGSV,3,3,11,02,05,044,21,16,05,312,,18,02,177,*45
$GPRMC,164446.000,A,3622.6928,N,02814.1362,E,0.12,57.38,110809,,,A*59
$GPGGA,164447.000,3622.6928,N,02814.1359,E,1,8,1.12,6.5,M,33.1,M,,*51
$GPGSA,A,3,31,24,29,30,21,12,10,02,,,,,1.40,1.12,0.84*06
$GPGSV,3,1,11,24,80,094,30,29,66,359,35,30,61,130,18,21,52,212,30*70
$GPGSV,3,2,11,31,38,283,33,44,32,127,,12,31,128,19,10,24,071,21*7D
$GPGSV,3,3,11,02,05,044,20,16,05,312,,18,02,177,*44
$GPRMC,164447.000,A,3622.6928,N,02814.1359,E,0.11,57.38,110809,,,A*53
$GPGGA,164448.000,3622.6927,N,02814.1353,E,1,8,1.12,6.3,M,33.1,M,,*5D
$GPGSA,A,3,31,24,29,30,21,12,10,02,,,,,1.40,1.12,0.84*06
$GPGSV,3,1,11,24,80,094,30,29,66,359,36,30,61,130,18,21,52,212,30*73
$GPGSV,3,2,11,31,38,283,34,44,32,127,,12,30,128,20,10,24,071,21*71
$GPGSV,3,3,11,02,05,044,20,16,05,312,,18,02,177,*44
$GPRMC,164448.000,A,3622.6927,N,02814.1353,E,0.14,57.38,110809,,,A*5C
$GPGGA,164449.000,3622.6926,N,02814.1348,E,1,8,1.12,6.3,M,33.1,M,,*57
$GPGSA,A,3,31,24,29,30,21,12,10,02,,,,,1.40,1.12,0.84*06
$GPGSV,3,1,11,24,80,094,30,29,66,359,36,30,61,130,18,21,52,212,30*73
$GPGSV,3,2,11,31,38,283,34,44,32,127,,12,30,128,20,10,24,071,21*71
$GPGSV,3,3,11,02,05,044,20,16,05,312,,18,02,177,*44
$GPRMC,164449.000,A,3622.6926,N,02814.1348,E,0.30,57.38,110809,,,A*50
$GPGGA,164450.000,3622.6926,N,02814.1348,E,1,8,1.12,6.2,M,33.1,M,,*5E
$GPGSA,A,3,31,24,29,30,21,12,10,02,,,,,1.40,1.12,0.84*06
$GPGSV,3,1,11,24,80,094,30,29,66,359,36,30,61,130,18,21,52,212,29*7B
$GPGSV,3,2,11,31,38,283,34,12,30,128,20,10,24,071,21,02,05,044,20*71
$GPGSV,3,3,11,16,05,312,,18,02,177,,34,,,*76
$GPRMC,164450.000,A,3622.6926,N,02814.1348,E,0.38,57.38,110809,,,A*50
$GPGGA,164451.000,3622.6925,N,02814.1348,E,1,8,1.21,6.2,M,33.1,M,,*5C
$GPGSA,A,3,31,24,29,30,21,12,10,02,,,,,1.98,1.21,1.56*0D
$GPGSV,3,1,11,24,80,094,30,29,66,359,36,30,61,130,17,21,52,212,28*75
$GPGSV,3,2,11,31,38,283,34,12,30,128,20,10,24,071,20,02,05,044,21*71
$GPGSV,3,3,11,16,05,312,,18,02,177,,34,,,*76
$GPRMC,164451.000,A,3622.6925,N,02814.1348,E,0.35,57.38,110809,,,A*5F
$GPGGA,164452.000,3622.6924,N,02814.1348,E,1,7,1.16,6.2,M,33.1,M,,*55
$GPGSA,A,3,31,24,29,21,12,10,02,,,,,,1.44,1.16,0.85*04
$GPGSV,3,1,11,24,80,094,29,29,66,359,36,30,61,130,16,21,52,212,28*7C
$GPGSV,3,2,11,31,38,283,34,12,30,128,20,10,24,071,20,02,05,044,21*71
$GPGSV,3,3,11,16,05,312,,18,02,177,,34,,,*76
$GPRMC,164452.000,A,3622.6924,N,02814.1348,E,0.38,57.38,110809,,,A*50
$GPGGA,164453.000,3622.6923,N,02814.1349,E,1,7,1.25,6.2,M,33.1,M,,*52
$GPGSA,A,3,31,24,29,21,12,10,02,,,,,,2.06,1.25,1.65*0E
$GPGSV,3,1,11,24,80,094,29,29,66,359,36,30,61,130,15,21,52,212,28*7F
$GPGSV,3,2,11,31,38,283,34,12,30,128,19,10,24,071,21,02,05,044,21*7A
$GPGSV,3,3,11,16,05,312,,18,02,177,,34,,,*76
$GPRMC,164453.000,A,3622.6923,N,02814.1349,E,0.38,57.38,110809,,,A*57
$GPGGA,164454.000,3622.6922,N,02814.1349,E,1,8,1.21,6.2,M,33.1,M,,*5F
$GPGSA,A,3,31,24,29,30,21,12,10,02,,,,,1.98,1.21,1.56*0D
$GPGSV,3,1,11,24,80,094,29,29,66,359,36,30,61,130,15,21,52,212,28*7F
$GPGSV,3,2,11,31,38,283,34,12,30,128,18,10,24,071,20,02,05,044,21*7A
$GPGSV,3,3,11,16,05,312,,18,02,177,,34,,,*76
$GPRMC,164454.000,A,3622.6922,N,02814.1349,E,0.33,57.38,110809,,,A*5A
$GPGGA,164455.000,3622.6921,N,02814.1349,E,1,8,1.21,6.2,M,33.1,M,,*5D
$GPGSA,A,3,31,24,29,30,21,12,10,02,,,,,1.98,1.21,1.56*0D
$GPGSV,3,1,11,24,80,094,29,29,66,359,36,30,61,130,15,21,52,212,28*7F
$GPGSV,3,2,11,31,38,283,32,12,30,128,18,10,24,071,20,02,05,044,22*7F
$GPGSV,3,3,11,16,05,312,,18,02,177,,34,,,*76
$GPRMC,164455.000,A,3622.6921,N,02814.1349,E,0.26,57.38,110809,,,A*5C
$GPGGA,164456.000,3622.6920,N,02814.1349,E,1,8,1.21,6.2,M,33.1,M,,*5F
$GPGSA,A,3,31,24,29,30,21,12,10,02,,,,,1.98,1.21,1.56*0D
$GPGSV,3,1,11,24,80,094,30,29,66,359,36,30,61,130,16,21,52,212,28*74
$GPGSV,3,2,11,31,38,283,33,12,30,128,19,10,24,071,32,02,05,044,30*7F
$GPGSV,3,3,11,16,05,312,,18,02,177,,36,,,*74
$GPRMC,164456.000,A,3622.6920,N,02814.1349,E,0.09,57.38,110809,,,A*53
$GPGGA,164457.000,3622.6920,N,02814.1350,E,1,8,1.21,6.2,M,33.1,M,,*56
$GPGSA,A,3,31,24,29,30,21,12,10,02,,,,,1.98,1.21,1.56*0D
$GPGSV,3,1,11,24,80,094,30,29,66,359,36,30,61,130,18,21,52,212,26*74
$GPGSV,3,2,11,31,38,283,32,12,30,128,19,10,24,071,33,02,05,044,29*77
$GPGSV,3,3,11,16,05,312,,18,02,177,,36,,,*74
$GPRMC,164457.000,A,3622.6920,N,02814.1350,E,0.13,57.38,110809,,,A*51
$GPGGA,164458.000,3622.6921,N,02814.1350,E,1,8,1.21,6.2,M,33.1,M,,*58
$GPGSA,A,3,31,24,29,30,21,12,10,02,,,,,1.98,1.21,1.56*0D
$GPGSV,3,1,11,24,80,094,31,29,66,359,35,30,61,130,26,21,52,212,25*78
$GPGSV,3,2,11,31,38,283,31,12,30,128,26,10,24,071,35,02,05,044,28*7F
$GPGSV,3,3,11,16,05,312,,18,02,177,,36,,,*74
$GPRMC,164458.000,A,3622.6921,N,02814.1350,E,0.37,57.38,110809,,,A*59
$GPGGA,164459.000,3622.6922,N,02814.1350,E,1,8,1.21,6.1,M,33.1,M,,*59
$GPGSA,A,3,31,24,29,30,21,12,10,02,,,,,1.98,1.21,1.56*0D
$GPGSV,3,1,11,24,80,094,31,29,66,359,34,30,61,130,27,21,52,212,24*79
$GPGSV,3,2,11,31,38,283,30,12,30,128,27,10,24,071,35,02,05,044,27*70
$GPGSV,3,3,11,16,05,312,,18,02,177,,36,,,*74
$GPRMC,164459.000,A,3622.6922,N,02814.1350,E,0.51,57.38,110809,,,A*5B
$GPGGA,164500.000,3622.6923,N,02814.1351,E,1,8,1.21,6.1,M,33.1,M,,*54
$GPGSA,A,3,31,24,29,30,21,12,10,02,,,,,1.98,1.21,1.56*0D
$GPGSV,3,1,11,24,80,093,32,29,66,359,35,30,61,130,29,21,52,212,22*74
$GPGSV,3,2,11,31,38,283,29,12,30,128,28,10,24,071,36,02,05,044,26*75
$GPGSV,3,3,11,16,05,312,,18,02,177,,36,,,*74
$GPRMC,164500.000,A,3622.6923,N,02814.1351,E,0.82,57.38,110809,,,A*58
$GPGGA,164501.000,3622.6934,N,02814.1347,E,1,8,1.21,6.1,M,33.1,M,,*54
$GPGSA,A,3,31,24,29,30,21,12,10,02,,,,,1.98,1.21,1.56*0D
$GPGSV,3,1,11,24,80,093,31,29,66,359,33,30,61,130,30,21,52,212,22*79
$GPGSV,3,2,11,31,38,283,29,12,30,128,28,10,24,071,37,02,05,044,27*75
$GPGSV,3,3,11,16,05,312,,18,02,177,,36,,,*74
$GPRMC,164501.000,A,3622.6934,N,02814.1347,E,0.83,57.38,110809,,,A*59
$GPGGA,164502.000,3622.6938,N,02814.1342,E,1,8,1.21,6.4,M,33.1,M,,*5B
$GPGSA,A,3,31,24,29,30,21,12,10,02,,,,,1.98,1.21,1.56*0D
$GPGSV,3,1,11,24,80,093,32,29,66,359,34,30,61,130,30,21,52,212,22*7D
$GPGSV,3,2,11,31,38,283,30,12,30,128,27,10,24,071,37,02,05,044,28*7D
$GPGSV,3,3,11,16,05,312,,18,02,177,,36,,,*74
$GPRMC,164502.000,A,3622.6938,N,02814.1342,E,0.85,57.38,110809,,,A*55
$GPGGA,164503.000,3622.6940,N,02814.1342,E,1,8,1.21,6.5,M,33.1,M,,*54
$GPGSA,A,3,31,24,29,30,21,12,10,02,,,,,1.98,1.21,1.56*0D
$GPGSV,3,1,11,24,80,093,31,29,66,359,33,30,61,130,29,21,52,212,21*72
$GPGSV,3,2,11,31,38,283,30,12,30,128,28,10,24,071,37,02,05,044,27*7D
$GPGSV,3,3,11,16,05,312,,18,02,177,,38,,,*7A
$GPRMC,164503.000,A,3622.6940,N,02814.1342,E,0.89,17.36,110809,,,A*5D
$GPGGA,164504.000,3622.6944,N,02814.1343,E,1,8,1.21,6.6,M,33.1,M,,*55
$GPGSA,A,3,31,24,29,30,21,12,10,02,,,,,1.97,1.21,1.56*02
$GPGSV,3,1,11,24,80,093,31,29,66,359,33,30,61,130,29,21,52,212,21*72
$GPGSV,3,2,11,31,38,283,30,12,30,128,28,10,24,071,37,02,05,044,27*7D
$GPGSV,3,3,11,16,05,312,,18,02,177,,38,,,*7A
$GPRMC,164504.000,A,3622.6944,N,02814.1343,E,1.29,23.52,110809,,,A*51
$GPGGA,164505.000,3622.6954,N,02814.1343,E,1,8,1.12,6.6,M,33.1,M,,*55
$GPGSA,A,3,31,24,29,30,21,12,10,02,,,,,1.40,1.12,0.84*06
$GPGSV,3,1,11,24,80,093,32,29,66,000,33,30,61,130,29,21,52,212,20*7F
$GPGSV,3,2,11,31,38,283,30,12,30,128,28,10,24,071,37,02,05,044,27*7D
$GPGSV,3,3,11,16,05,312,,18,02,177,,38,,,*7A
$GPRMC,164505.000,A,3622.6954,N,02814.1343,E,1.35,26.15,110809,,,A*5A
$GPGGA,164506.000,3622.6958,N,02814.1348,E,1,8,1.12,6.7,M,33.1,M,,*50
$GPGSA,A,3,31,24,29,30,21,12,10,02,,,,,1.40,1.12,0.84*06
$GPGSV,3,1,11,24,80,093,32,29,66,000,32,30,61,130,31,21,52,212,20*77
$GPGSV,3,2,11,31,38,283,30,12,30,128,29,10,24,071,38,02,05,044,28*7C
$GPGSV,3,3,11,16,05,312,,18,02,177,,38,,,*7A
$GPRMC,164506.000,A,3622.6958,N,02814.1348,E,1.29,26.95,110809,,,A*5B
$GPGGA,164507.000,3622.6968,N,02814.1351,E,1,8,1.12,6.4,M,33.1,M,,*59
$GPGSA,A,3,31,24,29,30,21,12,10,02,,,,,1.40,1.12,0.84*06
$GPGSV,3,1,11,24,80,093,32,29,66,000,33,30,61,130,31,21,52,212,19*7C
$GPGSV,3,2,11,31,38,282,29,12,30,128,29,10,24,071,38,02,05,044,29*74
$GPGSV,3,3,11,16,05,312,,18,02,177,,38,,,*7A
$GPRMC,164507.000,A,3622.6968,N,02814.1351,E,1.53,25.88,110809,,,A*53
$GPGGA,164508.000,3622.6974,N,02814.1354,E,1,8,1.12,6.5,M,33.1,M,,*5F
$GPGSA,A,3,31,24,29,30,21,12,10,02,,,,,1.40,1.12,0.84*06
$GPGSV,3,1,11,24,80,093,32,29,66,000,34,30,61,130,31,21,52,212,19*7B
$GPGSV,3,2,11,31,38,282,28,12,30,128,29,10,24,071,39,02,05,044,30*7C
$GPGSV,3,3,11,16,05,312,,18,02,177,,38,,,*7A
$GPRMC,164508.000,A,3622.6974,N,02814.1354,E,1.48,25.15,110809,,,A*5A
$GPGGA,164509.000,3622.6974,N,02814.1359,E,1,8,1.12,6.0,M,33.1,M,,*56
$GPGSA,A,3,31,24,29,30,21,12,10,02,,,,,1.40,1.12,0.84*06
$GPGSV,3,1,11,24,80,093,33,29,66,000,32,30,61,130,33,21,52,212,19*7E
$GPGSV,3,2,11,31,38,282,28,12,30,128,37,10,24,071,40,02,05,044,30*7D
$GPGSV,3,3,11,16,05,312,,18,02,177,,40,,,*75
$GPRMC,164509.000,A,3622.6974,N,02814.1359,E,0.94,28.44,110809,,,A*5F
$GPGGA,164510.000,3622.6972,N,02814.1362,E,1,8,1.12,5.7,M,33.1,M,,*54
$GPGSA,A,3,31,24,29,30,21,12,10,02,,,,,1.40,1.12,0.84*06
$GPGSV,3,1,11,24,80,093,34,29,66,000,30,30,61,130,35,21,52,212,21*76
$GPGSV,3,2,11,31,38,282,21,12,30,128,38,10,24,071,31,16,05,312,*7B
$GPGSV,3,3,11,02,04,044,29,18,02,177,,40,,,*7A
$GPRMC,164510.000,A,3622.6972,N,02814.1362,E,1.12,27.97,110809,,,A*57
$GPGGA,164511.000,3622.6970,N,02814.1367,E,1,6,1.56,5.7,M,33.1,M,,*5C
$GPGSA,A,3,31,24,29,30,12,10,,,,,,,2.52,1.56,1.98*0B
$GPGSV,3,1,11,24,80,093,34,29,66,000,31,30,61,130,37,21,52,212,20*74
$GPGSV,3,2,11,31,38,282,22,12,30,128,38,10,24,071,32,16,05,312,*7B
$GPGSV,3,3,11,02,04,044,28,18,02,177,,40,,,*7B
$GPRMC,164511.000,A,3622.6970,N,02814.1367,E,0.94,30.80,110809,,,A*5E
$GPGGA,164512.000,3622.6970,N,02814.1369,E,1,7,1.28,5.3,M,33.1,M,,*5D
$GPGSA,A,3,31,24,29,30,21,12,10,,,,,,1.56,1.28,0.89*07
$GPGSV,3,1,11,24,80,093,35,29,66,000,31,30,61,130,37,21,52,212,20*75
$GPGSV,3,2,11,31,38,282,23,12,30,128,39,10,24,071,32,16,05,312,*7B
$GPGSV,3,3,11,02,04,044,28,18,02,177,22,40,,,*7B
$GPRMC,164512.000,A,3622.6970,N,02814.1369,E,0.19,33.93,110809,,,A*57
$GPGGA,164513.000,3622.6968,N,02814.1369,E,1,7,1.28,5.4,M,33.1,M,,*52
$GPGSA,A,3,31,24,29,30,21,12,10,,,,,,1.56,1.28,0.89*07
$GPGSV,3,1,11,24,80,093,36,29,66,000,29,30,61,130,37,21,52,212,29*76
$GPGSV,3,2,11,31,38,282,22,12,30,128,40,10,24,071,31,16,05,312,*77
$GPGSV,3,3,11,02,04,044,26,18,02,177,25,40,,,*72
$GPRMC,164513.000,A,3622.6968,N,02814.1369,E,0.18,33.09,110809,,,A*5D
$GPGGA,164514.000,3622.6969,N,02814.1369,E,1,7,1.30,5.4,M,33.1,M,,*5D
$GPGSA,A,3,31,24,29,30,21,12,10,,,,,,2.37,1.30,1.98*0B
$GPGSV,3,1,11,24,80,093,36,29,66,000,29,30,61,130,36,21,52,212,30*7F
$GPGSV,3,2,11,31,38,282,22,12,30,128,40,10,24,071,32,16,05,312,*74
$GPGSV,3,3,11,02,04,044,25,18,02,177,16,40,,,*71
$GPRMC,164514.000,A,3622.6969,N,02814.1369,E,0.12,34.11,110809,,,A*5F
$GPGGA,164515.000,3622.6967,N,02814.1370,E,1,7,1.30,5.0,M,33.1,M,,*5E
$GPGSA,A,3,31,24,29,30,21,12,10,,,,,,2.37,1.30,1.98*0B
$GPGSV,3,1,11,24,80,093,36,29,66,000,30,30,61,130,35,21,52,212,30*74
$GPGSV,3,2,11,31,38,282,22,12,30,128,39,10,24,071,32,16,05,312,*7A
$GPGSV,3,3,11,02,04,044,25,18,02,177,19,40,,,*7E
$GPRMC,164515.000,A,3622.6967,N,02814.1370,E,0.09,31.91,110809,,,A*5F
$GPGGA,164516.000,3622.6967,N,02814.1370,E,1,7,1.30,5.0,M,33.1,M,,*5D
$GPGSA,A,3,31,24,29,30,21,12,10,,,,,,2.37,1.30,1.98*0B
$GPGSV,3,1,11,24,80,093,36,29,66,000,29,30,61,130,34,21,52,212,30*7D
$GPGSV,3,2,11,31,38,282,22,12,30,128,38,10,24,071,31,16,05,312,*78
$GPGSV,3,3,11,02,04,044,25,18,02,177,16,41,,,*70
$GPRMC,164516.000,A,3622.6967,N,02814.1370,E,0.08,29.12,110809,,,A*5F
$GPGGA,164517.000,3622.6967,N,02814.1369,E,1,7,1.30,5.0,M,33.1,M,,*54
$GPGSA,A,3,31,24,29,30,21,12,10,,,,,,2.36,1.30,1.97*05
$GPGSV,3,1,11,24,80,093,34,29,66,000,29,30,61,130,33,21,52,212,29*70
$GPGSV,3,2,11,31,38,282,20,12,30,128,39,10,24,071,31,16,05,312,*7B
$GPGSV,3,3,11,02,04,044,24,18,02,177,19,41,,,*7E
$GPRMC,164517.000,A,3622.6967,N,02814.1369,E,0.05,29.12,110809,,,A*5B
$GPGGA,164518.000,3622.6967,N,02814.1369,E,1,7,1.30,5.0,M,33.1,M,,*5B
$GPGSA,A,3,31,24,29,30,21,12,10,,,,,,2.37,1.30,1.97*04
$GPGSV,3,1,11,24,80,093,33,29,66,000,31,30,61,130,32,21,52,212,19*7C
$GPGSV,3,2,11,31,38,282,21,12,30,128,37,10,24,071,39,16,05,312,*7C
$GPGSV,3,3,11,02,04,044,31,18,02,177,16,41,,,*75
$GPRMC,164518.000,A,3622.6967,N,02814.1369,E,0.50,29.12,110809,,,A*54
$GPGGA,164519.000,3622.6968,N,02814.1370,E,1,7,1.30,5.0,M,33.1,M,,*5D
$GPGSA,A,3,31,24,29,30,21,12,10,,,,,,2.37,1.30,1.98*0B
$GPGSV,3,1,11,24,80,093,33,29,66,000,32,30,61,130,32,21,52,212,19*7F
$GPGSV,3,2,11,31,38,282,29,12,30,128,36,10,24,071,39,16,05,312,*75
$GPGSV,3,3,11,02,04,044,31,18,02,177,16,41,,,*75
$GPRMC,164519.000,A,3622.6968,N,02814.1370,E,0.72,29.12,110809,,,A*52
$GPGGA,164520.000,3622.6977,N,02814.1376,E,1,7,1.30,5.6,M,33.1,M,,*59
$GPGSA,A,3,31,24,29,30,21,12,10,,,,,,2.37,1.30,1.98*0B
$GPGSV,3,1,11,24,80,093,34,29,66,000,33,30,61,130,25,21,52,212,20*75
$GPGSV,3,2,11,31,38,282,29,12,30,129,35,10,24,071,39,16,05,312,*77
$GPGSV,3,3,11,02,04,044,30,18,02,177,16,41,,,*74
$GPRMC,164520.000,A,3622.6977,N,02814.1376,E,1.32,45.72,110809,,,A*59
$GPGGA,164521.000,3622.6986,N,02814.1377,E,1,7,1.28,6.0,M,33.1,M,,*5B
$GPGSA,A,3,31,24,29,30,21,12,10,,,,,,1.56,1.28,0.89*07
$GPGSV,3,1,11,24,80,093,33,29,66,000,34,30,61,130,26,21,52,212,20*76
$GPGSV,3,2,11,31,38,282,29,12,30,129,34,10,24,071,39,16,05,312,*76
$GPGSV,3,3,11,02,04,044,30,18,02,177,15,41,,,*77
$GPRMC,164521.000,A,3622.6986,N,02814.1377,E,2.18,2.69,110809,,,A*65
$GPGGA,164522.000,3622.6994,N,02814.1390,E,1,7,1.30,7.0,M,33.1,M,,*5A
$GPGSA,A,3,31,24,29,30,21,12,10,,,,,,2.37,1.30,1.97*04
$GPGSV,3,1,11,24,80,093,32,29,66,000,34,30,61,130,26,21,52,212,21*76
$GPGSV,3,2,11,31,38,282,31,12,30,129,33,10,24,071,39,16,05,312,*78
$GPGSV,3,3,11,02,04,044,30,18,02,177,15,41,,,*77
$GPRMC,164522.000,A,3622.6994,N,02814.1390,E,2.24,15.34,110809,,,A*5D
$GPGGA,164523.000,3622.7000,N,02814.1395,E,1,7,1.28,7.2,M,33.1,M,,*50
$GPGSA,A,3,31,24,29,30,21,12,10,,,,,,1.56,1.28,0.89*07
$GPGSV,3,1,11,24,80,093,31,29,66,000,34,30,61,130,26,21,52,212,22*76
$GPGSV,3,2,11,31,38,282,31,12,30,129,33,10,24,071,39,16,05,312,*78
$GPGSV,3,3,11,02,04,044,31,18,02,177,15,43,,,*74
$GPRMC,164523.000,A,3622.7000,N,02814.1395,E,1.82,27.94,110809,,,A*58
$GPGGA,164524.000,3622.7010,N,02814.1399,E,1,7,1.28,7.5,M,33.1,M,,*5D
$GPGSA,A,3,31,24,29,30,21,12,10,,,,,,1.56,1.28,0.89*07
$GPGSV,3,1,11,24,80,093,32,29,66,000,34,30,61,130,26,21,52,212,22*75
$GPGSV,3,2,11,31,38,282,30,12,30,129,32,10,24,071,39,16,05,312,*78
$GPGSV,3,3,11,02,04,044,32,18,02,177,15,43,,,*77
$GPRMC,164524.000,A,3622.7010,N,02814.1399,E,2.69,7.78,110809,,,A*64
$GPGGA,164525.000,3622.7021,N,02814.1403,E,1,7,1.30,7.6,M,33.1,M,,*50
$GPGSA,A,3,31,24,29,30,21,12,10,,,,,,2.37,1.30,1.97*04
$GPGSV,3,1,11,24,80,093,33,29,66,000,34,30,61,130,27,21,52,212,22*75
$GPGSV,3,2,11,31,38,282,23,12,30,129,32,10,24,071,39,16,05,312,*7A
$GPGSV,3,3,11,02,04,044,33,18,02,177,15,43,,,*76
$GPRMC,164525.000,A,3622.7021,N,02814.1403,E,2.73,7.86,110809,,,A*69
$GPGGA,164526.000,3622.7032,N,02814.1406,E,1,7,1.30,7.7,M,33.1,M,,*55
$GPGSA,A,3,31,24,29,30,21,12,10,,,,,,2.37,1.30,1.97*04
$GPGSV,3,1,11,24,80,093,33,29,66,000,33,30,61,130,26,21,52,212,23*72
$GPGSV,3,2,11,31,38,282,24,12,30,129,32,10,24,071,39,16,05,312,*7D
$GPGSV,3,3,11,02,04,044,34,18,02,177,15,43,,,*71
$GPRMC,164526.000,A,3622.7032,N,02814.1406,E,2.57,6.93,110809,,,A*6E
$GPGGA,164527.000,3622.7038,N,02814.1406,E,1,7,1.30,7.7,M,33.1,M,,*5E
$GPGSA,A,3,31,24,29,30,21,12,10,,,,,,2.36,1.30,1.97*05
$GPGSV,3,1,11,24,80,093,26,29,66,000,34,30,61,130,24,21,52,212,23*73
$GPGSV,3,2,11,31,38,282,24,12,30,129,32,10,24,071,38,16,05,312,*7C
$GPGSV,3,3,11,02,04,044,33,18,02,177,15,43,,,*76
$GPRMC,164527.000,A,3622.7038,N,02814.1406,E,2.06,358.69,110809,,,A*6C
$GPGGA,164528.000,3622.7042,N,02814.1405,E,1,7,1.30,7.8,M,33.1,M,,*50
$GPGSA,A,3,31,24,29,30,21,12,10,,,,,,2.36,1.30,1.97*05
$GPGSV,3,1,11,24,80,093,26,29,66,000,33,30,61,130,23,21,52,212,24*74
$GPGSV,3,2,11,31,38,282,23,12,30,129,24,10,24,071,29,16,05,312,*7C
$GPGSV,3,3,11,02,04,044,33,18,02,177,15,43,,,*76
$GPRMC,164528.000,A,3622.7042,N,02814.1405,E,1.51,323.07,110809,,,A*68
$GPGGA,164529.000,3622.7042,N,02814.1408,E,1,7,1.28,8.4,M,33.1,M,,*56
$GPGSA,A,3,31,24,29,30,21,12,10,,,,,,1.56,1.28,0.89*07
$GPGSV,3,1,11,24,80,093,26,29,66,000,32,30,61,130,23,21,52,212,24*75
$GPGSV,3,2,11,31,38,282,35,12,30,129,23,10,24,071,30,16,05,312,*74
$GPGSV,3,3,11,02,04,044,21,18,02,177,15,45,,,*73
$GPRMC,164529.000,A,3622.7042,N,02814.1408,E,1.24,294.70,110809,,,A*6B
$GPGGA,164530.000,3622.7042,N,02814.1398,E,1,7,1.28,8.2,M,33.1,M,,*56
$GPGSA,A,3,31,24,29,30,21,12,10,,,,,,1.56,1.28,0.89*07
$GPGSV,3,1,11,24,80,093,25,29,66,000,30,30,61,130,22,21,52,212,24*75
$GPGSV,3,2,11,31,38,282,34,12,30,129,22,10,24,071,29,16,05,312,*7C
$GPGSV,3,3,11,02,04,044,21,18,02,177,15,45,,,*73
$GPRMC,164530.000,A,3622.7042,N,02814.1398,E,1.97,272.97,110809,,,A*64
$GPGGA,164531.000,3622.7044,N,02814.1389,E,1,6,1.32,8.1,M,33.1,M,,*58
$GPGSA,A,3,31,24,29,21,12,10,,,,,,,1.60,1.32,0.91*03
$GPGSV,3,1,11,24,80,093,25,29,66,000,30,30,61,130,21,21,52,212,24*76
$GPGSV,3,2,11,31,38,282,36,12,30,129,21,10,24,071,18,16,05,312,*7F
$GPGSV,3,3,11,02,04,044,20,18,02,177,15,45,,,*72
$GPRMC,164531.000,A,3622.7044,N,02814.1389,E,1.54,288.32,110809,,,A*66
$GPGGA,164532.000,3622.7046,N,02814.1382,E,1,7,1.28,7.8,M,33.1,M,,*5E
$GPGSA,A,3,31,24,29,30,21,12,10,,,,,,1.56,1.28,0.89*07
$GPGSV,3,1,11,24,80,091,25,29,66,000,32,30,61,130,21,21,52,212,23*71
$GPGSV,3,2,11,31,38,282,36,12,30,129,21,10,24,071,18,16,05,312,*7F
$GPGSV,3,3,11,02,04,044,20,18,02,177,15,45,,,*72
$GPRMC,164532.000,A,3622.7046,N,02814.1382,E,2.41,298.05,110809,,,A*6E
$GPGGA,164533.000,3622.7053,N,02814.1381,E,1,7,1.28,8.1,M,33.1,M,,*5E
$GPGSA,A,3,31,24,29,30,21,12,10,,,,,,1.56,1.28,0.89*07
$GPGSV,3,1,11,24,80,091,24,29,66,000,33,30,61,130,20,21,52,212,25*76
$GPGSV,3,2,11,31,38,282,36,12,30,129,19,10,24,071,18,16,05,312,*74
$GPGSV,3,3,11,02,04,044,20,18,02,177,15,45,,,*72
$GPRMC,164533.000,A,3622.7053,N,02814.1381,E,1.98,322.63,110809,,,A*6F
$GPGGA,164534.000,3622.7059,N,02814.1375,E,1,6,1.32,8.4,M,33.1,M,,*57
$GPGSA,A,3,31,24,29,21,12,10,,,,,,,1.60,1.32,0.91*03
$GPGSV,3,1,11,24,80,091,25,29,66,000,34,30,61,130,19,21,52,212,25*7A
$GPGSV,3,2,11,31,38,282,36,12,30,129,19,10,24,071,18,16,05,312,*74
$GPGSV,3,3,11,02,04,044,19,18,02,177,15,45,,,*78
$GPRMC,164534.000,A,3622.7059,N,02814.1375,E,1.32,290.68,110809,,,A*6A
$GPGGA,164535.000,3622.7062,N,02814.1369,E,1,7,1.28,8.3,M,33.1,M,,*5E
$GPGSA,A,3,31,24,29,30,21,12,10,,,,,,1.56,1.28,0.89*07
$GPGSV,3,1,11,24,80,091,24,29,66,000,33,30,61,130,19,21,52,212,34*7C
$GPGSV,3,2,11,31,38,282,37,12,30,129,19,10,24,071,17,16,05,312,*7A
$GPGSV,3,3,11,02,04,044,18,18,02,177,15,46,,,*7A
$GPRMC,164535.000,A,3622.7062,N,02814.1369,E,1.31,275.85,110809,,,A*65
$GPGGA,164536.000,3622.7053,N,02814.1361,E,1,6,1.32,8.3,M,33.1,M,,*5D
$GPGSA,A,3,31,24,29,21,12,10,,,,,,,1.60,1.32,0.91*03
$GPGSV,3,1,11,24,80,091,24,29,66,000,32,30,61,130,19,21,52,212,35*7C
$GPGSV,3,2,11,31,38,282,38,12,30,129,26,10,24,071,17,16,05,312,*79
$GPGSV,3,3,11,02,04,044,16,18,02,177,16,46,,,*77
$GPRMC,164536.000,A,3622.7053,N,02814.1361,E,1.36,268.35,110809,,,A*6C
$GPGGA,164537.000,3622.7056,N,02814.1355,E,1,5,1.71,8.1,M,33.1,M,,*58
$GPGSA,A,3,31,24,29,21,10,,,,,,,,1.94,1.71,0.91*0C
$GPGSV,3,1,11,24,80,091,24,29,66,000,24,30,61,130,20,21,52,212,42*71
$GPGSV,3,2,11,31,38,282,37,12,30,129,26,10,24,071,17,16,05,312,*76
$GPGSV,3,3,11,02,04,044,15,18,02,177,17,46,,,*75
$GPRMC,164537.000,A,3622.7056,N,02814.1355,E,1.30,229.44,110809,,,A*6A
$GPGGA,164538.000,3622.7052,N,02814.1354,E,1,6,1.53,8.2,M,33.1,M,,*52
$GPGSA,A,3,31,24,29,30,12,10,,,,,,,1.77,1.53,0.89*0B
$GPGSV,3,1,11,24,80,091,23,29,66,000,24,30,61,130,21,21,52,212,40*75
$GPGSV,3,2,11,31,38,282,36,12,30,129,35,10,24,071,17,16,05,312,*75
$GPGSV,3,3,11,02,04,044,15,18,02,177,17,46,,,*75
$GPRMC,164538.000,A,3622.7052,N,02814.1354,E,1.11,211.67,110809,,,A*69
$GPGGA,164539.000,3622.7048,N,02814.1351,E,1,7,1.28,8.3,M,33.1,M,,*51
$GPGSA,A,3,31,24,29,30,21,12,10,,,,,,1.56,1.28,0.89*07
$GPGSV,3,1,11,24,80,091,25,29,66,000,24,30,61,130,23,21,52,212,36*70
$GPGSV,3,2,11,31,38,282,36,12,30,129,34,10,24,071,17,16,05,312,*74
$GPGSV,3,3,11,02,04,044,15,18,02,177,17,46,,,*75
$GPRMC,164539.000,A,3622.7048,N,02814.1351,E,1.33,221.67,110809,,,A*65
$GPGGA,164540.000,3622.7043,N,02814.1347,E,1,7,1.28,8.4,M,33.1,M,,*54
$GPGSA,A,3,31,24,29,30,21,12,10,,,,,,1.56,1.28,0.89*07
$GPGSV,3,1,11,24,80,091,25,29,66,000,24,30,61,130,24,21,52,212,36*77
$GPGSV,3,2,11,31,38,282,37,12,30,129,25,10,24,071,17,16,05,312,*75
$GPGSV,3,3,11,02,04,044,15,18,02,177,17,46,,,*75
$GPRMC,164540.000,A,3622.7043,N,02814.1347,E,1.36,214.66,110809,,,A*65
$GPGGA,164541.000,3622.7038,N,02814.1347,E,1,7,1.28,8.4,M,33.1,M,,*59
$GPGSA,A,3,31,24,29,30,21,12,10,,,,,,1.56,1.28,0.89*07
$GPGSV,3,1,11,24,80,091,25,29,66,000,24,30,61,130,24,21,52,212,37*76
$GPGSV,3,2,11,31,38,282,36,12,30,129,28,10,24,071,17,16,05,312,*79
$GPGSV,3,3,11,02,04,044,15,18,02,177,18,49,,,*75
$GPRMC,164541.000,A,3622.7038,N,02814.1347,E,1.58,209.78,110809,,,A*63
$GPGGA,164542.000,3622.7033,N,02814.1342,E,1,7,1.28,8.4,M,33.1,M,,*54
$GPGSA,A,3,31,24,29,30,21,12,10,,,,,,1.56,1.28,0.89*07
$GPGSV,3,1,11,24,80,091,25,29,66,000,23,30,61,130,32,21,52,212,39*78
$GPGSV,3,2,11,31,38,282,36,12,30,129,29,10,24,071,17,16,05,312,*78
$GPGSV,3,3,11,02,04,044,15,18,02,177,19,49,,,*74
$GPRMC,164542.000,A,3622.7033,N,02814.1342,E,1.64,207.30,110809,,,A*63
$GPGGA,164543.000,3622.7018,N,02814.1338,E,1,7,1.28,8.7,M,33.1,M,,*52
$GPGSA,A,3,31,24,29,30,21,12,10,,,,,,1.56,1.28,0.89*07
$GPGSV,3,1,11,24,80,091,25,29,66,000,23,30,61,130,33,21,52,212,38*78
$GPGSV,3,2,11,31,38,282,37,12,30,129,27,10,24,071,18,16,05,312,*78
$GPGSV,3,3,11,02,04,044,16,18,02,177,18,49,,,*76
$GPRMC,164543.000,A,3622.7018,N,02814.1338,E,2.41,200.06,110809,,,A*60
$GPGGA,164544.000,3622.7009,N,02814.1335,E,1,7,1.28,8.2,M,33.1,M,,*5D
$GPGSA,A,3,31,24,29,30,21,12,10,,,,,,1.56,1.28,0.89*07
$GPGSV,3,1,11,24,80,091,25,29,66,000,23,30,61,130,35,21,52,212,39*7F
$GPGSV,3,2,11,31,38,282,37,12,30,129,29,10,24,071,19,16,05,312,*77
$GPGSV,3,3,11,02,04,044,16,18,02,177,25,49,,,*78
$GPRMC,164544.000,A,3622.7009,N,02814.1335,E,1.78,195.12,110809,,,A*69
$GPGGA,164545.000,3622.7002,N,02814.1339,E,1,7,1.28,8.3,M,33.1,M,,*5A
$GPGSA,A,3,31,24,29,30,21,12,10,,,,,,1.56,1.28,0.89*07
$GPGSV,3,1,11,24,80,091,26,29,66,000,22,30,61,130,35,21,52,212,38*7C
$GPGSV,3,2,11,31,38,282,37,12,30,129,28,10,24,071,18,16,05,312,*77
$GPGSV,3,3,11,02,04,044,15,18,02,177,25,49,,,*7B
$GPRMC,164545.000,A,3622.7002,N,02814.1339,E,1.74,185.49,110809,,,A*6C
$GPGGA,164546.000,3622.6995,N,02814.1336,E,1,7,1.28,8.2,M,33.1,M,,*51
$GPGSA,A,3,31,24,29,30,21,12,10,,,,,,1.56,1.28,0.89*07
$GPGSV,3,1,11,24,80,091,26,29,66,000,21,30,61,130,35,21,52,212,37*70
$GPGSV,3,2,11,31,38,282,36,12,30,129,28,10,24,071,18,16,05,312,*76
$GPGSV,3,3,11,02,04,044,15,18,02,177,25,49,,,*7B
$GPRMC,164546.000,A,3622.6995,N,02814.1336,E,2.19,191.62,110809,,,A*62
$GPGGA,164547.000,3622.6993,N,02814.1331,E,1,7,1.28,8.2,M,33.1,M,,*51
$GPGSA,A,3,31,24,29,30,21,12,10,,,,,,1.56,1.28,0.89*07
$GPGSV,3,1,11,24,80,091,26,29,66,000,20,30,61,130,35,21,52,212,37*71
$GPGSV,3,2,11,31,38,282,36,12,30,129,30,10,24,071,19,16,05,312,*7E
$GPGSV,3,3,11,02,04,044,15,18,02,177,26,42,,,*73
$GPRMC,164547.000,A,3622.6993,N,02814.1331,E,2.37,199.07,110809,,,A*65
$GPGGA,164548.000,3622.6990,N,02814.1323,E,1,7,1.28,8.0,M,33.1,M,,*5C
$GPGSA,A,3,31,24,29,30,21,12,10,,,,,,1.56,1.28,0.89*07
$GPGSV,3,1,11,24,80,091,27,29,66,000,20,30,61,130,36,21,52,212,38*7C
$GPGSV,3,2,11,31,38,282,36,12,30,129,30,10,24,071,21,16,05,312,*75
$GPGSV,3,3,11,02,04,044,16,18,02,177,27,42,,,*71
$GPRMC,164548.000,A,3622.6990,N,02814.1323,E,2.36,201.04,110809,,,A*6A
$GPGGA,164549.000,3622.6984,N,02814.1321,E,1,7,1.28,7.8,M,33.1,M,,*5D
$GPGSA,A,3,31,24,29,30,21,12,10,,,,,,1.56,1.28,0.89*07
$GPGSV,3,1,11,24,80,091,27,29,66,000,21,30,61,130,36,21,52,212,38*7D
$GPGSV,3,2,11,31,38,282,35,12,30,129,30,10,24,071,22,16,05,312,*75
$GPGSV,3,3,11,02,04,044,16,18,02,177,29,42,,,*7F
$GPRMC,164549.000,A,3622.6984,N,02814.1321,E,2.33,203.04,110809,,,A*6B
$GPGGA,164550.000,3622.6976,N,02814.1321,E,1,7,1.28,7.8,M,33.1,M,,*58
$GPGSA,A,3,31,24,29,30,21,12,10,,,,,,1.56,1.28,0.89*07
$GPGSV,3,1,11,24,80,091,27,29,66,000,22,30,61,130,35,21,52,212,39*7C
$GPGSV,3,2,11,31,38,282,35,12,30,129,30,10,24,070,23,16,05,312,*75
$GPGSV,3,3,11,02,04,044,15,18,02,177,30,42,,,*74
$GPRMC,164550.000,A,3622.6976,N,02814.1321,E,1.70,190.15,110809,,,A*63
$GPGGA,164551.000,3622.6964,N,02814.1320,E,1,7,1.28,7.9,M,33.1,M,,*5A
$GPGSA,A,3,31,24,29,30,21,12,10,,,,,,1.56,1.28,0.89*07
$GPGSV,3,1,11,24,80,091,26,29,66,000,22,30,61,130,34,21,52,212,39*7C
$GPGSV,3,2,11,31,38,282,36,12,30,129,29,10,24,070,22,16,05,312,*7F
$GPGSV,3,3,11,02,04,044,15,18,02,177,37,42,,,*73
$GPRMC,164551.000,A,3622.6964,N,02814.1320,E,2.37,179.23,110809,,,A*62
$GPGGA,164552.000,3622.6957,N,02814.1317,E,1,7,1.28,7.6,M,33.1,M,,*52
$GPGSA,A,3,31,24,29,30,21,12,10,,,,,,1.56,1.28,0.89*07
$GPGSV,3,1,11,24,80,091,25,29,66,000,23,30,61,130,35,21,52,212,39*7F
$GPGSV,3,2,11,31,38,282,35,12,30,129,29,10,24,070,21,16,05,312,*7F
$GPGSV,3,3,11,02,04,044,16,18,02,177,37,42,,,*70
$GPRMC,164552.000,A,3622.6957,N,02814.1317,E,1.92,197.72,110809,,,A*6D
$GPGGA,164553.000,3622.6949,N,02814.1314,E,1,7,1.28,7.5,M,33.1,M,,*5C
$GPGSA,A,3,31,24,29,30,21,12,10,,,,,,1.56,1.28,0.89*07
$GPGSV,3,1,11,24,80,091,25,29,66,000,22,30,61,130,35,21,52,212,38*7F
$GPGSV,3,2,11,31,38,282,33,12,30,129,29,10,24,070,21,16,05,312,*79
$GPGSV,3,3,11,02,04,044,16,18,02,177,38,50,,,*7C
$GPRMC,164553.000,A,3622.6949,N,02814.1314,E,1.89,198.75,110809,,,A*62
$GPGGA,164554.000,3622.6945,N,02814.1311,E,1,7,1.28,7.0,M,33.1,M,,*57
$GPGSA,A,3,31,24,29,30,21,12,10,,,,,,1.56,1.28,0.89*07
$GPGSV,3,1,11,24,80,091,25,29,66,000,21,30,61,130,34,21,52,212,39*7C
$GPGSV,3,2,11,31,38,282,35,12,30,129,31,10,24,070,21,16,05,312,*76
$GPGSV,3,3,11,02,04,044,16,18,02,177,38,50,,,*7C
$GPRMC,164554.000,A,3622.6945,N,02814.1311,E,2.54,228.62,110809,,,A*61
$GPGGA,164555.000,3622.6939,N,02814.1306,E,1,7,1.28,7.0,M,33.1,M,,*5B
$GPGSA,A,3,31,24,29,30,21,12,10,,,,,,1.56,1.28,0.89*07
$GPGSV,3,1,11,24,80,091,26,29,66,000,22,30,61,130,34,21,52,212,38*7D
$GPGSV,3,2,11,31,38,282,35,12,30,129,31,10,24,070,22,16,05,312,*75
$GPGSV,3,3,11,02,04,044,16,18,02,177,37,50,,,*73
$GPRMC,164555.000,A,3622.6939,N,02814.1306,E,2.06,209.22,110809,,,A*6D
$GPGGA,164556.000,3622.6932,N,02814.1303,E,1,7,1.28,6.6,M,33.1,M,,*51
$GPGSA,A,3,31,24,29,30,21,12,10,,,,,,1.56,1.28,0.89*07
$GPGSV,3,1,11,24,80,091,27,29,66,000,23,30,61,130,35,21,52,212,38*7C
$GPGSV,3,2,11,31,38,282,36,12,30,129,30,10,24,070,23,16,06,313,*74
$GPGSV,3,3,11,02,04,044,16,18,02,177,36,50,,,*72
$GPRMC,164556.000,A,3622.6932,N,02814.1303,E,2.43,210.13,110809,,,A*6B
$GPGGA,164557.000,3622.6921,N,02814.1298,E,1,7,1.28,6.3,M,33.1,M,,*54
$GPGSA,A,3,31,24,29,30,21,12,10,,,,,,1.56,1.28,0.89*07
$GPGSV,3,1,11,24,80,091,28,29,66,000,23,30,61,130,35,21,52,212,39*72
$GPGSV,3,2,11,31,38,282,35,12,30,129,30,10,24,070,24,16,06,313,*70
$GPGSV,3,3,11,02,04,044,16,18,02,177,34,50,,,*70
$GPRMC,164557.000,A,3622.6921,N,02814.1298,E,2.39,203.24,110809,,,A*60
$GPGGA,164558.000,3622.6913,N,02814.1293,E,1,7,1.28,6.3,M,33.1,M,,*51
$GPGSA,A,3,31,24,29,30,21,12,10,,,,,,1.56,1.28,0.89*07
$GPGSV,3,1,11,24,80,091,29,29,66,000,23,30,61,130,35,21,52,212,39*73
$GPGSV,3,2,11,31,38,282,33,12,30,129,32,10,24,070,26,16,06,313,*76
$GPGSV,3,3,11,02,04,044,17,18,02,177,32,50,,,*77
$GPRMC,164558.000,A,3622.6913,N,02814.1293,E,1.49,198.70,110809,,,A*61
$GPGGA,164559.000,3622.6906,N,02814.1290,E,1,7,1.28,5.9,M,33.1,M,,*5E
$GPGSA,A,3,31,24,29,30,21,12,10,,,,,,1.56,1.28,0.89*07
$GPGSV,3,1,11,24,80,091,31,29,66,000,23,30,61,130,36,21,52,212,38*78
$GPGSV,3,2,11,31,38,282,23,12,30,129,32,10,24,070,28,16,06,313,*79
$GPGSV,3,3,11,02,04,044,18,18,02,177,33,50,,,*79
$GPRMC,164559.000,A,3622.6906,N,02814.1290,E,0.01,198.70,110809,,,A*6A
$GPGGA,164600.000,3622.6905,N,02814.1289,E,1,7,1.28,5.9,M,33.1,M,,*5A
$GPGSA,A,3,31,24,29,30,21,12,10,,,,,,1.56,1.28,0.89*07
$GPGSV,3,1,11,24,80,091,32,29,66,000,24,30,61,130,36,21,52,212,31*75
$GPGSV,3,2,11,31,38,282,22,12,30,129,34,10,24,070,29,16,06,313,*7F
$GPGSV,3,3,11,02,04,044,19,18,02,177,33,51,,,*79
$GPRMC,164600.000,A,3622.6905,N,02814.1289,E,0.02,198.70,110809,,,A*6D
$GPGGA,164601.000,3622.6903,N,02814.1290,E,1,7,1.30,5.0,M,33.1,M,,*55
$GPGSA,A,3,31,24,29,30,21,12,10,,,,,,2.36,1.30,1.97*05
$GPGSV,3,1,11,24,80,091,33,29,66,000,24,30,61,130,36,21,53,212,32*76
$GPGSV,3,2,11,31,38,282,23,12,30,129,35,10,24,070,30,16,06,313,*77
$GPGSV,3,3,11,02,04,044,20,18,02,177,33,51,,,*73
$GPRMC,164601.000,A,3622.6903,N,02814.1290,E,0.03,198.70,110809,,,A*63
$GPGGA,164602.000,3622.6899,N,02814.1290,E,1,7,1.28,4.7,M,33.1,M,,*5B
$GPGSA,A,3,31,24,29,30,21,12,10,,,,,,1.56,1.28,0.89*07
$GPGSV,3,1,11,24,80,091,33,29,66,000,16,30,61,130,37,21,53,212,33*77
$GPGSV,3,2,11,31,38,282,23,12,30,129,36,10,24,070,30,16,06,313,*74
$GPGSV,3,3,11,02,04,044,20,18,02,177,33,51,,,*73
$GPRMC,164602.000,A,3622.6899,N,02814.1290,E,0.02,198.70,110809,,,A*63
$GPGGA,164603.000,3622.6900,N,02814.1290,E,1,7,1.30,4.6,M,33.1,M,,*53
$GPGSA,A,3,31,24,29,30,21,12,10,,,,,,2.36,1.30,1.97*05
$GPGSV,3,1,11,24,80,091,33,29,66,000,15,30,61,130,37,21,53,212,33*74
$GPGSV,3,2,11,31,38,282,23,12,30,129,37,10,24,070,30,16,06,313,*75
$GPGSV,3,3,11,02,04,044,20,18,02,177,33,51,,,*73
$GPRMC,164603.000,A,3622.6900,N,02814.1290,E,0.01,198.70,110809,,,A*60
$GPGGA,164604.000,3622.6900,N,02814.1290,E,1,7,1.30,4.6,M,33.1,M,,*54
$GPGSA,A,3,31,24,29,30,21,12,10,,,,,,2.36,1.30,1.97*05
$GPGSV,3,1,11,24,79,090,33,29,66,000,15,30,61,130,37,21,53,212,33*73
$GPGSV,3,2,11,31,38,282,23,12,30,129,37,10,24,070,30,16,06,313,*75
$GPGSV,3,3,11,02,04,044,20,18,02,177,33,51,,,*73
$GPRMC,164604.000,A,3622.6900,N,02814.1290,E,0.01,198.70,110809,,,A*67
$GPGGA,164605.000,3622.6900,N,02814.1290,E,1,7,1.28,4.5,M,33.1,M,,*5F
$GPGSA,A,3,31,24,29,30,21,12,10,,,,,,1.56,1.28,0.89*07
$GPGSV,3,1,11,24,79,090,33,29,66,000,15,30,61,130,38,21,53,212,32*7D
$GPGSV,3,2,11,31,38,282,22,12,30,129,37,10,24,070,30,16,06,313,*74
$GPGSV,3,3,11,02,04,044,20,18,02,177,33,51,,,*73
$GPRMC,164605.000,A,3622.6900,N,02814.1290,E,0.01,198.70,110809,,,A*66
$GPGGA,164606.000,3622.6900,N,02814.1290,E,1,7,1.28,4.5,M,33.1,M,,*5C
$GPGSA,A,3,31,24,29,30,21,12,10,,,,,,1.56,1.28,0.89*07
$GPGSV,3,1,11,24,79,090,32,29,66,000,16,30,61,130,38,21,53,212,34*79
$GPGSV,3,2,11,31,38,282,22,12,30,129,36,10,24,070,30,16,06,313,*75
$GPGSV,3,3,11,02,04,044,19,18,02,177,34,47,,,*79
$GPRMC,164606.000,A,3622.6900,N,02814.1290,E,0.06,198.70,110809,,,A*62
$GPGGA,164607.000,3622.6891,N,02814.1285,E,1,7,1.28,4.1,M,33.1,M,,*54
$GPGSA,A,3,31,24,29,30,21,12,10,,,,,,1.56,1.28,0.89*07
$GPGSV,3,1,11,24,79,090,31,29,66,000,23,30,61,130,38,21,53,212,42*7D
$GPGSV,3,2,11,31,38,282,38,12,30,129,36,10,24,070,23,16,06,313,*7C
$GPGSV,3,3,11,02,04,044,18,18,02,177,35,47,,,*79
$GPRMC,164607.000,A,3622.6891,N,02814.1285,E,1.30,213.44,110809,,,A*6D
$GPGGA,164608.000,3622.6884,N,02814.1283,E,1,7,1.28,4.0,M,33.1,M,,*58
$GPGSA,A,3,31,24,29,30,21,12,10,,,,,,1.56,1.28,0.89*07
$GPGSV,3,1,11,24,79,090,30,29,66,000,23,30,61,130,37,21,53,212,41*70
$GPGSV,3,2,11,31,38,282,38,12,30,129,35,10,24,070,23,16,06,313,*7F
$GPGSV,3,3,11,02,04,044,17,18,02,177,35,47,,,*76
$GPRMC,164608.000,A,3622.6884,N,02814.1283,E,1.90,224.47,110809,,,A*6D
$GPGGA,164609.000,3622.6879,N,02814.1278,E,1,7,1.28,4.2,M,33.1,M,,*5D
$GPGSA,A,3,31,24,29,30,21,12,10,,,,,,1.56,1.28,0.89*07
$GPGSV,3,1,11,24,79,090,30,29,66,001,23,30,61,130,36,21,53,212,40*71
$GPGSV,3,2,11,31,38,282,39,12,30,129,34,10,24,070,23,16,06,313,*7F
$GPGSV,3,3,11,02,04,044,17,18,02,177,36,47,,,*75
$GPRMC,164609.000,A,3622.6879,N,02814.1278,E,2.37,205.90,110809,,,A*6D
$GPGGA,164610.000,3622.6872,N,02814.1275,E,1,7,1.28,4.4,M,33.1,M,,*55
$GPGSA,A,3,31,24,29,30,21,12,10,,,,,,1.56,1.28,0.89*07
$GPGSV,3,1,11,24,79,090,29,29,66,001,22,30,60,130,36,21,53,212,39*77
$GPGSV,3,2,11,31,38,282,38,12,30,129,34,10,24,070,24,16,06,313,*79
$GPGSV,3,3,11,02,04,044,17,18,02,177,36,47,,,*75
$GPRMC,164610.000,A,3622.6872,N,02814.1275,E,2.38,204.84,110809,,,A*68
$GPGGA,164611.000,3622.6865,N,02814.1271,E,1,7,1.28,4.1,M,33.1,M,,*53
$GPGSA,A,3,31,24,29,30,21,12,10,,,,,,1.56,1.28,0.89*07
$GPGSV,3,1,11,24,79,090,28,29,66,001,22,30,60,130,36,21,53,212,39*76
$GPGSV,3,2,11,31,38,282,37,12,30,129,34,10,24,070,25,16,06,313,*77
$GPGSV,3,3,11,02,04,044,16,18,02,177,36,47,,,*74
$GPRMC,164611.000,A,3622.6865,N,02814.1271,E,2.58,216.22,110809,,,A*62
$GPGGA,164612.000,3622.6859,N,02814.1266,E,1,7,1.28,3.8,M,33.1,M,,*57
$GPGSA,A,3,31,24,29,30,21,12,10,,,,,,1.56,1.28,0.89*07
$GPGSV,3,1,11,24,79,090,27,29,66,001,23,30,60,130,35,21,53,212,39*7B
$GPGSV,3,2,11,31,38,282,37,12,30,129,33,10,24,070,25,16,06,313,*70
$GPGSV,3,3,11,02,04,044,16,18,02,177,36,48,,,*7B
$GPRMC,164612.000,A,3622.6859,N,02814.1266,E,2.62,217.70,110809,,,A*67
$GPGGA,164613.000,3622.6854,N,02814.1263,E,1,7,1.28,3.6,M,33.1,M,,*50
$GPGSA,A,3,31,24,29,30,21,12,10,,,,,,1.56,1.28,0.89*07
$GPGSV,3,1,11,24,79,090,27,29,66,001,23,30,60,130,35,21,53,212,39*7B
$GPGSV,3,2,11,31,38,282,37,12,30,129,33,10,24,070,25,16,06,313,*70
$GPGSV,3,3,11,02,04,044,16,18,02,177,36,48,,,*7B
$GPRMC,164613.000,A,3622.6854,N,02814.1263,E,2.61,214.80,110809,,,A*61
$GPGGA,164614.000,3622.6852,N,02814.1259,E,1,7,1.28,3.6,M,33.1,M,,*58
$GPGSA,A,3,31,24,29,30,21,12,10,,,,,,1.56,1.28,0.89*07
$GPGSV,3,1,11,24,79,090,28,29,66,001,24,30,60,130,35,21,53,212,39*73
$GPGSV,3,2,11,31,38,282,37,12,30,129,33,10,24,070,24,16,06,313,*71
$GPGSV,3,3,11,02,04,044,16,18,02,177,35,48,,,*78
$GPRMC,164614.000,A,3622.6852,N,02814.1259,E,2.59,210.07,110809,,,A*69
$GPGGA,164615.000,3622.6845,N,02814.1257,E,1,7,1.28,3.6,M,33.1,M,,*51
$GPGSA,A,3,31,24,29,30,21,12,10,,,,,,1.56,1.28,0.89*07
$GPGSV,3,1,11,24,79,090,28,29,66,001,23,30,60,130,36,21,53,212,39*77
$GPGSV,3,2,11,31,38,282,36,12,30,129,33,10,24,070,23,16,06,313,*77
$GPGSV,3,3,11,02,04,044,16,18,02,177,33,48,,,*7E
$GPRMC,164615.000,A,3622.6845,N,02814.1257,E,2.10,211.16,110809,,,A*6C
$GPGGA,164616.000,3622.6841,N,02814.1252,E,1,7,1.28,3.7,M,33.1,M,,*52
$GPGSA,A,3,31,24,29,30,21,12,10,,,,,,1.56,1.28,0.89*07
$GPGSV,3,1,11,24,79,090,28,29,66,001,23,30,60,130,35,21,53,212,39*74
$GPGSV,3,2,11,31,38,282,36,12,30,129,33,10,24,070,22,16,06,313,*76
$GPGSV,3,3,11,02,04,044,16,18,02,177,33,48,,,*7E
$GPRMC,164616.000,A,3622.6841,N,02814.1252,E,2.09,218.26,110809,,,A*6C
$GPGGA,164617.000,3622.6835,N,02814.1249,E,1,7,1.28,3.3,M,33.1,M,,*5E
$GPGSA,A,3,31,24,29,30,21,12,10,,,,,,1.56,1.28,0.89*07
$GPGSV,3,1,11,24,79,090,28,29,66,001,23,30,60,130,34,21,53,212,39*75
$GPGSV,3,2,11,31,38,282,36,12,30,129,32,10,24,070,21,16,06,313,*74
$GPGSV,3,3,11,02,04,044,16,18,02,177,33,48,,,*7E
$GPRMC,164617.000,A,3622.6835,N,02814.1249,E,2.65,207.51,110809,,,A*60
$GPGGA,164618.000,3622.6829,N,02814.1243,E,1,7,1.28,3.3,M,33.1,M,,*56
$GPGSA,A,3,31,24,29,30,21,12,10,,,,,,1.56,1.28,0.89*07
$GPGSV,3,1,11,24,79,090,27,29,66,001,24,30,60,130,33,21,53,212,38*7B
$GPGSV,3,2,11,31,38,282,36,12,30,129,31,10,24,070,20,16,06,313,*76
$GPGSV,3,3,11,02,04,044,16,18,02,177,33,35,,,*74
$GPRMC,164618.000,A,3622.6829,N,02814.1243,E,2.60,205.44,110809,,,A*6B
$GPGGA,164619.000,3622.6825,N,02814.1243,E,1,7,1.28,3.5,M,33.1,M,,*5D
$GPGSA,A,3,31,24,29,30,21,12,10,,,,,,1.56,1.28,0.89*07
$GPGSV,3,1,11,24,79,090,26,29,66,001,23,30,60,130,34,21,53,212,38*7A
$GPGSV,3,2,11,31,38,282,37,12,30,129,32,10,24,070,20,16,06,313,*74
$GPGSV,3,3,11,02,04,044,16,18,02,177,33,35,,,*74
$GPRMC,164619.000,A,3622.6825,N,02814.1243,E,2.05,222.08,110809,,,A*68
$GPGGA,164620.000,3622.6818,N,02814.1236,E,1,7,1.28,3.4,M,33.1,M,,*5A
$GPGSA,A,3,31,24,29,30,21,12,10,,,,,,1.56,1.28,0.89*07
$GPGSV,3,1,11,24,79,090,26,29,66,001,23,30,60,130,34,21,53,212,39*7B
$GPGSV,3,2,11,31,38,282,37,12,30,129,30,10,24,070,22,16,06,313,*74
$GPGSV,3,3,11,02,04,044,17,18,02,177,33,35,,,*75
$GPRMC,164620.000,A,3622.6818,N,02814.1236,E,2.52,210.02,110809,,,A*67
$GPGGA,164621.000,3622.6811,N,02814.1233,E,1,7,1.28,3.3,M,33.1,M,,*50
$GPGSA,A,3,31,24,29,30,21,12,10,,,,,,1.56,1.28,0.89*07
$GPGSV,3,1,11,24,79,090,26,29,66,001,24,30,60,130,34,21,53,212,40*72
$GPGSV,3,2,11,31,38,282,38,12,30,129,29,10,24,070,22,16,06,313,*73
$GPGSV,3,3,11,02,04,044,17,18,02,177,34,35,,,*72
$GPRMC,164621.000,A,3622.6811,N,02814.1233,E,2.79,197.43,110809,,,A*6A
$GPGGA,164622.000,3622.6805,N,02814.1229,E,1,6,1.45,3.3,M,33.1,M,,*57
$GPGSA,A,3,31,24,30,21,12,10,,,,,,,1.71,1.45,0.91*0B
$GPGSV,3,1,11,24,79,090,26,29,66,001,23,30,60,130,34,21,53,212,40*75
$GPGSV,3,2,11,31,38,282,38,12,30,129,31,10,24,070,21,16,06,313,*79
$GPGSV,3,3,11,02,04,044,17,18,02,177,34,35,,,*72
$GPRMC,164622.000,A,3622.6805,N,02814.1229,E,2.09,225.05,110809,,,A*68
$GPGGA,164623.000,3622.6802,N,02814.1221,E,1,7,1.28,2.9,M,33.1,M,,*58
$GPGSA,A,3,31,24,29,30,21,12,10,,,,,,1.56,1.28,0.89*07
$GPGSV,3,1,11,24,79,090,25,29,66,001,24,30,60,130,34,21,53,212,40*71
$GPGSV,3,2,11,31,38,282,38,12,30,129,31,10,24,070,21,16,06,313,*79
$GPGSV,3,3,11,02,04,044,17,18,02,177,34,35,,,*72
$GPRMC,164623.000,A,3622.6802,N,02814.1221,E,2.37,217.20,110809,,,A*6D
$GPGGA,164624.000,3622.6797,N,02814.1214,E,1,7,1.28,2.8,M,33.1,M,,*5B
$GPGSA,A,3,31,24,29,30,21,12,10,,,,,,1.56,1.28,0.89*07
$GPGSV,3,1,11,24,79,090,25,29,66,001,24,30,60,130,34,21,53,212,39*7F
$GPGSV,3,2,11,39,47,185,,31,38,282,39,12,30,129,31,10,24,070,22*7E
$GPGSV,3,3,11,16,06,313,,02,04,044,17,18,02,177,34*44
$GPRMC,164624.000,A,3622.6797,N,02814.1214,E,2.42,219.34,110809,,,A*66
$GPGGA,164625.000,3622.6794,N,02814.1207,E,1,7,1.28,2.6,M,33.1,M,,*55
$GPGSA,A,3,31,24,29,30,21,12,10,,,,,,1.56,1.28,0.89*07
$GPGSV,3,1,11,24,79,090,25,29,66,001,24,30,60,130,34,21,53,212,38*7E
$GPGSV,3,2,11,39,47,185,,31,38,282,40,12,30,129,31,10,24,070,22*70
$GPGSV,3,3,11,16,06,313,,02,04,044,17,18,02,177,34*44
$GPRMC,164625.000,A,3622.6794,N,02814.1207,E,2.41,221.40,110809,,,A*6D
$GPGGA,164626.000,3622.6790,N,02814.1206,E,1,7,1.28,2.7,M,33.1,M,,*52
$GPGSA,A,3,31,24,29,30,21,12,10,,,,,,1.56,1.28,0.89*07
$GPGSV,3,1,11,24,79,090,26,29,66,001,24,30,60,130,35,21,53,212,38*7C
$GPGSV,3,2,11,39,47,185,,31,38,282,31,12,30,129,32,10,24,070,22*75
$GPGSV,3,3,11,16,06,313,,02,04,044,17,18,02,177,34*44
$GPRMC,164626.000,A,3622.6790,N,02814.1206,E,2.11,205.03,110809,,,A*6F
$GPGGA,164627.000,3622.6788,N,02814.1203,E,1,7,1.28,2.6,M,33.1,M,,*5E
$GPGSA,A,3,31,24,29,30,21,12,10,,,,,,1.56,1.28,0.89*07
$GPGSV,3,1,11,24,79,090,26,29,66,001,23,30,60,130,35,21,53,212,38*7B
$GPGSV,3,2,11,39,47,185,30,31,38,282,31,12,30,129,33,10,24,070,23*76
$GPGSV,3,3,11,16,06,313,,02,04,044,17,18,02,177,34*44
$GPRMC,164627.000,A,3622.6788,N,02814.1203,E,2.40,216.76,110809,,,A*66
$GPGGA,164628.000,3622.6783,N,02814.1198,E,1,7,1.28,2.2,M,33.1,M,,*5F
$GPGSA,A,3,31,24,29,30,21,12,10,,,,,,1.56,1.28,0.89*07
$GPGSV,3,1,11,24,79,090,26,29,66,001,24,30,60,130,35,21,53,212,39*7D
$GPGSV,3,2,11,39,47,185,30,31,38,282,39,12,30,129,33,10,24,070,23*7E
$GPGSV,3,3,11,16,06,313,,02,04,044,17,18,02,177,33*43
$GPRMC,164628.000,A,3622.6783,N,02814.1198,E,3.12,206.96,110809,,,A*6A
$GPGGA,164629.000,3622.6778,N,02814.1193,E,1,7,1.28,2.1,M,33.1,M,,*52
$GPGSA,A,3,31,24,29,30,21,12,10,,,,,,1.56,1.28,0.89*07
$GPGSV,3,1,11,24,79,090,26,29,66,001,24,30,60,130,34,21,53,212,39*7C
$GPGSV,3,2,11,39,47,185,31,31,38,282,38,12,30,129,33,10,24,070,23*7E
$GPGSV,3,3,11,16,06,313,,02,04,044,17,18,02,177,33*43
$GPRMC,164629.000,A,3622.6778,N,02814.1193,E,2.61,224.95,110809,,,A*62
$GPGGA,164630.000,3622.6773,N,02814.1187,E,1,7,1.28,2.1,M,33.1,M,,*54
$GPGSA,A,3,31,24,29,30,21,12,10,,,,,,1.56,1.28,0.89*07
$GPGSV,3,1,11,24,79,090,27,29,66,001,24,30,60,130,34,21,53,212,39*7D
$GPGSV,3,2,11,39,47,185,30,31,38,282,37,12,30,129,32,10,24,070,22*70
$GPGSV,3,3,11,16,06,313,,02,04,044,17,18,03,177,32*43
$GPRMC,164630.000,A,3622.6773,N,02814.1187,E,2.58,221.04,110809,,,A*63
$GPGGA,164631.000,3622.6770,N,02814.1185,E,1,7,1.28,2.0,M,33.1,M,,*55
$GPGSA,A,3,31,24,29,30,21,12,10,,,,,,1.56,1.28,0.89*07
$GPGSV,3,1,11,24,79,090,26,29,66,001,24,30,60,130,34,21,53,212,39*7C
$GPGSV,3,2,11,39,47,185,30,31,38,282,37,12,30,129,30,10,24,070,22*72
$GPGSV,3,3,11,16,06,313,,02,04,044,17,18,03,177,30*41
$GPRMC,164631.000,A,3622.6770,N,02814.1185,E,2.31,216.31,110809,,,A*6E
$GPGGA,164632.000,3622.6765,N,02814.1182,E,1,6,1.45,2.0,M,33.1,M,,*5F
$GPGSA,A,3,31,24,30,21,12,10,,,,,,,1.71,1.45,0.91*0B
$GPGSV,3,1,11,24,79,090,27,29,66,001,23,30,60,130,34,21,53,212,39*7A
$GPGSV,3,2,11,39,47,185,29,31,38,282,28,12,30,129,30,10,24,070,23*75
$GPGSV,3,3,11,16,06,313,,02,04,044,17,18,03,177,29*49
$GPRMC,164632.000,A,3622.6765,N,02814.1182,E,2.48,205.44,110809,,,A*60
$GPGGA,164633.000,3622.6758,N,02814.1179,E,1,7,1.28,1.8,M,33.1,M,,*55
$GPGSA,A,3,31,24,29,30,21,12,10,,,,,,1.56,1.28,0.89*07
$GPGSV,3,1,11,24,79,090,27,29,66,001,23,30,60,130,34,21,53,212,38*7B
$GPGSV,3,2,11,39,47,185,28,31,38,282,29,12,30,129,31,10,24,070,23*74
$GPGSV,3,3,11,16,06,313,,02,04,044,17,18,03,177,28*48
$GPRMC,164633.000,A,3622.6758,N,02814.1179,E,2.01,211.28,110809,,,A*69
$GPGGA,164634.000,3622.6752,N,02814.1177,E,1,6,1.45,1.9,M,33.1,M,,*5D
$GPGSA,A,3,31,24,30,21,12,10,,,,,,,1.71,1.45,0.91*0B
$GPGSV,3,1,11,24,79,090,25,29,66,001,21,30,60,130,34,21,53,212,38*7B
$GPGSV,3,2,11,39,47,185,28,31,38,282,31,12,30,129,31,10,24,070,22*7C
$GPGSV,3,3,11,16,06,313,,02,04,044,17,18,03,177,27*47
$GPRMC,164634.000,A,3622.6752,N,02814.1177,E,1.63,209.41,110809,,,A*6B
$GPGGA,164635.000,3622.6745,N,02814.1174,E,1,6,1.45,2.2,M,33.1,M,,*51
$GPGSA,A,3,31,24,30,21,12,10,,,,,,,1.71,1.45,0.91*0B
$GPGSV,3,1,11,24,79,090,25,29,66,001,20,30,60,130,34,21,53,212,38*7A
$GPGSV,3,2,11,39,47,185,29,31,38,282,32,12,30,129,32,10,24,070,21*7E
$GPGSV,3,3,11,16,06,313,,02,04,044,17,18,03,177,26*46
$GPRMC,164635.000,A,3622.6745,N,02814.1174,E,2.13,215.95,110809,,,A*6F
$GPGGA,164636.000,3622.6739,N,02814.1171,E,1,6,1.45,2.2,M,33.1,M,,*5C
$GPGSA,A,3,31,24,30,21,12,10,,,,,,,1.71,1.45,0.91*0B
$GPGSV,3,1,11,24,79,089,26,29,66,001,20,30,60,130,34,21,53,212,38*71
$GPGSV,3,2,11,39,47,185,29,31,38,282,33,12,30,129,33,10,24,070,22*7D
$GPGSV,3,3,11,16,06,313,,02,04,044,18,18,03,177,25*4A
$GPRMC,164636.000,A,3622.6739,N,02814.1171,E,2.18,207.95,110809,,,A*6A
$GPGGA,164637.000,3622.6739,N,02814.1163,E,1,7,1.28,1.9,M,33.1,M,,*5C
$GPGSA,A,3,31,24,29,30,21,12,10,,,,,,1.56,1.28,0.89*07
$GPGSV,3,1,11,24,79,089,26,29,66,001,21,30,60,130,34,21,53,212,38*70
$GPGSV,3,2,11,39,47,185,30,31,38,282,34,12,30,129,34,10,24,070,21*76
$GPGSV,3,3,11,16,06,313,,02,04,044,19,18,03,177,25*4B
$GPRMC,164637.000,A,3622.6739,N,02814.1163,E,2.48,208.08,110809,,,A*66
$GPGGA,164638.000,3622.6729,N,02814.1154,E,1,7,1.28,1.3,M,33.1,M,,*5C
$GPGSA,A,3,31,24,29,30,21,12,10,,,,,,1.56,1.28,0.89*07
$GPGSV,3,1,11,24,79,089,25,29,66,001,21,30,60,130,34,21,53,212,37*7C
$GPGSV,3,2,11,39,47,185,29,31,38,282,35,12,30,129,33,10,24,070,20*79
$GPGSV,3,3,11,16,06,313,,02,04,044,21,18,03,177,24*41
$GPRMC,164638.000,A,3622.6729,N,02814.1154,E,2.24,204.30,110809,,,A*61
$GPGGA,164639.000,3622.6724,N,02814.1152,E,1,7,1.28,1.0,M,33.1,M,,*55
$GPGSA,A,3,31,24,29,30,21,12,10,,,,,,1.56,1.28,0.89*07
$GPGSV,3,1,11,24,79,089,25,29,66,001,21,30,60,130,34,21,53,212,36*7D
$GPGSV,3,2,11,39,47,185,28,31,38,282,35,12,30,129,32,10,24,070,20*79
$GPGSV,3,3,11,16,06,313,,02,04,044,21,18,03,177,14*42
$GPRMC,164639.000,A,3622.6724,N,02814.1152,E,2.07,212.67,110809,,,A*6F
$GPGGA,164640.000,3622.6718,N,02814.1144,E,1,7,1.28,1.8,M,33.1,M,,*5B
$GPGSA,A,3,31,24,29,30,21,12,10,,,,,,1.56,1.28,0.89*07
$GPGSV,3,1,11,24,79,089,25,29,66,001,21,30,60,130,34,21,53,212,36*7D
$GPGSV,3,2,11,39,47,185,27,31,38,282,35,12,30,129,32,10,24,070,21*77
$GPGSV,3,3,11,16,06,313,,02,04,044,21,18,03,177,14*42
$GPRMC,164640.000,A,3622.6718,N,02814.1144,E,2.14,208.75,110809,,,A*63
$GPGGA,164641.000,3622.6711,N,02814.1141,E,1,7,1.28,1.6,M,33.1,M,,*58
$GPGSA,A,3,31,24,29,30,21,12,10,,,,,,1.56,1.28,0.89*07
$GPGSV,3,1,11,24,79,089,25,29,66,001,21,30,60,130,33,21,53,212,35*79
$GPGSV,3,2,11,39,47,185,27,31,38,282,35,12,30,129,32,10,24,070,28*7E
$GPGSV,3,3,11,16,06,313,,02,04,044,22,18,03,177,*44
$GPRMC,164641.000,A,3622.6711,N,02814.1141,E,2.61,225.95,110809,,,A*6D
$GPGGA,164642.000,3622.6711,N,02814.1128,E,1,7,1.28,1.6,M,33.1,M,,*54
$GPGSA,A,3,31,24,29,30,21,12,10,,,,,,1.56,1.28,0.89*07
$GPGSV,3,1,11,24,79,089,24,29,66,001,20,30,60,131,34,21,53,212,36*7C
$GPGSV,3,2,11,39,47,185,29,31,38,282,36,12,30,129,33,10,24,070,26*7C
$GPGSV,3,3,11,16,06,313,,02,04,044,22,18,03,177,*44
$GPRMC,164642.000,A,3622.6711,N,02814.1128,E,2.33,214.27,110809,,,A*6D
$GPGGA,164643.000,3622.6711,N,02814.1120,E,1,7,1.28,1.5,M,33.1,M,,*5E
$GPGSA,A,3,31,24,29,30,21,12,10,,,,,,1.56,1.28,0.89*07
$GPGSV,3,1,11,24,79,089,23,29,66,001,20,30,60,131,33,21,53,212,36*7C
$GPGSV,3,2,11,39,47,185,28,31,38,281,36,12,30,129,31,10,24,070,25*7F
$GPGSV,3,3,11,16,06,313,,02,04,044,21,18,03,177,*47
$GPRMC,164643.000,A,3622.6711,N,02814.1120,E,2.33,226.46,110809,,,A*62
$GPGGA,164644.000,3622.6707,N,02814.1119,E,1,7,1.28,1.6,M,33.1,M,,*57
$GPGSA,A,3,31,24,29,30,21,12,10,,,,,,1.56,1.28,0.89*07
$GPGSV,3,1,11,24,79,089,24,29,66,001,22,30,60,131,33,21,53,212,38*77
$GPGSV,3,2,11,39,47,185,30,31,38,281,36,12,30,129,31,10,24,070,25*76
$GPGSV,3,3,11,16,06,313,,02,04,044,21,18,03,177,*47
$GPRMC,164644.000,A,3622.6707,N,02814.1119,E,2.34,189.88,110809,,,A*6B
$GPGGA,164645.000,3622.6697,N,02814.1113,E,1,7,1.28,1.1,M,33.1,M,,*53
$GPGSA,A,3,31,24,29,30,21,12,10,,,,,,1.56,1.28,0.89*07
$GPGSV,3,1,11,24,79,089,26,29,66,001,23,30,60,131,35,21,53,212,39*73
$GPGSV,3,2,11,37,41,189,,31,38,281,36,12,30,129,32,10,24,070,26*71
$GPGSV,3,3,11,16,06,313,,02,04,044,22,18,03,177,*44
$GPRMC,164645.000,A,3622.6697,N,02814.1113,E,2.61,191.92,110809,,,A*6A
$GPGGA,164646.000,3622.6687,N,02814.1111,E,1,7,1.28,1.1,M,33.1,M,,*53
$GPGSA,A,3,31,24,29,30,21,12,10,,,,,,1.56,1.28,0.89*07
$GPGSV,3,1,11,24,79,089,27,29,66,001,23,30,60,131,35,21,53,212,39*72
$GPGSV,3,2,11,37,41,189,33,31,38,281,34,12,30,129,32,10,24,070,26*73
$GPGSV,3,3,11,16,06,313,,02,04,044,22,18,03,177,16*43
$GPRMC,164646.000,A,3622.6687,N,02814.1111,E,2.67,177.66,110809,,,A*6F
$GPGGA,164647.000,3622.6681,N,02814.1111,E,1,7,1.28,1.2,M,33.1,M,,*57
$GPGSA,A,3,31,24,29,30,21,12,10,,,,,,1.56,1.28,0.89*07
$GPGSV,3,1,11,24,79,089,28,29,66,001,24,30,60,131,36,21,53,212,39*79
$GPGSV,3,2,11,37,41,189,33,31,38,281,32,12,30,129,34,10,24,070,26*73
$GPGSV,3,3,11,16,06,313,,02,04,044,24,18,03,177,*42
$GPRMC,164647.000,A,3622.6681,N,02814.1111,E,2.44,159.62,110809,,,A*61
$GPGGA,164648.000,3622.6671,N,02814.1117,E,1,7,1.28,0.6,M,33.1,M,,*54
$GPGSA,A,3,31,24,29,30,21,12,10,,,,,,1.56,1.28,0.89*07
$GPGSV,3,1,11,24,79,089,29,29,66,001,24,30,60,131,36,21,53,212,38*79
$GPGSV,3,2,11,37,41,189,,31,38,281,30,12,30,129,36,10,24,070,33*77
$GPGSV,3,3,11,16,06,313,,02,04,044,25,18,03,177,*43
$GPRMC,164648.000,A,3622.6671,N,02814.1117,E,2.51,153.28,110809,,,A*67
$GPGGA,164649.000,3622.6656,N,02814.1119,E,1,6,1.57,0.7,M,33.1,M,,*56
$GPGSA,A,3,24,29,30,21,12,10,,,,,,,1.83,1.57,0.95*08
$GPGSV,3,1,11,24,79,089,30,29,66,001,25,30,60,131,37,21,53,212,37*7E
$GPGSV,3,2,11,37,41,189,,31,38,281,20,12,30,129,37,10,24,070,35*71
$GPGSV,3,3,11,16,06,313,,02,04,044,25,18,03,177,*43
$GPRMC,164649.000,A,3622.6656,N,02814.1119,E,2.84,147.23,110809,,,A*6B
$GPGGA,164650.000,3622.6646,N,02814.1119,E,1,6,1.57,0.9,M,33.1,M,,*51
$GPGSA,A,3,24,29,30,21,12,10,,,,,,,1.83,1.57,0.95*08
$GPGSV,3,1,11,24,79,089,30,29,66,001,25,30,60,131,38,21,53,212,37*71
$GPGSV,3,2,11,37,41,189,,31,38,281,19,12,30,129,38,10,24,070,35*74
$GPGSV,3,3,11,16,06,313,,02,04,044,25,18,03,177,*43
$GPRMC,164650.000,A,3622.6646,N,02814.1119,E,2.35,135.14,110809,,,A*69
$GPGGA,164651.000,3622.6639,N,02814.1123,E,1,7,1.28,0.7,M,33.1,M,,*56
$GPGSA,A,3,31,24,29,30,21,12,10,,,,,,1.56,1.28,0.89*07
$GPGSV,3,1,11,24,79,089,30,29,66,001,25,30,60,131,38,21,53,212,35*73
$GPGSV,3,2,11,37,41,189,,31,38,281,34,12,30,129,37,10,24,070,35*74
$GPGSV,3,3,11,16,06,313,,02,04,044,24,18,03,177,*42
$GPRMC,164651.000,A,3622.6639,N,02814.1123,E,0.03,135.14,110809,,,A*6E
$GPGGA,164652.000,3622.6638,N,02814.1118,E,1,7,1.28,0.1,M,33.1,M,,*5A
$GPGSA,A,3,31,24,29,30,21,12,10,,,,,,1.56,1.28,0.89*07
$GPGSV,3,1,11,24,79,089,23,29,66,001,25,30,60,131,28,21,53,212,25*71
$GPGSV,3,2,11,37,41,189,,31,38,281,41,12,30,129,29,10,24,070,19*77
$GPGSV,3,3,11,16,06,313,,02,04,044,23,18,03,177,*45
$GPRMC,164652.000,A,3622.6638,N,02814.1118,E,0.14,135.14,110809,,,A*62
$GPGGA,164653.000,3622.6635,N,02814.1116,E,1,7,1.28,0.2,M,33.1,M,,*5B
$GPGSA,A,3,31,24,29,30,21,12,10,,,,,,1.56,1.28,0.89*07
$GPGSV,3,1,11,24,79,089,25,29,66,001,25,30,60,131,40,21,53,212,24*78
$GPGSV,3,2,11,37,41,189,,31,38,281,29,12,30,129,30,10,24,070,20*7B
$GPGSV,3,3,11,16,06,313,,02,04,044,21,18,03,177,*47
$GPRMC,164653.000,A,3622.6635,N,02814.1116,E,1.04,228.02,110809,,,A*68
$GPGGA,164654.000,3622.6632,N,02814.1116,E,1,5,2.10,0.6,M,33.1,M,,*55
$GPGSA,A,3,24,29,30,12,10,,,,,,,,2.32,2.10,0.99*0E
$GPGSV,3,1,11,24,79,089,26,29,66,001,26,30,60,131,41,21,53,212,23*7E
$GPGSV,3,2,11,37,41,189,,31,38,281,17,12,30,129,41,10,24,070,21*71
$GPGSV,3,3,11,16,06,313,,02,04,044,20,18,03,177,*46
$GPRMC,164654.000,A,3622.6632,N,02814.1116,E,1.05,195.59,110809,,,A*62
$GPGGA,164655.000,3622.6629,N,02814.1118,E,1,5,2.10,1.1,M,33.1,M,,*56
$GPGSA,A,3,24,29,30,12,10,,,,,,,,2.32,2.10,0.99*0E
$GPGSV,3,1,11,24,79,089,28,29,66,001,26,30,60,131,41,21,53,212,14*74
$GPGSV,3,2,11,37,41,189,,31,38,281,16,12,30,129,42,10,24,070,22*70
$GPGSV,3,3,11,16,06,313,,02,04,044,21,18,03,177,*47
$GPRMC,164655.000,A,3622.6629,N,02814.1118,E,1.31,176.42,110809,,,A*67
$GPGGA,164656.000,3622.6632,N,02814.1124,E,1,6,1.57,0.9,M,33.1,M,,*5A
$GPGSA,A,3,24,29,30,21,12,10,,,,,,,1.83,1.57,0.95*08
$GPGSV,3,1,11,24,79,089,29,29,66,001,26,30,60,131,39,21,53,212,15*7B
$GPGSV,3,2,11,37,41,189,,31,38,281,16,12,30,129,41,10,24,070,31*71
$GPGSV,3,3,11,16,06,313,,02,04,044,,18,03,177,*44
$GPRMC,164656.000,A,3622.6632,N,02814.1124,E,0.97,128.15,110809,,,A*65
$GPGGA,164657.000,3622.6633,N,02814.1120,E,1,6,1.57,0.7,M,33.1,M,,*50
$GPGSA,A,3,24,29,30,21,12,10,,,,,,,1.83,1.57,0.95*08
$GPGSV,3,1,11,24,79,089,28,29,66,001,26,30,60,131,40,21,53,212,31*72
$GPGSV,3,2,11,31,38,281,16,44,32,127,,12,30,129,41,10,24,070,31*75
$GPGSV,3,3,11,16,06,313,,02,04,044,,18,03,177,*44
$GPRMC,164657.000,A,3622.6633,N,02814.1120,E,0.28,128.15,110809,,,A*65
$GPGGA,164658.000,3622.6630,N,02814.1119,E,1,6,1.57,0.7,M,33.1,M,,*56
$GPGSA,A,3,24,29,30,21,12,10,,,,,,,1.83,1.57,0.95*08
$GPGSV,3,1,11,24,79,089,28,29,66,001,26,30,60,131,38,21,53,212,39*75
$GPGSV,3,2,11,31,38,281,16,44,32,127,,12,30,129,27,10,24,070,21*74
$GPGSV,3,3,11,16,06,313,,02,04,044,22,18,03,177,*44
$GPRMC,164658.000,A,3622.6630,N,02814.1119,E,0.72,191.27,110809,,,A*6F
$GPGGA,164659.000,3622.6627,N,02814.1117,E,1,7,1.28,0.7,M,33.1,M,,*56
$GPGSA,A,3,31,24,29,30,21,12,10,,,,,,1.56,1.28,0.89*07
$GPGSV,3,1,11,24,79,089,26,29,66,001,19,30,60,131,37,21,53,212,39*78
$GPGSV,3,2,11,31,38,281,18,44,32,127,,12,30,129,25,10,24,070,22*7B
$GPGSV,3,3,11,16,06,313,,02,04,044,17,18,03,177,*42
$GPRMC,164659.000,A,3622.6627,N,02814.1117,E,0.69,209.99,110809,,,A*6B
$GPGGA,164700.000,3622.6625,N,02814.1115,E,1,7,1.28,0.7,M,33.1,M,,*5B
$GPGSA,A,3,31,24,29,30,21,12,10,,,,,,1.56,1.28,0.89*07
$GPGSV,3,1,11,24,79,089,19,29,66,001,26,30,60,131,35,21,53,212,38*7B
$GPGSV,3,2,11,31,38,281,20,44,32,127,,12,30,129,26,10,24,070,20*71
$GPGSV,3,3,11,16,06,313,,02,04,044,17,18,03,177,*42
$GPRMC,164700.000,A,3622.6625,N,02814.1115,E,1.05,215.25,110809,,,A*67
$GPGGA,164701.000,3622.6623,N,02814.1115,E,1,6,1.57,0.5,M,33.1,M,,*57
$GPGSA,A,3,24,29,30,21,12,10,,,,,,,1.83,1.57,0.95*08
$GPGSV,3,1,11,24,79,089,20,29,66,001,27,30,60,131,33,21,53,212,38*76
$GPGSV,3,2,11,31,38,281,19,44,32,127,,12,30,129,33,10,24,070,19*75
$GPGSV,3,3,11,16,06,313,,02,04,044,17,18,03,177,*42
$GPRMC,164701.000,A,3622.6623,N,02814.1115,E,0.64,227.63,110809,,,A*65
$GPGGA,164702.000,3622.6620,N,02814.1112,E,1,7,1.28,0.7,M,33.1,M,,*5B
$GPGSA,A,3,31,24,29,30,21,12,10,,,,,,1.56,1.28,0.89*07
$GPGSV,3,1,11,24,79,089,20,29,66,001,26,30,60,131,32,21,53,212,39*77
$GPGSV,3,2,11,31,38,281,31,44,32,127,,12,30,129,33,10,24,070,21*74
$GPGSV,3,3,11,16,06,313,,02,04,044,17,18,03,177,*42
$GPRMC,164702.000,A,3622.6620,N,02814.1112,E,0.59,227.63,110809,,,A*6C
$GPGGA,164703.000,3622.6619,N,02814.1114,E,1,7,1.28,0.5,M,33.1,M,,*54
$GPGSA,A,3,31,24,29,30,21,12,10,,,,,,1.56,1.28,0.89*07
$GPGSV,3,1,11,24,79,089,19,29,66,001,25,30,60,131,32,21,53,212,39*7E
$GPGSV,3,2,11,31,38,281,32,44,32,127,,12,30,129,33,10,24,070,21*77
$GPGSV,3,3,11,16,06,313,,02,04,044,18,18,03,177,*4D
$GPRMC,164703.000,A,3622.6619,N,02814.1114,E,0.54,227.63,110809,,,A*6C
$GPGGA,164704.000,3622.6617,N,02814.1113,E,1,7,1.28,0.5,M,33.1,M,,*5A
$GPGSA,A,3,31,24,29,30,21,12,10,,,,,,1.56,1.28,0.89*07
$GPGSV,3,1,11,24,79,089,27,29,66,001,25,30,60,131,33,21,53,212,39*72
$GPGSV,3,2,11,31,38,281,32,44,32,127,,12,30,129,35,10,24,070,22*72
$GPGSV,3,3,11,16,06,313,,02,04,044,19,18,03,177,21*4F
$GPRMC,164704.000,A,3622.6617,N,02814.1113,E,0.38,227.63,110809,,,A*68
$GPGGA,164705.000,3622.6615,N,02814.1104,E,1,7,1.28,0.6,M,33.1,M,,*5C
$GPGSA,A,3,31,24,29,30,21,12,10,,,,,,1.56,1.28,0.89*07
$GPGSV,3,1,11,24,79,089,29,29,66,001,26,30,60,131,35,21,53,212,32*72
$GPGSV,3,2,11,31,38,281,22,44,32,127,,12,30,129,35,10,24,070,36*76
$GPGSV,3,3,11,16,06,313,,02,04,044,34,18,03,177,22*43
$GPRMC,164705.000,A,3622.6615,N,02814.1104,E,1.09,282.83,110809,,,A*6F
$GPGGA,164706.000,3622.6613,N,02814.1102,E,1,7,1.28,0.9,M,33.1,M,,*50
$GPGSA,A,3,31,24,29,30,21,12,10,,,,,,1.56,1.28,0.89*07
$GPGSV,3,1,11,24,79,089,28,29,66,001,36,30,60,131,24,21,53,212,22*73
$GPGSV,3,2,11,31,38,281,37,12,30,129,27,33,27,238,,10,24,070,35*7B
$GPGSV,3,3,11,16,06,313,,02,04,044,33,18,03,177,*44
$GPRMC,164706.000,A,3622.6613,N,02814.1102,E,1.09,280.58,110809,,,A*68
$GPGGA,164707.000,3622.6614,N,02814.1097,E,1,7,1.28,1.3,M,33.1,M,,*50
$GPGSA,A,3,31,24,29,30,21,12,10,,,,,,1.56,1.28,0.89*07
$GPGSV,3,1,11,24,79,089,28,29,66,001,36,30,60,131,25,21,53,212,23*73
$GPGSV,3,2,11,31,38,281,35,12,30,129,28,33,27,238,,10,24,070,35*76
$GPGSV,3,3,11,16,06,313,,02,04,044,32,18,03,177,*45
$GPRMC,164707.000,A,3622.6614,N,02814.1097,E,1.08,303.04,110809,,,A*61
$GPGGA,164708.000,3622.6620,N,02814.1094,E,1,7,1.28,1.9,M,33.1,M,,*51
$GPGSA,A,3,31,24,29,30,21,12,10,,,,,,1.56,1.28,0.89*07
$GPGSV,3,1,11,24,79,087,29,29,66,001,36,30,60,131,27,21,53,212,24*79
$GPGSV,3,2,11,31,38,281,35,12,30,129,28,33,27,238,,10,24,070,36*75
$GPGSV,3,3,11,16,06,313,,02,04,044,32,18,03,177,*45
$GPRMC,164708.000,A,3622.6620,N,02814.1094,E,1.14,329.56,110809,,,A*68
$GPGGA,164709.000,3622.6620,N,02814.1094,E,1,7,1.28,2.2,M,33.1,M,,*58
$GPGSA,A,3,31,24,29,30,21,12,10,,,,,,1.56,1.28,0.89*07
$GPGSV,3,1,11,24,79,087,31,29,66,001,36,30,60,131,29,21,53,212,23*79
$GPGSV,3,2,11,31,38,281,33,12,30,129,36,33,27,238,,10,24,070,36*7C
$GPGSV,3,3,11,16,06,313,,02,04,044,33,18,03,177,*44
$GPRMC,164709.000,A,3622.6620,N,02814.1094,E,0.03,329.56,110809,,,A*6E
$GPGGA,164710.000,3622.6622,N,02814.1093,E,1,7,1.28,2.2,M,33.1,M,,*55
$GPGSA,A,3,31,24,29,30,21,12,10,,,,,,1.56,1.28,0.89*07
$GPGSV,3,1,11,24,79,087,32,29,66,001,34,30,60,131,37,21,53,212,22*76
$GPGSV,3,2,11,31,38,281,32,12,30,129,37,33,27,238,,10,24,070,36*7C
$GPGSV,3,3,11,16,06,313,,02,04,044,32,18,03,177,*45
$GPRMC,164710.000,A,3622.6622,N,02814.1093,E,0.02,329.56,110809,,,A*62
$GPGGA,164711.000,3622.6627,N,02814.1089,E,1,7,1.28,1.9,M,33.1,M,,*52
$GPGSA,A,3,31,24,29,30,21,12,10,,,,,,1.56,1.28,0.89*07
$GPGSV,3,1,11,24,79,087,32,29,66,001,33,30,60,131,37,21,53,212,22*71
$GPGSV,3,2,11,31,38,281,32,12,30,129,37,33,27,238,,10,24,070,37*7D
$GPGSV,3,3,11,16,06,313,,02,04,044,33,18,03,177,*44
$GPRMC,164711.000,A,3622.6627,N,02814.1089,E,0.06,329.56,110809,,,A*69
$GPGGA,164712.000,3622.6629,N,02814.1087,E,1,6,1.50,2.4,M,33.1,M,,*51
$GPGSA,A,3,31,24,29,30,12,10,,,,,,,1.75,1.50,0.89*0A
$GPGSV,3,1,11,24,79,087,31,29,66,001,34,30,60,131,27,21,53,212,22*74
$GPGSV,3,2,11,31,38,281,42,12,30,129,35,33,27,238,,10,24,070,37*78
$GPGSV,3,3,11,16,06,313,,02,04,044,24,18,03,177,*42
$GPRMC,164712.000,A,3622.6629,N,02814.1087,E,0.92,290.03,110809,,,A*64
$GPGGA,164713.000,3622.6630,N,02814.1085,E,1,7,1.28,2.4,M,33.1,M,,*54
$GPGSA,A,3,31,24,29,30,21,12,10,,,,,,1.56,1.28,0.89*07
$GPGSV,3,1,11,24,79,087,29,29,66,002,34,30,60,131,27,21,53,212,33*7E
$GPGSV,3,2,11,31,38,281,41,12,30,129,21,33,27,238,,10,24,070,23*7B
$GPGSV,3,3,11,16,06,313,,02,04,044,17,18,03,177,*42
$GPRMC,164713.000,A,3622.6630,N,02814.1085,E,0.91,291.98,110809,,,A*6F
$GPGGA,164714.000,3622.6631,N,02814.1084,E,1,7,1.27,2.5,M,33.1,M,,*5D
$GPGSA,A,3,31,24,29,30,21,12,10,,,,,,1.56,1.27,0.89*08
$GPGSV,3,1,11,24,79,087,29,29,66,002,33,30,60,131,28,21,53,212,34*71
$GPGSV,3,2,11,31,38,281,42,12,30,129,22,33,27,238,31,10,24,070,21*7B
$GPGSV,3,3,11,16,06,313,,02,04,044,18,18,03,177,*4D
$GPRMC,164714.000,A,3622.6631,N,02814.1084,E,0.72,294.43,110809,,,A*66
$GPGGA,164715.000,3622.6631,N,02814.1084,E,1,7,1.27,2.6,M,33.1,M,,*5F
$GPGSA,A,3,31,24,29,30,21,12,10,,,,,,1.56,1.27,0.89*08
$GPGSV,3,1,11,24,79,087,27,29,66,002,34,30,60,131,28,21,53,212,34*78
$GPGSV,3,2,11,31,38,281,42,12,30,129,23,33,27,238,30,10,24,070,21*7B
$GPGSV,3,3,11,16,06,313,,02,04,044,18,18,03,177,*4D
$GPRMC,164715.000,A,3622.6631,N,02814.1084,E,0.47,294.43,110809,,,A*61
$GPGGA,164716.000,3622.6631,N,02814.1085,E,1,7,1.27,2.7,M,33.1,M,,*5C
$GPGSA,A,3,31,24,29,30,21,12,10,,,,,,1.56,1.27,0.89*08
$GPGSV,3,1,11,24,79,087,27,29,66,002,34,30,60,131,27,21,53,212,34*77
$GPGSV,3,2,11,31,38,281,41,12,30,129,23,33,27,238,28,10,24,070,21*71
$GPGSV,3,3,11,16,06,313,,02,04,044,25,18,03,177,*43
$GPRMC,164716.000,A,3622.6631,N,02814.1085,E,0.28,294.43,110809,,,A*6A
$GPGGA,164717.000,3622.6633,N,02814.1083,E,1,6,1.50,2.6,M,33.1,M,,*59
$GPGSA,A,3,31,24,29,30,21,10,,,,,,,1.76,1.50,0.91*00
$GPGSV,3,1,11,24,79,087,29,29,66,002,34,30,60,131,27,21,53,212,33*7E
