$GPGSV,4,1,16,27,14,278,28,06,25,281,25,18,21,153,23,31,16,219,21*71
$GPGSV,4,2,16,29,36,085,18,21,77,163,17,16,37,306,17,05,15,039,15*7C
$GPGSV,4,3,16,25,11,146,12,03,00,282,,22,,,,30,,,*76
$GPGSV,4,4,16,32,,,,28,,,,26,,,,24,,,*77
$GPGGA,,,,,,0,,,,,,,,*66
$GPVTG,,T,,M,,N,,K,N*2C
$GPRMC,,V,,,,,,,,,,N*53
$GPGSA,A,1,,,,,,,,,,,,,,,*1E
$GPGSV,4,1,16,27,14,278,28,06,25,281,25,18,21,153,23,31,16,219,21*71
$GPGSV,4,2,16,29,36,085,18,21,77,163,17,16,37,306,17,05,15,039,15*7C
$GPGSV,4,3,16,25,11,146,12,03,00,282,,22,,,,30,,,*76
$GPGSV,4,4,16,32,,,,28,,,,26,,,,24,,,*77
$GPGGA,,,,,,0,,,,,,,,*66
$GPVTG,,T,,M,,N,,K,N*2C
$GPRMC,,V,,,,,,,,,,N*53
$GPGSA,A,1,,,,,,,,,,,,,,,*1E
$GPGSV,4,1,16,01,59,296,33,03,12,178,,11,77,234,,14,42,064,*71
$GPGSV,4,2,16,17,05,324,,19,40,185,,20,27,250,,22,14,067,*7A
$GPGSV,4,3,16,24,,,,27,07,167,,28,14,289,,31,00,119,*4A
$GPGSV,4,4,16,32,66,241,,30,,,,29,,,,26,,,*44
$GPGGA,,,,,,0,,,,,,,,*66
$GPVTG,,T,,M,,N,,K,N*2C
$GPRMC,,V,,,,,,,,,,N*53
$GPGSA,A,1,,,,,,,,,,,,,,,*1E
$GPGSV,4,1,16,01,59,296,33,03,12,178,,11,77,234,,14,42,064,*71
$GPGSV,4,2,16,17,05,324,,19,40,185,,20,27,250,,22,14,067,*7A
$GPGSV,4,3,16,24,,,,27,07,167,,28,14,289,,31,00,119,*4A
$GPGSV,4,4,16,32,66,241,,30,,,,29,,,,26,,,*44
$GPGGA,,,,,,0,,,,,,,,*66
$GPVTG,,T,,M,,N,,K,N*2C
$GPRMC,,V,,,,,,,,,,N*53
$GPGSA,A,1,,,,,,,,,,,,,,,*1E
$GPGSV,4,1,16,01,59,296,31,32,66,241,28,14,42,064,26,11,77,234,25*72
$GPGSV,4,2,16,19,40,185,21,03,12,178,,06,,,,17,05,324,*45
$GPGSV,4,3,16,20,27,250,,22,14,067,,24,,,,27,07,167,*49
$GPGSV,4,4,16,28,14,289,,31,00,119,,30,,,,29,,,*71
$GPGGA,101629.6,,,,,0,,,,,,,,*73
$GPVTG,,T,,M,,N,,K,N*2C
$GPRMC,,V,,,,,,,,,,N*53
$GPGSA,A,1,,,,,,,,,,,,,,,*1E
$GPGSV,4,1,16,32,67,241,31,01,60,296,31,14,42,064,30,11,77,230,28*7F
$GPGSV,4,2,16,19,39,185,21,03,11,178,,17,06,324,,20,28,250,*72
$GPGSV,4,3,16,22,14,067,,24,,,,27,06,167,,28,14,288,*45
$GPGSV,4,4,16,31,01,119,,30,,,,29,,,,26,,,*48
$GPGGA,101630.6,,,,,0,,,,,,,,*7B
$GPVTG,,T,,M,,N,,K,N*2C
$GPRMC,,V,,,,,,,,,,N*53
$GPGSA,A,1,,,,,,,,,,,,,,,*1E
$GPGSV,4,1,16,01,59,296,31,32,66,241,31,11,77,234,29,14,42,064,25*75
$GPGSV,4,2,16,19,40,185,20,03,12,178,,17,05,324,,20,27,250,*72
$GPGSV,4,3,16,22,14,067,,24,,,,27,07,167,,28,14,289,*45
$GPGSV,4,4,16,31,00,119,,30,,,,29,,,,26,,,*49
$GPGGA,101631.6,,,,,0,,,,,,,,*7A
$GPVTG,,T,,M,,N,,K,N*2C
$GPRMC,,V,,,,,,,,,,N*53
$GPGSA,A,1,,,,,,,,,,,,,,,*1E
$GPGSV,4,1,16,32,67,241,30,01,60,296,30,11,77,230,24,14,42,064,22*70
$GPGSV,4,2,16,19,39,185,18,28,14,288,16,03,11,178,,17,06,324,*7D
$GPGSV,4,3,16,20,28,250,,22,14,067,,24,,,,27,06,167,*47
$GPGSV,4,4,16,31,01,119,,30,,,,29,,,,26,,,*48
$GPGGA,101632.6,,,,,0,,,,,,,,*79
$GPVTG,,T,,M,,N,,K,N*2C
$GPRMC,,V,,,,,,,,,,N*53
$GPGSA,A,1,,,,,,,,,,,,,,,*1E
$GPGSV,4,1,16,32,66,241,33,01,59,296,33,11,77,234,27,14,42,064,22*7C
$GPGSV,4,2,16,19,40,185,20,28,14,289,15,03,12,178,,17,05,324,*7A
$GPGSV,4,3,16,20,27,250,,22,14,067,,24,,,,27,07,167,*49
$GPGSV,4,4,16,31,00,119,,30,,,,29,,,,26,,,*49
$GPGGA,101633.6,,,,,0,,,,,,,,*78
$GPVTG,,T,,M,,N,,K,N*2C
$GPRMC,,V,,,,,,,,,,N*53
$GPGSA,A,1,,,,,,,,,,,,,,,*1E
$GPGSV,4,1,16,32,66,241,32,01,59,296,29,11,77,234,29,19,40,185,26*7D
$GPGSV,4,2,16,14,42,064,21,28,14,289,16,03,12,178,,17,05,324,*79
$GPGSV,4,3,16,20,27,250,,22,14,067,,24,,,,27,07,167,*49
$GPGSV,4,4,16,31,00,119,,30,,,,29,,,,26,,,*49
$GPGGA,101634.6,,,,,0,,,,,,,,*7F
$GPVTG,,T,,M,,N,,K,N*2C
$GPRMC,,V,,,,,,,,,,N*53
$GPGSA,A,1,,,,,,,,,,,,,,,*1E
$GPGSV,4,1,16,32,66,241,31,01,59,296,30,11,77,234,29,19,40,185,24*74
$GPGSV,4,2,16,14,42,064,23,28,14,289,17,03,12,178,,06,,,*4A
$GPGSV,4,3,16,17,05,324,,22,14,067,,24,,,,27,07,167,*4F
$GPGSV,4,4,16,31,00,119,,30,,,,29,,,,26,,,*49
$GPGGA,,,,,,0,,,,,,,,*66
$GPVTG,,T,,M,,N,,K,N*2C
$GPRMC,,V,,,,,,,,,,N*53
$GPGSA,A,1,,,,,,,,,,,,,,,*1E
$GPGSV,4,1,16,32,66,241,31,01,59,296,30,11,77,234,27,14,42,064,25*7A
$GPGSV,4,2,16,19,40,185,23,28,14,289,18,20,27,250,15,03,12,178,*76
$GPGSV,4,3,16,06,,,,17,05,324,,22,14,067,,24,,,*7B
$GPGSV,4,4,16,27,07,167,,31,00,119,,30,,,,29,,,*7F
$GPGGA,101636.6,4933.919994,N,01825.337318,E,1,07,1.6,614.6,M,43.0,M,,*50
$GPVTG,268.6,T,266.2,M,2.6,N,4.9,K,A*20
$GPRMC,101636.6,A,4933.919994,N,01825.337318,E,2.6,268.6,311213,2.4,E,A*00
$GPGSA,A,3,32,01,11,14,19,28,20,,,,,,2.7,1.6,2.1*36
$GPGSV,4,1,16,14,42,064,34,11,77,230,33,32,67,241,32,01,60,296,30*73
$GPGSV,4,2,16,19,39,185,28,28,14,288,24,20,28,250,15,03,11,178,*71
$GPGSV,4,3,16,17,06,324,,22,14,067,,24,,,,27,06,167,*4D
$GPGSV,4,4,16,31,01,119,,30,,,,29,,,,26,,,*48
$GPGGA,101638.6,4933.917606,N,01825.340220,E,1,07,1.6,589.8,M,43.0,M,,*57
$GPVTG,280.1,T,277.7,M,2.5,N,4.6,K,A*28
$GPRMC,101638.6,A,4933.917606,N,01825.340220,E,2.5,280.1,311213,2.4,E,A*0C
$GPGSA,A,3,14,11,32,01,19,28,20,,,,,,2.7,1.6,2.1*36
$GPGSV,4,1,16,14,42,064,32,11,77,234,30,01,59,296,30,32,66,241,29*73
$GPGSV,4,2,16,19,40,185,25,28,14,289,20,20,27,250,15,03,12,178,*7B
$GPGSV,4,3,16,17,05,324,,22,14,067,,24,,,,27,07,167,*4F
$GPGSV,4,4,16,31,00,119,,30,,,,29,,,,26,,,*49
$GPGGA,101639.6,4933.923494,N,01825.332712,E,1,07,1.6,608.9,M,43.0,M,,*52
$GPVTG,265.5,T,263.1,M,2.1,N,3.9,K,A*28
$GPRMC,101639.6,A,4933.923494,N,01825.332712,E,2.1,265.5,311213,2.4,E,A*09
$GPGSA,A,3,14,11,01,32,19,28,20,,,,,,2.7,1.6,2.1*36
$GPGSV,4,1,16,14,42,064,32,01,59,296,32,11,77,234,31,32,66,241,27*7E
$GPGSV,4,2,16,19,40,185,26,28,14,289,20,20,27,250,15,03,12,178,*78
$GPGSV,4,3,16,06,,,,17,05,324,,22,14,067,,24,,,*7B
$GPGSV,4,4,16,27,07,167,,31,00,119,,30,,,,29,,,*7F
$GPGGA,101640.6,4933.912441,N,01825.342160,E,1,07,1.4,577.0,M,43.0,M,,*52
$GPVTG,264.0,T,261.6,M,2.2,N,4.1,K,A*25
$GPRMC,101640.6,A,4933.912441,N,01825.342160,E,2.2,264.0,311213,2.4,E,A*0E
$GPGSA,A,3,14,01,11,32,19,28,20,,,,,,2.3,1.4,1.8*3A
$GPGSV,4,1,16,14,42,064,32,01,59,296,31,11,77,234,29,32,66,241,28*7B
$GPGSV,4,2,16,19,40,185,27,28,14,289,20,20,27,250,15,03,12,178,*79
$GPGSV,4,3,16,06,,,,17,05,324,,22,14,067,,24,,,*7B
$GPGSV,4,4,16,27,07,167,,31,00,119,,30,,,,29,,,*7F
$GPGGA,101641.0,4933.911741,N,01825.342790,E,1,07,1.4,582.6,M,43.0,M,,*50
$GPVTG,0.0,T,357.6,M,0.0,N,0.0,K,A*24
$GPRMC,101641.0,A,4933.911741,N,01825.342790,E,0.0,0.0,311213,2.4,E,A*00
$GPGSA,A,3,01,11,14,19,20,28,32,,,,,,2.3,1.4,1.8*3A
$GPGSV,4,1,16,14,42,064,29,11,77,234,28,32,66,241,28,01,59,296,27*77
$GPGSV,4,2,16,19,40,185,23,28,14,289,22,20,27,250,15,03,12,178,*7F
$GPGSV,4,3,16,06,,,,17,05,324,,22,14,067,,24,,,*7B
$GPGSV,4,4,16,27,07,167,,31,00,119,,30,,,,29,,,*7F
$GPGGA,101643.0,4933.911287,N,01825.342327,E,1,07,1.4,577.6,M,43.0,M,,*5F
$GPVTG,0.0,T,357.6,M,0.0,N,0.0,K,A*24
$GPRMC,101643.0,A,4933.911287,N,01825.342327,E,0.0,0.0,311213,2.4,E,A*05
$GPGSA,A,3,01,11,14,19,20,28,32,,,,,,2.3,1.4,1.8*3A
$GPGSV,4,1,16,01,59,296,33,14,42,064,29,32,66,241,27,19,40,185,27*77
$GPGSV,4,2,16,11,77,234,27,28,14,289,24,20,27,250,15,03,12,178,*78
$GPGSV,4,3,16,06,,,,17,05,324,,22,14,067,,24,,,*7B
$GPGSV,4,4,16,27,07,167,,31,00,119,,30,,,,29,,,*7F
$GPGGA,101644.0,4933.911238,N,01825.341962,E,1,07,1.4,575.5,M,43.0,M,,*55
$GPVTG,0.0,T,357.6,M,0.0,N,0.0,K,A*24
$GPRMC,101644.0,A,4933.911238,N,01825.341962,E,0.0,0.0,311213,2.4,E,A*0E
$GPGSA,A,3,01,11,14,19,20,28,32,,,,,,2.3,1.4,1.8*3A
$GPGSV,4,1,16,01,59,296,33,14,42,064,29,32,66,241,27,19,40,185,27*77
$GPGSV,4,2,16,11,77,234,27,28,14,289,24,20,27,250,15,03,12,178,*78
$GPGSV,4,3,16,06,,,,17,05,324,,22,14,067,,24,,,*7B
$GPGSV,4,4,16,27,07,167,,31,00,119,,30,,,,29,,,*7F
$GPGGA,101644.9,4933.911238,N,01825.341962,E,1,07,1.4,575.5,M,43.0,M,,*5C
$GPVTG,0.0,T,357.6,M,0.0,N,0.0,K,A*24
$GPRMC,101644.9,A,4933.911238,N,01825.341962,E,0.0,0.0,311213,2.4,E,A*07
$GPGSA,A,3,01,11,14,19,20,28,32,,,,,,2.3,1.4,1.8*3A
$GPGSV,4,1,16,01,60,296,31,14,42,064,26,32,67,241,23,11,77,229,23*78
$GPGSV,4,2,16,28,14,288,22,19,39,185,21,03,11,178,,17,06,324,*70
$GPGSV,4,3,16,20,28,250,,22,13,067,,24,,,,27,06,167,*40
$GPGSV,4,4,16,31,01,119,,30,,,,29,,,,26,,,*48
$GPGGA,101653.6,4933.913231,N,01825.342225,E,1,06,1.4,580.4,M,43.0,M,,*5F
$GPVTG,0.0,T,357.6,M,0.0,N,0.0,K,A*24
$GPRMC,101653.6,A,4933.913231,N,01825.342225,E,0.0,0.0,311213,2.4,E,A*0E
$GPGSA,A,3,01,11,14,19,28,32,,,,,,,2.3,1.4,1.8*38
$GPGSV,4,1,16,01,60,296,27,32,67,241,24,14,42,064,24,11,77,229,22*7B
$GPGSV,4,2,16,19,39,185,21,28,14,288,20,03,11,178,,17,06,324,*72
$GPGSV,4,3,16,20,28,250,,22,13,067,,24,,,,27,06,167,*40
$GPGSV,4,4,16,31,01,119,,30,,,,29,,,,26,,,*48
$GPGGA,101656.0,4933.913054,N,01825.341863,E,1,06,1.4,580.5,M,43.0,M,,*57
$GPVTG,0.0,T,357.6,M,0.0,N,0.0,K,A*24
$GPRMC,101656.0,A,4933.913054,N,01825.341863,E,0.0,0.0,311213,2.4,E,A*07
$GPGSA,A,3,01,11,14,19,28,32,,,,,,,2.3,1.4,1.8*38
$GPGSV,4,1,16,01,60,296,27,32,67,241,19,19,39,185,19,28,14,288,19*78
$GPGSV,4,2,16,14,42,064,19,11,77,229,19,03,11,178,,17,06,324,*78
$GPGSV,4,3,16,20,28,250,,22,13,067,,24,,,,27,06,167,*40
$GPGSV,4,4,16,31,01,119,,30,,,,29,,,,26,,,*48
$GPGGA,101657.0,4933.913040,N,01825.341841,E,1,06,1.4,580.5,M,43.0,M,,*53
$GPVTG,0.0,T,357.6,M,0.0,N,0.0,K,A*24
$GPRMC,101657.0,A,4933.913040,N,01825.341841,E,0.0,0.0,311213,2.4,E,A*03
$GPGSA,A,3,01,11,14,19,28,32,,,,,,,2.3,1.4,1.8*38
$GPGSV,4,1,16,01,60,296,29,32,67,241,25,11,77,229,23,19,39,185,19*74
$GPGSV,4,2,16,14,42,064,19,28,14,288,18,03,11,178,,17,06,324,*7D
$GPGSV,4,3,16,20,28,250,,22,13,067,,24,,,,27,06,167,*40
$GPGSV,4,4,16,31,01,119,,30,,,,29,,,,26,,,*48
$GPGGA,101658.0,4933.913044,N,01825.341834,E,1,06,1.4,580.5,M,43.0,M,,*5A
$GPVTG,0.0,T,357.6,M,0.0,N,0.0,K,A*24
$GPRMC,101658.0,A,4933.913044,N,01825.341834,E,0.0,0.0,311213,2.4,E,A*0A
$GPGSA,A,3,01,11,14,19,28,32,,,,,,,2.3,1.4,1.8*38
$GPGSV,4,1,16,01,60,296,28,32,67,241,26,11,77,229,22,14,42,064,20*72
$GPGSV,4,2,16,19,39,185,19,28,14,288,18,03,11,178,,17,06,324,*72
$GPGSV,4,3,16,20,28,250,,22,13,067,,24,,,,27,06,167,*40
$GPGSV,4,4,16,31,01,119,,30,,,,29,,,,26,,,*48
$GPGGA,101659.0,4933.913053,N,01825.341825,E,1,06,1.4,580.5,M,43.0,M,,*5D
$GPVTG,0.0,T,357.6,M,0.0,N,0.0,K,A*24
$GPRMC,101659.0,A,4933.913053,N,01825.341825,E,0.0,0.0,311213,2.4,E,A*0D
$GPGSA,A,3,01,11,14,19,28,32,,,,,,,2.3,1.4,1.8*38
$GPGSV,4,1,16,01,60,296,27,14,42,064,26,32,67,241,23,11,77,229,23*7F
$GPGSV,4,2,16,19,39,185,19,28,14,288,18,03,11,178,,17,06,324,*72
$GPGSV,4,3,16,20,28,250,,22,13,067,,24,,,,27,06,167,*40
$GPGSV,4,4,16,31,01,119,,30,,,,29,,,,26,,,*48
$GPGGA,101700.0,4933.913050,N,01825.341812,E,1,06,1.4,580.5,M,43.0,M,,*57
$GPVTG,0.0,T,357.6,M,0.0,N,0.0,K,A*24
$GPRMC,101700.0,A,4933.913050,N,01825.341812,E,0.0,0.0,311213,2.4,E,A*07
$GPGSA,A,3,01,11,14,19,28,32,,,,,,,2.3,1.4,1.8*38
$GPGSV,4,1,16,14,42,064,26,32,67,241,24,11,77,229,23,01,60,296,21*7E
$GPGSV,4,2,16,19,39,185,19,28,14,288,18,03,11,178,,17,06,324,*72
$GPGSV,4,3,16,20,28,250,,22,13,067,,24,,,,27,06,167,*40
$GPGSV,4,4,16,31,01,119,,30,,,,29,,,,26,,,*48
$GPGGA,101702.0,4933.913047,N,01825.341812,E,1,06,666.6,580.5,M,43.0,M,,*56
$GPVTG,0.0,T,0.0,M,0.0,N,0.0,K,A*23
$GPRMC,101702.0,A,4933.913047,N,01825.341812,E,0.0,0.0,311213,,,A*6E
$GPGSA,A,3,01,11,14,19,28,32,,,,,,,666.6,666.6,666.6*35
$GPGSV,4,1,16,01,60,296,25,14,42,064,24,32,67,241,21,11,77,229,19*74
$GPGSV,4,2,16,28,14,288,18,19,39,185,17,03,11,178,,17,06,324,*7C
$GPGSV,4,3,16,20,28,250,,22,13,067,,24,,,,27,06,167,*40
$GPGSV,4,4,16,31,01,119,,30,,,,29,,,,26,,,*48
$GPGGA,101703.0,4933.913050,N,01825.341807,E,1,06,1.8,580.5,M,43.0,M,,*5C
$GPVTG,0.0,T,357.6,M,0.0,N,0.0,K,A*24
$GPRMC,101703.0,A,4933.913050,N,01825.341807,E,0.0,0.0,311213,2.4,E,A*00
$GPGSA,A,3,01,11,14,19,28,32,,,,,,,2.0,1.8,1.0*3F
$GPGSV,4,1,16,01,60,296,27,14,42,064,22,28,14,288,21,11,77,229,21*71
$GPGSV,4,2,16,32,67,241,20,19,39,185,17,03,11,178,,17,06,324,*7D
$GPGSV,4,3,16,20,28,250,,22,13,067,,24,,,,27,06,167,*40
$GPGSV,4,4,16,31,01,119,,30,,,,29,,,,26,,,*48
$GPGGA,101704.0,4933.913050,N,01825.341803,E,1,06,1.4,580.5,M,43.0,M,,*53
$GPVTG,0.0,T,357.6,M,0.0,N,0.0,K,A*24
$GPRMC,101704.0,A,4933.913050,N,01825.341803,E,0.0,0.0,311213,2.4,E,A*03
$GPGSA,A,3,01,11,14,19,28,32,,,,,,,2.3,1.4,1.8*38
$GPGSV,4,1,16,01,60,296,21,32,67,241,21,11,77,229,20,28,14,288,20*72
$GPGSV,4,2,16,14,42,064,19,19,39,185,17,03,11,178,,17,06,324,*71
$GPGSV,4,3,16,20,28,250,,22,13,067,,24,,,,27,06,167,*40
$GPGSV,4,4,16,31,01,119,,30,,,,29,,,,26,,,*48
$GPGGA,101705.0,4933.913050,N,01825.341802,E,1,06,1.4,580.5,M,43.0,M,,*53
$GPVTG,0.0,T,357.6,M,0.0,N,0.0,K,A*24
$GPRMC,101705.0,A,4933.913050,N,01825.341802,E,0.0,0.0,311213,2.4,E,A*03
$GPGSA,A,3,01,11,14,19,28,32,,,,,,,2.3,1.4,1.8*38
$GPGSV,4,1,16,01,60,296,26,32,67,241,22,14,42,064,19,28,14,288,19*7E
$GPGSV,4,2,16,11,77,229,19,19,39,185,17,03,11,178,,17,06,324,*79
$GPGSV,4,3,16,20,28,250,,22,13,067,,24,,,,27,06,167,*40
$GPGSV,4,4,16,31,01,119,,30,,,,29,,,,26,,,*48
$GPGGA,101706.0,4933.913048,N,01825.341800,E,1,06,1.4,580.5,M,43.0,M,,*5B
$GPVTG,0.0,T,357.6,M,0.0,N,0.0,K,A*24
$GPRMC,101706.0,A,4933.913048,N,01825.341800,E,0.0,0.0,311213,2.4,E,A*0B
$GPGSA,A,3,01,11,14,19,28,32,,,,,,,2.3,1.4,1.8*38
$GPGSV,4,1,16,01,60,296,30,32,67,241,26,11,77,229,26,14,42,064,19*75
$GPGSV,4,2,16,19,39,185,18,28,14,288,18,03,11,178,,17,06,324,*73
$GPGSV,4,3,16,20,28,250,,22,13,067,,24,,,,27,06,167,*40
$GPGSV,4,4,16,31,01,119,,30,,,,29,,,,26,,,*48
$GPGGA,101707.0,4933.913045,N,01825.341799,E,1,06,1.4,580.5,M,43.0,M,,*58
$GPVTG,0.0,T,357.6,M,0.0,N,0.0,K,A*24
$GPRMC,101707.0,A,4933.913045,N,01825.341799,E,0.0,0.0,311213,2.4,E,A*08
$GPGSA,A,3,01,11,14,19,28,32,,,,,,,2.3,1.4,1.8*38
$GPGSV,4,1,16,32,67,241,27,11,77,229,26,01,60,296,25,14,42,064,19*70
$GPGSV,4,2,16,19,39,185,19,28,14,288,18,03,11,178,,17,06,324,*72
$GPGSV,4,3,16,20,28,250,,22,13,067,,24,,,,27,06,167,*40
$GPGSV,4,4,16,31,01,119,,30,,,,29,,,,26,,,*48
$GPGGA,101708.0,4933.913045,N,01825.341798,E,1,06,1.4,580.5,M,43.0,M,,*56
$GPVTG,0.0,T,357.6,M,0.0,N,0.0,K,A*24
$GPRMC,101708.0,A,4933.913045,N,01825.341798,E,0.0,0.0,311213,2.4,E,A*06
$GPGSA,A,3,01,11,14,19,28,32,,,,,,,2.3,1.4,1.8*38
$GPGSV,4,1,16,32,67,241,28,01,60,296,26,11,77,229,24,19,39,185,22*79
$GPGSV,4,2,16,14,42,064,19,28,14,288,18,20,28,250,15,03,11,178,*73
$GPGSV,4,3,16,17,06,324,,22,13,067,,24,,,,27,06,167,*4A
$GPGSV,4,4,16,31,01,119,,30,,,,29,,,,26,,,*48
$GPGGA,101709.0,4933.913042,N,01825.341795,E,1,07,1.4,580.5,M,43.0,M,,*5C
$GPVTG,0.0,T,357.6,M,0.0,N,0.0,K,A*24
$GPRMC,101709.0,A,4933.913042,N,01825.341795,E,0.0,0.0,311213,2.4,E,A*0D
$GPGSA,A,3,01,11,14,19,20,28,32,,,,,,2.2,1.4,1.8*3B
$GPGSV,4,1,16,01,60,296,28,32,67,241,26,19,39,185,22,14,42,064,22*77
$GPGSV,4,2,16,11,77,229,21,28,14,288,18,20,28,250,15,03,11,178,*70
$GPGSV,4,3,16,17,06,324,,22,13,067,,24,,,,27,06,167,*4A
$GPGSV,4,4,16,31,01,119,,30,,,,29,,,,26,,,*48
$GPGGA,101710.0,4933.913042,N,01825.341787,E,1,07,1.4,580.4,M,43.0,M,,*56
$GPVTG,0.0,T,357.6,M,0.0,N,0.0,K,A*24
$GPRMC,101710.0,A,4933.913042,N,01825.341787,E,0.0,0.0,311213,2.4,E,A*06
$GPGSA,A,3,01,11,14,19,20,28,32,,,,,,2.2,1.4,1.8*3B
$GPGSV,4,1,16,01,60,296,27,32,67,241,26,11,77,229,25,19,39,185,22*77
$GPGSV,4,2,16,14,42,064,22,28,14,288,18,20,28,250,15,03,11,178,*7B
$GPGSV,4,3,16,17,06,324,,22,13,067,,24,,,,27,06,167,*4A
$GPGSV,4,4,16,31,01,119,,30,,,,29,,,,26,,,*48
$GPGGA,101711.0,4933.913041,N,01825.341783,E,1,07,1.4,580.4,M,43.0,M,,*50
$GPVTG,0.0,T,357.6,M,0.0,N,0.0,K,A*24
$GPRMC,101711.0,A,4933.913041,N,01825.341783,E,0.0,0.0,311213,2.4,E,A*00
$GPGSA,A,3,01,11,14,19,20,28,32,,,,,,2.2,1.4,1.8*3B
$GPGSV,4,1,16,32,67,241,29,01,60,296,23,11,77,229,22,19,39,185,20*79
$GPGSV,4,2,16,14,42,064,19,28,14,288,18,20,28,250,15,03,11,178,*73
$GPGSV,4,3,16,17,06,324,,22,13,067,,24,,,,27,06,167,*4A
$GPGSV,4,4,16,31,01,119,,30,,,,29,,,,26,,,*48
$GPGGA,101712.0,4933.913038,N,01825.341784,E,1,07,1.4,580.5,M,43.0,M,,*5B
$GPVTG,0.0,T,357.6,M,0.0,N,0.0,K,A*24
$GPRMC,101712.0,A,4933.913038,N,01825.341784,E,0.0,0.0,311213,2.4,E,A*0A
$GPGSA,A,3,01,11,14,19,20,28,32,,,,,,2.2,1.4,1.8*3B
$GPGSV,4,1,16,32,67,241,29,01,60,296,23,11,77,229,22,19,39,185,20*79
$GPGSV,4,2,16,14,42,064,19,28,14,288,18,20,28,250,15,03,11,178,*73
$GPGSV,4,3,16,17,06,324,,22,13,067,,24,,,,27,06,167,*4A
$GPGSV,4,4,16,31,01,119,,30,,,,29,,,,26,,,*48
$GPGGA,101713.0,4933.913038,N,01825.341784,E,1,07,666.6,580.5,M,43.0,M,,*5F
$GPVTG,0.0,T,0.0,M,0.0,N,0.0,K,A*23
$GPRMC,101713.0,A,4933.913038,N,01825.341784,E,0.0,0.0,311213,,,A*66
$GPGSA,A,3,01,11,14,19,20,28,32,,,,,,666.6,666.6,666.6*37
$GPGSV,4,1,16,01,60,296,27,32,67,241,25,11,77,229,25,19,39,185,19*7C
$GPGSV,4,2,16,14,42,064,19,28,14,288,18,20,28,250,15,03,11,178,*73
$GPGSV,4,3,16,17,06,324,,22,13,067,,24,,,,27,06,167,*4A
$GPGSV,4,4,16,31,01,119,,30,,,,29,,,,26,,,*48
$GPGGA,101714.0,4933.913039,N,01825.341781,E,1,07,1.8,580.4,M,43.0,M,,*54
$GPVTG,0.0,T,357.6,M,0.0,N,0.0,K,A*24
$GPRMC,101714.0,A,4933.913039,N,01825.341781,E,0.0,0.0,311213,2.4,E,A*08
$GPGSA,A,3,01,11,14,19,20,28,32,,,,,,2.0,1.8,1.0*3D
$GPGSV,4,1,16,01,60,296,25,32,67,241,24,11,77,229,23,19,39,185,22*71
$GPGSV,4,2,16,14,42,064,20,28,14,288,18,20,28,250,18,03,11,178,*74
$GPGSV,4,3,16,17,06,324,,22,13,067,,24,,,,27,06,167,*4A
$GPGSV,4,4,16,31,01,119,,30,,,,29,,,,26,,,*48
$GPGGA,101715.0,4933.913041,N,01825.341781,E,1,07,1.6,580.4,M,43.0,M,,*54
$GPVTG,0.0,T,357.6,M,0.0,N,0.0,K,A*24
$GPRMC,101715.0,A,4933.913041,N,01825.341781,E,0.0,0.0,311213,2.4,E,A*06
$GPGSA,A,3,01,11,14,19,20,28,32,,,,,,2.9,1.6,2.5*3C
$GPGSV,4,1,16,01,60,296,30,32,67,241,28,11,77,229,24,19,39,185,20*7C
$GPGSV,4,2,16,14,42,064,18,20,28,250,17,28,14,288,16,03,11,178,*7E
$GPGSV,4,3,16,17,06,324,,22,13,067,,24,,,,27,06,167,*4A
$GPGSV,4,4,16,31,01,119,,30,,,,29,,,,26,,,*48
$GPGGA,101716.0,4933.913041,N,01825.341780,E,1,07,1.4,580.5,M,43.0,M,,*55
$GPVTG,0.0,T,357.6,M,0.0,N,0.0,K,A*24
$GPRMC,101716.0,A,4933.913041,N,01825.341780,E,0.0,0.0,311213,2.4,E,A*04
$GPGSA,A,3,01,11,14,19,20,28,32,,,,,,2.2,1.4,1.8*3B
$GPGSV,4,1,16,01,60,296,28,19,39,185,22,11,77,229,22,32,67,241,22*7B
$GPGSV,4,2,16,14,42,064,20,20,28,250,17,28,14,288,16,03,11,178,*75
$GPGSV,4,3,16,17,06,324,,22,13,067,,24,,,,27,06,167,*4A
$GPGSV,4,4,16,31,01,119,,30,,,,29,,,,26,,,*48
$GPGGA,101717.0,4933.913042,N,01825.341775,E,1,07,1.4,580.5,M,43.0,M,,*5D
$GPVTG,0.0,T,357.6,M,0.0,N,0.0,K,A*24
$GPRMC,101717.0,A,4933.913042,N,01825.341775,E,0.0,0.0,311213,2.4,E,A*0C
$GPGSA,A,3,01,11,14,19,20,28,32,,,,,,2.2,1.4,1.8*3B
$GPGSV,4,1,16,01,60,296,28,19,39,185,25,11,77,229,23,32,67,241,21*7E
$GPGSV,4,2,16,14,42,064,19,20,28,250,17,28,14,288,16,03,11,178,*7F
$GPGSV,4,3,16,17,06,324,,22,13,067,,24,,,,27,06,167,*4A
$GPGSV,4,4,16,31,01,119,,30,,,,29,,,,26,,,*48
$GPGGA,101718.0,4933.913143,N,01825.341278,E,1,07,1.4,580.5,M,43.0,M,,*5A
$GPVTG,287.3,T,284.9,M,2.0,N,3.7,K,A*2C
$GPRMC,101718.0,A,4933.913143,N,01825.341278,E,2.0,287.3,311213,2.4,E,A*07
$GPGSA,A,3,01,11,14,19,20,28,32,,,,,,2.2,1.4,1.8*3B
$GPGSV,4,1,16,01,60,296,29,11,77,229,25,19,39,185,25,32,67,241,23*7B
$GPGSV,4,2,16,14,42,064,21,28,14,288,16,20,28,250,16,03,11,178,*75
$GPGSV,4,3,16,17,06,324,,22,13,067,,24,,,,27,06,167,*4A
$GPGSV,4,4,16,31,01,119,,30,,,,29,,,,26,,,*48
$GPGGA,101719.0,4933.915370,N,01825.336444,E,1,07,1.4,580.5,M,43.0,M,,*56
$GPVTG,285.7,T,283.3,M,2.5,N,4.6,K,A*24
$GPRMC,101719.0,A,4933.915370,N,01825.336444,E,2.5,285.7,311213,2.4,E,A*08
$GPGSA,A,3,01,11,14,19,20,28,32,,,,,,2.2,1.4,1.8*3B
$GPGSV,4,1,16,01,60,296,30,32,67,241,25,19,39,185,25,11,77,229,24*74
$GPGSV,4,2,16,14,42,064,19,28,14,288,16,20,28,250,16,03,11,178,*7E
$GPGSV,4,3,16,17,06,324,,22,13,067,,24,,,,27,06,167,*4A
$GPGSV,4,4,16,31,01,119,,30,,,,29,,,,26,,,*48
$GPGGA,101720.0,4933.916062,N,01825.333924,E,1,07,1.4,579.9,M,43.0,M,,*5B
$GPVTG,281.3,T,278.9,M,2.7,N,5.0,K,A*2F
$GPRMC,101720.0,A,4933.916062,N,01825.333924,E,2.7,281.3,311213,2.4,E,A*0D
$GPGSA,A,3,01,11,14,19,20,28,32,,,,,,2.2,1.4,1.8*3B
$GPGSV,4,1,16,01,60,296,29,19,39,185,25,32,67,241,24,14,42,064,23*72
$GPGSV,4,2,16,28,14,288,20,11,77,229,19,20,28,250,16,03,11,178,*73
$GPGSV,4,3,16,17,06,324,,22,13,067,,24,,,,27,06,167,*4A
$GPGSV,4,4,16,31,01,119,,30,,,,29,,,,26,,,*48
$GPGGA,101721.0,4933.915988,N,01825.328056,E,1,07,3.6,577.5,M,43.0,M,,*50
$GPVTG,290.2,T,287.8,M,2.3,N,4.3,K,A*29
$GPRMC,101721.0,A,4933.915988,N,01825.328056,E,2.3,290.2,311213,2.4,E,A*01
$GPGSA,A,3,01,11,14,19,20,28,32,,,,,,4.8,3.6,3.0*3D
$GPGSV,4,1,16,01,60,296,29,19,39,185,25,32,67,241,24,14,42,064,23*72
$GPGSV,4,2,16,28,14,288,20,11,77,229,19,20,28,250,16,03,11,178,*73
$GPGSV,4,3,16,17,06,324,,22,13,067,,24,,,,27,06,167,*4A
$GPGSV,4,4,16,31,01,119,,30,,,,29,,,,26,,,*48
$GPGGA,101722.0,4933.916209,N,01825.327133,E,1,07,3.6,577.5,M,43.0,M,,*5F
$GPVTG,290.2,T,287.8,M,2.3,N,4.3,K,A*29
$GPRMC,101722.0,A,4933.916209,N,01825.327133,E,2.3,290.2,311213,2.4,E,A*0E
$GPGSA,A,3,01,11,14,19,20,28,32,,,,,,4.8,3.6,3.0*3D
$GPGSV,4,1,16,01,60,296,28,32,67,241,24,11,77,229,22,14,42,064,21*71
$GPGSV,4,2,16,28,14,288,20,19,39,185,18,17,06,324,18,03,11,178,*71
$GPGSV,4,3,16,20,28,250,,22,13,067,,24,,,,27,06,167,*40
$GPGSV,4,4,16,31,01,119,,30,,,,29,,,,26,,,*48
$GPGGA,101723.0,4933.916716,N,01825.325736,E,1,08,1.5,577.7,M,43.0,M,,*58
$GPVTG,297.5,T,295.1,M,2.8,N,5.2,K,A*28
$GPRMC,101723.0,A,4933.916716,N,01825.325736,E,2.8,297.5,311213,2.4,E,A*0E
$GPGSA,A,3,01,11,14,17,19,20,28,32,,,,,2.3,1.5,1.7*32
$GPGSV,4,1,16,01,60,296,27,32,67,241,23,14,42,064,23,11,77,229,20*79
$GPGSV,4,2,16,28,14,288,17,17,06,324,17,19,39,185,16,20,28,250,15*72
$GPGSV,4,3,16,03,11,178,,22,13,067,,24,,,,27,06,167,*42
$GPGSV,4,4,16,31,01,119,,30,,,,29,,,,26,,,*48
$GPGGA,101727.0,4933.915522,N,01825.321288,E,1,08,1.3,577.9,M,43.0,M,,*56
$GPVTG,296.8,T,294.4,M,1.9,N,3.4,K,A*22
$GPRMC,101727.0,A,4933.915522,N,01825.321288,E,1.9,296.8,311213,2.4,E,A*06
$GPGSA,A,3,01,11,14,17,19,20,28,32,,,,,2.0,1.3,1.6*36
$GPGSV,4,1,16,01,60,296,27,32,67,241,23,11,77,229,22,28,14,288,19*7E
$GPGSV,4,2,16,14,42,064,19,17,06,324,18,19,39,185,16,20,28,250,16*7C
$GPGSV,4,3,16,03,11,178,,22,13,067,,24,,,,27,06,167,*42
$GPGSV,4,4,16,31,01,119,,30,,,,29,,,,26,,,*48
$GPGGA,101729.0,4933.915894,N,01825.317221,E,1,08,1.3,576.2,M,43.0,M,,*54
$GPVTG,296.7,T,294.3,M,1.4,N,2.6,K,A*24
$GPRMC,101729.0,A,4933.915894,N,01825.317221,E,1.4,296.7,311213,2.4,E,A*0C
$GPGSA,A,3,01,11,14,17,19,20,28,32,,,,,2.0,1.3,1.6*36
$GPGSV,4,1,16,01,60,296,28,32,67,241,26,11,77,229,25,14,42,064,20*75
$GPGSV,4,2,16,28,14,288,18,17,06,324,18,19,39,185,17,20,28,250,16*70
$GPGSV,4,3,16,03,11,178,,22,13,067,,24,,,,27,06,167,*42
$GPGSV,4,4,16,31,01,119,,30,,,,29,,,,26,,,*48
$GPGGA,101731.0,4933.917348,N,01825.313447,E,1,08,1.3,575.7,M,43.0,M,,*51
$GPVTG,304.2,T,301.8,M,2.0,N,3.7,K,A*2A
$GPRMC,101731.0,A,4933.917348,N,01825.313447,E,2.0,304.2,311213,2.4,E,A*07
$GPGSA,A,3,01,11,14,17,19,20,28,32,,,,,2.0,1.3,1.6*36
$GPGSV,4,1,16,01,60,296,33,32,67,241,26,11,77,229,24,28,14,288,23*71
$GPGSV,4,2,16,19,39,185,21,17,06,324,19,14,42,064,17,20,28,250,16*77
$GPGSV,4,3,16,03,11,178,,22,13,067,,24,,,,27,06,167,*42
$GPGSV,4,4,16,31,01,119,,30,,,,29,,,,26,,,*48
$GPGGA,101733.0,4933.918691,N,01825.311644,E,1,08,1.3,574.0,M,43.0,M,,*58
$GPVTG,313.7,T,311.3,M,1.9,N,3.5,K,A*2B
$GPRMC,101733.0,A,4933.918691,N,01825.311644,E,1.9,313.7,311213,2.4,E,A*01
$GPGSA,A,3,01,11,14,17,19,20,28,32,,,,,2.0,1.3,1.6*36
$GPGSV,4,1,16,01,60,296,28,32,67,241,27,28,14,288,26,11,77,229,23*78
$GPGSV,4,2,16,19,39,185,22,17,06,324,19,14,42,064,18,20,28,250,16*7B
$GPGSV,4,3,16,03,11,178,,22,13,067,,24,,,,27,06,167,*42
$GPGSV,4,4,16,31,01,119,,30,,,,29,,,,26,,,*48
$GPGGA,101734.0,4933.918154,N,01825.311692,E,1,08,1.3,571.4,M,43.0,M,,*5B
$GPVTG,313.7,T,311.3,M,0.0,N,0.0,K,A*25
$GPRMC,101734.0,A,4933.918154,N,01825.311692,E,0.0,313.7,311213,2.4,E,A*0B
$GPGSA,A,3,01,11,14,17,19,20,28,32,,,,,2.0,1.3,1.6*36
$GPGSV,4,1,16,32,67,241,29,11,77,229,29,01,60,296,28,19,39,185,22*7B
$GPGSV,4,2,16,28,14,288,22,14,42,064,21,20,28,250,21,17,06,324,19*76
$GPGSV,4,3,16,03,11,178,,22,13,067,,24,,,,27,06,167,*42
$GPGSV,4,4,16,31,01,119,,30,,,,29,,,,26,,,*48
$GPGGA,101735.0,4933.918110,N,01825.311727,E,1,08,2.3,571.3,M,43.0,M,,*51
$GPVTG,313.7,T,311.3,M,0.0,N,0.0,K,A*25
$GPRMC,101735.0,A,4933.918110,N,01825.311727,E,0.0,313.7,311213,2.4,E,A*05
$GPGSA,A,3,01,11,14,17,19,20,28,32,,,,,3.2,2.3,2.1*32
$GPGSV,4,1,16,32,67,241,29,11,77,229,29,01,60,296,28,19,39,185,22*7B
$GPGSV,4,2,16,28,14,288,22,14,42,064,21,20,28,250,21,17,06,324,19*76
$GPGSV,4,3,16,03,11,178,,22,13,067,,24,,,,27,06,167,*42
$GPGSV,4,4,16,31,01,119,,30,,,,29,,,,26,,,*48
$GPGGA,101736.0,4933.918110,N,01825.311727,E,1,08,2.3,571.3,M,43.0,M,,*52
$GPVTG,313.7,T,311.3,M,0.0,N,0.0,K,A*25
$GPRMC,101736.0,A,4933.918110,N,01825.311727,E,0.0,313.7,311213,2.4,E,A*06
$GPGSA,A,3,01,11,14,17,19,20,28,32,,,,,3.2,2.3,2.1*32
$GPGSV,4,1,16,01,60,296,31,32,67,241,30,11,77,229,30,14,42,064,26*78
$GPGSV,4,2,16,28,14,288,22,20,28,250,21,19,39,185,20,03,11,178,*78
$GPGSV,4,3,16,17,06,324,,22,13,067,,24,,,,27,06,167,*4A
$GPGSV,4,4,16,31,01,119,,30,,,,29,,,,26,,,*48
$GPGGA,101737.0,4933.918022,N,01825.311359,E,1,08,2.5,571.3,M,43.0,M,,*58
$GPVTG,313.2,T,310.8,M,1.8,N,3.3,K,A*23
$GPRMC,101737.0,A,4933.918022,N,01825.311359,E,1.8,313.2,311213,2.4,E,A*06
$GPGSA,A,3,01,11,14,17,19,20,28,32,,,,,5.8,2.5,5.3*3D
$GPGSV,4,1,16,01,60,296,33,11,77,229,31,32,67,241,28,14,42,064,21*75
$GPGSV,4,2,16,19,39,185,21,03,11,178,,17,06,324,,20,28,250,*72
$GPGSV,4,3,16,22,13,067,,24,,,,27,06,167,,28,14,288,*42
$GPGSV,4,4,16,31,01,119,,30,,,,29,,,,26,,,*48
$GPGGA,101737.9,4933.919494,N,01825.310462,E,1,07,2.5,572.4,M,43.0,M,,*5C
$GPVTG,315.5,T,313.1,M,1.8,N,3.3,K,A*28
$GPRMC,101737.9,A,4933.919494,N,01825.310462,E,1.8,315.5,311213,2.4,E,A*08
$GPGSA,A,3,01,11,14,19,20,28,32,,,,,,5.8,2.5,5.3*3B
$GPGSV,4,1,16,11,77,229,32,32,67,241,32,01,60,296,30,14,42,064,25*7A
$GPGSV,4,2,16,19,39,185,21,03,11,178,,17,06,324,,20,28,250,*72
$GPGSV,4,3,16,22,13,067,,24,,,,27,06,167,,28,14,288,*42
$GPGSV,4,4,16,31,01,119,,30,,,,29,,,,26,,,*48
$GPGGA,101739.0,4933.917588,N,01825.306357,E,1,07,3.2,573.7,M,43.0,M,,*5B
$GPVTG,292.8,T,290.4,M,2.0,N,3.8,K,A*24
$GPRMC,101739.0,A,4933.917588,N,01825.306357,E,2.0,292.8,311213,2.4,E,A*03
$GPGSA,A,3,01,11,14,19,20,28,32,,,,,,3.4,3.2,1.0*30
$GPGSV,4,1,16,01,60,296,32,32,67,241,30,11,77,229,29,14,42,064,23*76
$GPGSV,4,2,16,19,39,185,21,03,11,178,,17,06,324,,20,28,250,*72
$GPGSV,4,3,16,22,13,067,,24,,,,27,06,167,,28,14,288,*42
$GPGSV,4,4,16,31,01,119,,30,,,,29,,,,26,,,*48
$GPGGA,101741.0,4933.916904,N,01825.300870,E,1,07,1.8,574.6,M,43.0,M,,*5B
$GPVTG,270.2,T,267.8,M,2.2,N,4.1,K,A*2A
$GPRMC,101741.0,A,4933.916904,N,01825.300870,E,2.2,270.2,311213,2.4,E,A*09
$GPGSA,A,3,01,11,14,19,20,28,32,,,,,,2.0,1.8,1.0*3D
$GPGSV,4,1,16,32,67,241,32,11,77,229,31,01,60,296,29,14,42,064,23*77
$GPGSV,4,2,16,20,28,250,19,19,39,185,19,03,11,178,,17,06,324,*71
$GPGSV,4,3,16,22,13,067,,24,,,,27,06,167,,28,14,288,*42
$GPGSV,4,4,16,31,01,119,,30,,,,29,,,,26,,,*48
$GPGGA,101742.0,4933.917129,N,01825.301571,E,1,06,1.6,575.2,M,43.0,M,,*59
$GPVTG,270.2,T,267.8,M,0.0,N,0.0,K,A*2F
$GPRMC,101742.0,A,4933.917129,N,01825.301571,E,0.0,270.2,311213,2.4,E,A*01
$GPGSA,A,3,01,11,14,19,20,32,,,,,,,2.9,1.6,2.5*36
$GPGSV,4,1,16,01,60,296,33,32,67,241,32,11,77,229,30,14,42,064,24*7A
$GPGSV,4,2,16,28,14,288,21,19,39,185,20,20,28,250,19,03,11,178,*70
$GPGSV,4,3,16,17,06,324,,22,13,067,,24,,,,27,06,167,*4A
$GPGSV,4,4,16,31,01,119,,30,,,,29,,,,26,,,*48
$GPGGA,101743.0,4933.917253,N,01825.301247,E,1,07,1.4,575.2,M,43.0,M,,*57
$GPVTG,300.6,T,298.2,M,1.9,N,3.5,K,A*29
$GPRMC,101743.0,A,4933.917253,N,01825.301247,E,1.9,300.6,311213,2.4,E,A*06
$GPGSA,A,3,01,11,14,19,20,28,32,,,,,,2.2,1.4,1.8*3B
$GPGSV,4,1,16,01,60,296,32,32,67,241,30,11,77,229,27,28,14,288,21*76
$GPGSV,4,2,16,14,42,064,21,19,39,185,20,20,28,250,20,03,11,178,*76
$GPGSV,4,3,16,17,06,324,,22,13,067,,24,,,,27,06,167,*4A
$GPGSV,4,4,16,31,01,119,,30,,,,29,,,,26,,,*48
$GPGGA,101744.0,4933.917173,N,01825.301496,E,1,07,3.1,576.9,M,43.0,M,,*54
$GPVTG,310.9,T,308.5,M,1.5,N,2.8,K,A*28
$GPRMC,101744.0,A,4933.917173,N,01825.301496,E,1.5,310.9,311213,2.4,E,A*08
$GPGSA,A,3,01,11,14,19,20,28,32,,,,,,4.0,3.1,2.5*36
$GPGSV,4,1,16,11,77,229,33,32,67,241,30,01,60,296,27,14,42,064,21*7B
$GPGSV,4,2,16,20,28,250,20,03,11,178,,17,06,324,,19,39,185,*73
$GPGSV,4,3,16,22,13,067,,24,,,,27,06,167,,28,14,288,*42
$GPGSV,4,4,16,31,01,119,,30,,,,29,,,,26,,,*48
$GPGGA,101745.0,4933.918856,N,01825.300680,E,1,07,9.0,577.0,M,43.0,M,,*53
$GPVTG,318.1,T,315.7,M,1.8,N,3.4,K,A*26
$GPRMC,101745.0,A,4933.918856,N,01825.300680,E,1.8,318.1,311213,2.4,E,A*01
$GPGSA,A,3,01,11,14,19,20,28,32,,,,,,9.1,9.0,1.0*37
$GPGSV,4,1,16,32,67,241,32,11,77,229,31,01,60,296,31,28,14,288,20*71
$GPGSV,4,2,16,20,28,250,20,14,42,064,19,03,11,178,,17,06,324,*74
$GPGSV,4,3,16,19,39,185,,22,13,067,,24,,,,27,06,167,*41
$GPGSV,4,4,16,31,01,119,,30,,,,29,,,,26,,,*48
$GPGGA,101746.0,4933.919465,N,01825.300105,E,1,07,2.3,577.6,M,43.0,M,,*59
$GPVTG,324.9,T,322.5,M,2.0,N,3.7,K,A*2F
$GPRMC,101746.0,A,4933.919465,N,01825.300105,E,2.0,324.9,311213,2.4,E,A*09
$GPGSA,A,3,01,11,14,19,20,28,32,,,,,,3.2,2.3,2.1*34
$GPGSV,4,1,16,01,60,296,30,32,67,241,30,11,77,229,29,19,39,185,19*72
$GPGSV,4,2,16,28,14,288,19,14,42,064,18,20,28,250,18,03,11,178,*7E
$GPGSV,4,3,16,17,06,324,,22,13,067,,24,,,,27,06,167,*4A
$GPGSV,4,4,16,31,01,119,,30,,,,29,,,,26,,,*48
$GPGGA,101747.0,4933.919572,N,01825.300134,E,1,07,1.4,578.1,M,43.0,M,,*51
$GPVTG,324.9,T,322.5,M,0.0,N,0.0,K,A*29
$GPRMC,101747.0,A,4933.919572,N,01825.300134,E,0.0,324.9,311213,2.4,E,A*0F
$GPGSA,A,3,01,11,14,19,20,28,32,,,,,,2.2,1.4,1.8*3B
$GPGSV,4,1,16,32,67,241,30,01,60,296,29,11,77,229,29,14,42,064,20*7F
$GPGSV,4,2,16,19,39,185,20,28,14,288,18,20,28,250,17,03,11,178,*74
$GPGSV,4,3,16,17,06,324,,22,13,067,,24,,,,27,06,167,*4A
$GPGSV,4,4,16,31,01,119,,30,,,,29,,,,26,,,*48
$GPGGA,101748.0,4933.919400,N,01825.300309,E,1,07,1.4,578.2,M,43.0,M,,*55
$GPVTG,324.9,T,322.5,M,0.0,N,0.0,K,A*29
$GPRMC,101748.0,A,4933.919400,N,01825.300309,E,0.0,324.9,311213,2.4,E,A*08
$GPGSA,A,3,01,11,14,19,20,28,32,,,,,,2.2,1.4,1.8*3B
$GPGSV,4,1,16,32,67,241,33,01,60,296,31,11,77,229,30,14,42,064,21*7C
$GPGSV,4,2,16,19,39,185,19,28,14,288,17,20,28,250,17,03,11,178,*71
$GPGSV,4,3,16,17,06,324,,22,13,067,,24,,,,27,06,167,*4A
$GPGSV,4,4,16,31,01,119,,30,,,,29,,,,26,,,*48
$GPGGA,101749.0,4933.919135,N,01825.300269,E,1,07,1.4,578.5,M,43.0,M,,*57
$GPVTG,324.9,T,322.5,M,0.0,N,0.0,K,A*29
$GPRMC,101749.0,A,4933.919135,N,01825.300269,E,0.0,324.9,311213,2.4,E,A*0D
$GPGSA,A,3,01,11,14,19,20,28,32,,,,,,2.2,1.4,1.8*3B
$GPGSV,4,1,16,32,67,241,32,01,60,296,29,11,77,229,29,14,42,064,20*7D
$GPGSV,4,2,16,19,39,185,19,28,14,288,17,20,28,250,17,03,11,178,*71
$GPGSV,4,3,16,17,06,324,,22,13,067,,24,,,,27,06,167,*4A
$GPGSV,4,4,16,31,01,119,,30,,,,29,,,,26,,,*48
$GPGGA,101750.0,4933.919012,N,01825.299658,E,1,07,1.4,579.0,M,43.0,M,,*58
$GPVTG,324.9,T,322.5,M,0.0,N,0.0,K,A*29
$GPRMC,101750.0,A,4933.919012,N,01825.299658,E,0.0,324.9,311213,2.4,E,A*06
$GPGSA,A,3,01,11,14,19,20,28,32,,,,,,2.2,1.4,1.8*3B
$GPGSV,4,1,16,32,67,241,30,11,77,229,30,01,60,296,28,14,42,064,21*77
$GPGSV,4,2,16,19,39,185,19,20,28,250,17,28,14,288,17,03,11,178,*71
$GPGSV,4,3,16,17,06,324,,22,13,067,,24,,,,27,06,167,*4A
$GPGSV,4,4,16,31,01,119,,30,,,,29,,,,26,,,*48
$GPGGA,101751.0,4933.919039,N,01825.299398,E,1,07,1.4,579.3,M,43.0,M,,*5A
$GPVTG,324.9,T,322.5,M,0.0,N,0.0,K,A*29
$GPRMC,101751.0,A,4933.919039,N,01825.299398,E,0.0,324.9,311213,2.4,E,A*07
$GPGSA,A,3,01,11,14,19,20,28,32,,,,,,2.2,1.4,1.8*3B
$GPGSV,4,1,16,32,67,241,32,01,60,296,28,11,77,229,26,19,39,185,19*76
$GPGSV,4,2,16,14,42,064,18,28,14,288,16,20,28,250,16,03,11,178,*7F
$GPGSV,4,3,16,17,06,324,,22,13,067,,24,,,,27,06,167,*4A
$GPGSV,4,4,16,31,01,119,,30,,,,29,,,,26,,,*48
$GPGGA,101752.0,4933.919084,N,01825.298896,E,1,07,1.4,579.7,M,43.0,M,,*5F
$GPVTG,324.9,T,322.5,M,0.0,N,0.0,K,A*29
$GPRMC,101752.0,A,4933.919084,N,01825.298896,E,0.0,324.9,311213,2.4,E,A*06
$GPGSA,A,3,01,11,14,19,20,28,32,,,,,,2.2,1.4,1.8*3B
$GPGSV,4,1,16,32,67,241,31,01,60,296,27,11,77,229,26,14,42,064,18*74
$GPGSV,4,2,16,19,39,185,17,20,28,250,16,28,14,288,16,03,11,178,*7F
$GPGSV,4,3,16,17,06,324,,22,13,067,,24,,,,27,06,167,*4A
$GPGSV,4,4,16,31,01,119,,30,,,,29,,,,26,,,*48
$GPGGA,101753.0,4933.919238,N,01825.298846,E,1,07,1.4,579.8,M,43.0,M,,*59
$GPVTG,324.9,T,322.5,M,0.0,N,0.0,K,A*29
$GPRMC,101753.0,A,4933.919238,N,01825.298846,E,0.0,324.9,311213,2.4,E,A*0F
$GPGSA,A,3,01,11,14,19,20,28,32,,,,,,2.2,1.4,1.8*3B
$GPGSV,4,1,16,32,67,241,28,01,60,296,28,11,77,229,26,19,39,185,22*75
$GPGSV,4,2,16,14,42,064,19,20,28,250,16,28,14,288,16,03,11,178,*7E
$GPGSV,4,3,16,17,06,324,,22,13,067,,24,,,,27,06,167,*4A
$GPGSV,4,4,16,31,01,119,,30,,,,29,,,,26,,,*48
$GPGGA,101754.0,4933.919313,N,01825.298374,E,1,07,1.4,580.4,M,43.0,M,,*56
$GPVTG,324.9,T,322.5,M,0.0,N,0.0,K,A*29
$GPRMC,101754.0,A,4933.919313,N,01825.298374,E,0.0,324.9,311213,2.4,E,A*0A
$GPGSA,A,3,01,11,14,19,20,28,32,,,,,,2.2,1.4,1.8*3B
$GPGSV,4,1,16,32,67,241,29,01,60,296,26,11,77,229,23,19,39,185,22*7F
$GPGSV,4,2,16,14,42,064,19,20,28,250,16,28,14,288,16,03,11,178,*7E
$GPGSV,4,3,16,17,06,324,,22,13,067,,24,,,,27,06,167,*4A
$GPGSV,4,4,16,31,01,119,,30,,,,29,,,,26,,,*48
$GPGGA,101755.0,4933.919262,N,01825.298006,E,1,07,1.4,580.6,M,43.0,M,,*54
$GPVTG,324.9,T,322.5,M,0.0,N,0.0,K,A*29
$GPRMC,101755.0,A,4933.919262,N,01825.298006,E,0.0,324.9,311213,2.4,E,A*0A
$GPGSA,A,3,01,11,14,19,20,28,32,,,,,,2.2,1.4,1.8*3B
$GPGSV,4,1,16,32,67,241,29,11,77,229,25,01,60,296,24,14,42,064,19*7C
$GPGSV,4,2,16,20,28,250,16,19,39,185,16,28,14,288,16,03,11,178,*7E
$GPGSV,4,3,16,17,06,324,,22,13,067,,24,,,,27,06,167,*4A
$GPGSV,4,4,16,31,01,119,,30,,,,29,,,,26,,,*48
$GPGGA,101756.0,4933.919458,N,01825.298062,E,1,07,1.4,580.9,M,43.0,M,,*55
$GPVTG,324.9,T,322.5,M,0.0,N,0.0,K,A*29
$GPRMC,101756.0,A,4933.919458,N,01825.298062,E,0.0,324.9,311213,2.4,E,A*04
$GPGSA,A,3,01,11,14,19,20,28,32,,,,,,2.2,1.4,1.8*3B
$GPGSV,4,1,16,01,60,296,31,32,67,241,28,11,77,229,25,19,39,185,19*76
$GPGSV,4,2,16,20,28,250,16,14,42,064,16,28,14,288,15,03,11,178,*72
$GPGSV,4,3,16,17,06,324,,22,13,067,,24,,,,27,06,167,*4A
$GPGSV,4,4,16,31,01,119,,30,,,,29,,,,26,,,*48
$GPGGA,101800.0,4933.919540,N,01825.298077,E,1,07,1.4,581.0,M,43.0,M,,*5D
$GPVTG,324.9,T,322.5,M,0.0,N,0.0,K,A*29
$GPRMC,101800.0,A,4933.919540,N,01825.298077,E,0.0,324.9,311213,2.4,E,A*04
$GPGSA,A,3,01,11,14,19,20,28,32,,,,,,2.2,1.4,1.8*3B
$GPGSV,4,1,16,32,67,241,27,11,77,229,22,01,60,296,22,19,39,185,19*7C
$GPGSV,4,2,16,20,28,250,16,14,42,064,16,28,14,288,15,03,11,178,*72
$GPGSV,4,3,16,17,06,324,,22,13,067,,24,,,,27,06,167,*4A
$GPGSV,4,4,16,31,01,119,,30,,,,29,,,,26,,,*48
$GPGGA,101801.0,4933.919547,N,01825.298086,E,1,07,1.4,581.0,M,43.0,M,,*55
$GPVTG,324.9,T,322.5,M,0.0,N,0.0,K,A*29
$GPRMC,101801.0,A,4933.919547,N,01825.298086,E,0.0,324.9,311213,2.4,E,A*0C
$GPGSA,A,3,01,11,14,19,20,28,32,,,,,,2.2,1.4,1.8*3B
$GPGSV,4,1,16,01,60,296,32,32,67,241,28,11,77,229,20,14,42,064,19*7F
$GPGSV,4,2,16,20,28,250,16,28,14,288,15,19,39,185,15,03,11,178,*7E
$GPGSV,4,3,16,17,06,324,,22,13,067,,24,,,,27,06,167,*4A
$GPGSV,4,4,16,31,01,119,,30,,,,29,,,,26,,,*48
$GPGGA,101803.0,4933.919520,N,01825.298000,E,1,07,1.4,581.1,M,43.0,M,,*59
$GPVTG,324.9,T,322.5,M,0.0,N,0.0,K,A*29
$GPRMC,101803.0,A,4933.919520,N,01825.298000,E,0.0,324.9,311213,2.4,E,A*01
$GPGSA,A,3,01,11,14,19,20,28,32,,,,,,2.2,1.4,1.8*3B
$GPGSV,4,1,16,01,60,296,33,11,77,229,25,14,42,064,23,32,67,241,20*7A
$GPGSV,4,2,16,20,28,250,16,28,14,288,15,19,39,185,15,03,11,178,*7E
$GPGSV,4,3,16,17,06,324,,22,13,067,,24,,,,27,06,167,*4A
$GPGSV,4,4,16,31,01,119,,30,,,,29,,,,26,,,*48
$GPGGA,101804.0,4933.919497,N,01825.297949,E,1,05,1.4,581.1,M,43.0,M,,*5A
$GPVTG,324.9,T,322.5,M,0.0,N,0.0,K,A*29
$GPRMC,101804.0,A,4933.919497,N,01825.297949,E,0.0,324.9,311213,2.4,E,A*00
$GPGSA,A,3,01,11,14,19,32,,,,,,,,2.2,1.4,1.8*33
$GPGSV,4,1,16,01,60,296,32,14,42,064,26,11,77,229,25,32,67,241,24*7A
$GPGSV,4,2,16,20,28,250,16,28,14,288,15,19,39,185,15,03,11,178,*7E
$GPGSV,4,3,16,17,06,324,,22,13,067,,24,,,,27,06,167,*4A
$GPGSV,4,4,16,31,01,119,,30,,,,29,,,,26,,,*48
$GPGGA,101805.0,4933.919471,N,01825.297891,E,1,05,1.8,581.1,M,43.0,M,,*5B
$GPVTG,324.9,T,322.5,M,0.0,N,0.0,K,A*29
$GPRMC,101805.0,A,4933.919471,N,01825.297891,E,0.0,324.9,311213,2.4,E,A*0D
$GPGSA,A,3,01,11,14,19,32,,,,,,,,2.0,1.8,1.0*35
$GPGSV,4,1,16,01,60,296,33,32,67,241,30,14,42,064,26,11,77,229,21*7A
$GPGSV,4,2,16,20,28,250,16,28,14,288,15,19,39,185,15,03,11,178,*7E
$GPGSV,4,3,16,17,06,324,,22,13,067,,24,,,,27,06,167,*4A
$GPGSV,4,4,16,31,01,119,,30,,,,29,,,,26,,,*48
$GPGGA,101806.0,4933.919476,N,01825.297911,E,1,05,1.8,581.1,M,43.0,M,,*56
$GPVTG,324.9,T,322.5,M,0.0,N,0.0,K,A*29
$GPRMC,101806.0,A,4933.919476,N,01825.297911,E,0.0,324.9,311213,2.4,E,A*00
$GPGSA,A,3,01,11,14,19,32,,,,,,,,2.0,1.8,1.0*35
$GPGSV,4,1,16,01,60,296,32,11,77,229,30,32,67,241,30,14,42,064,26*7B
$GPGSV,4,2,16,20,28,250,16,28,14,288,15,19,39,185,15,03,11,178,*7E
$GPGSV,4,3,16,17,06,324,,22,13,067,,24,,,,27,06,167,*4A
$GPGSV,4,4,16,31,01,119,,30,,,,29,,,,26,,,*48
$GPGGA,101808.0,4933.919439,N,01825.297961,E,1,04,9.1,581.0,M,43.0,M,,*55
$GPVTG,324.9,T,322.5,M,0.0,N,0.0,K,A*29
$GPRMC,101808.0,A,4933.919439,N,01825.297961,E,0.0,324.9,311213,2.4,E,A*02
$GPGSA,A,3,01,11,14,32,,,,,,,,,9.2,9.1,1.0*35
$GPGSV,4,1,16,11,77,229,32,01,60,296,30,32,67,241,28,14,42,064,16*71
$GPGSV,4,2,16,20,28,250,16,28,14,288,15,19,39,185,15,03,11,178,*7E
$GPGSV,4,3,16,17,06,324,,22,13,067,,24,,,,27,06,167,*4A
$GPGSV,4,4,16,31,01,119,,30,,,,29,,,,26,,,*48
$GPGGA,101809.0,4933.919412,N,01825.297959,E,1,04,3.2,581.0,M,43.0,M,,*5F
$GPVTG,324.9,T,322.5,M,0.0,N,0.0,K,A*29
$GPRMC,101809.0,A,4933.919412,N,01825.297959,E,0.0,324.9,311213,2.4,E,A*01
$GPGSA,A,3,01,11,14,32,,,,,,,,,3.4,3.2,1.0*30
$GPGSV,4,1,16,01,60,296,33,32,67,241,26,11,77,229,25,20,28,250,16*74
$GPGSV,4,2,16,14,42,064,16,28,14,288,15,19,39,185,15,03,11,178,*70
$GPGSV,4,3,16,17,06,324,,22,13,067,,24,,,,27,06,167,*4A
$GPGSV,4,4,16,31,01,119,,30,,,,29,,,,26,,,*48
$GPGGA,101810.0,4933.919409,N,01825.297964,E,1,04,3.2,581.0,M,43.0,M,,*53
$GPVTG,324.9,T,322.5,M,0.0,N,0.0,K,A*29
$GPRMC,101810.0,A,4933.919409,N,01825.297964,E,0.0,324.9,311213,2.4,E,A*0D
$GPGSA,A,3,01,11,14,32,,,,,,,,,3.4,3.2,1.0*30
$GPGSV,4,1,16,01,60,296,35,11,77,229,25,32,67,241,19,14,42,064,17*71
$GPGSV,4,2,16,20,28,250,16,28,14,288,15,19,39,185,15,03,11,178,*7E
$GPGSV,4,3,16,17,06,324,,22,13,067,,24,,,,27,06,167,*4A
$GPGSV,4,4,16,31,01,119,,30,,,,29,,,,26,,,*48
$GPGGA,101811.0,4933.919392,N,01825.297971,E,1,04,3.2,581.0,M,43.0,M,,*53
$GPVTG,324.9,T,322.5,M,0.0,N,0.0,K,A*29
$GPRMC,101811.0,A,4933.919392,N,01825.297971,E,0.0,324.9,311213,2.4,E,A*0D
$GPGSA,A,3,01,11,14,32,,,,,,,,,3.4,3.2,1.0*30
$GPGSV,4,1,16,01,60,296,35,32,67,241,28,11,77,229,23,14,42,064,17*75
$GPGSV,4,2,16,20,28,250,16,28,14,288,15,19,39,185,15,03,11,178,*7E
$GPGSV,4,3,16,17,06,324,,22,13,067,,24,,,,27,06,167,*4A
$GPGSV,4,4,16,31,01,119,,30,,,,29,,,,26,,,*48
$GPGGA,101812.0,4933.919395,N,01825.297991,E,1,04,3.2,581.0,M,43.0,M,,*59
$GPVTG,324.9,T,322.5,M,0.0,N,0.0,K,A*29
$GPRMC,101812.0,A,4933.919395,N,01825.297991,E,0.0,324.9,311213,2.4,E,A*07
$GPGSA,A,3,01,11,14,32,,,,,,,,,3.4,3.2,1.0*30
$GPGSV,4,1,16,01,60,296,31,11,77,229,27,14,42,064,26,32,67,241,26*79
$GPGSV,4,2,16,20,28,250,16,19,39,185,15,28,14,288,15,03,11,178,*7E
$GPGSV,4,3,16,17,06,324,,22,13,067,,24,,,,27,06,167,*4A
$GPGSV,4,4,16,31,01,119,,30,,,,29,,,,26,,,*48
$GPGGA,101815.0,4933.919387,N,01825.298039,E,1,05,1.8,581.0,M,43.0,M,,*50
$GPVTG,324.9,T,322.5,M,0.0,N,0.0,K,A*29
$GPRMC,101815.0,A,4933.919387,N,01825.298039,E,0.0,324.9,311213,2.4,E,A*07
$GPGSA,A,3,01,11,14,19,32,,,,,,,,2.0,1.8,1.0*35
$GPGSV,4,1,16,11,77,229,27,32,67,241,23,14,42,064,23,01,60,296,21*78
$GPGSV,4,2,16,20,28,250,16,19,39,185,15,28,14,288,15,03,11,178,*7E
$GPGSV,4,3,16,17,06,324,,22,13,067,,24,,,,27,06,167,*4A
$GPGSV,4,4,16,31,01,119,,30,,,,29,,,,26,,,*48
$GPGGA,101816.0,4933.919379,N,01825.298073,E,1,05,1.8,581.0,M,43.0,M,,*5C
$GPVTG,324.9,T,322.5,M,0.0,N,0.0,K,A*29
$GPRMC,101816.0,A,4933.919379,N,01825.298073,E,0.0,324.9,311213,2.4,E,A*0B
$GPGSA,A,3,01,11,14,19,32,,,,,,,,2.0,1.8,1.0*35
$GPGSV,4,1,16,14,42,064,23,32,67,241,23,01,60,296,20,11,77,229,20*7E
$GPGSV,4,2,16,28,14,288,15,19,39,185,15,17,06,324,14,20,28,250,14*71
$GPGSV,4,3,16,03,11,178,,22,13,067,,24,,,,27,06,167,*42
$GPGSV,4,4,16,31,01,119,,30,,,,29,,,,26,,,*48
$GPGGA,101818.0,4933.919363,N,01825.298105,E,1,07,1.3,581.0,M,43.0,M,,*50
$GPVTG,324.9,T,322.5,M,0.0,N,0.0,K,A*29
$GPRMC,101818.0,A,4933.919363,N,01825.298105,E,0.0,324.9,311213,2.4,E,A*0E
$GPGSA,A,3,01,11,14,17,19,20,32,,,,,,2.1,1.3,1.6*3D
$GPGSV,4,1,16,32,67,241,21,01,60,296,20,14,42,064,18,11,77,229,18*7F
$GPGSV,4,2,16,19,39,185,16,28,14,288,15,20,28,250,14,17,06,324,14*72
$GPGSV,4,3,16,03,11,178,,22,13,067,,24,,,,27,06,167,*42
$GPGSV,4,4,16,31,01,119,,30,,,,29,,,,26,,,*48
$GPGGA,101820.0,4933.919330,N,01825.298129,E,1,07,1.3,581.0,M,43.0,M,,*53
$GPVTG,324.9,T,322.5,M,0.0,N,0.0,K,A*29
$GPRMC,101820.0,A,4933.919330,N,01825.298129,E,0.0,324.9,311213,2.4,E,A*0D
$GPGSA,A,3,01,11,14,17,19,20,32,,,,,,2.1,1.3,1.6*3D
$GPGSV,4,1,16,01,60,296,21,32,67,241,20,14,42,064,18,11,77,229,18*7F
$GPGSV,4,2,16,19,39,185,16,28,14,288,15,20,28,250,14,17,06,324,14*72
$GPGSV,4,3,16,03,11,178,,22,13,067,,24,,,,27,06,167,*42
$GPGSV,4,4,16,31,01,119,,30,,,,29,,,,26,,,*48
$GPGGA,101821.0,4933.919331,N,01825.298115,E,1,07,1.3,581.0,M,43.0,M,,*5C
$GPVTG,324.9,T,322.5,M,0.0,N,0.0,K,A*29
$GPRMC,101821.0,A,4933.919331,N,01825.298115,E,0.0,324.9,311213,2.4,E,A*02
$GPGSA,A,3,01,11,14,17,19,20,32,,,,,,2.1,1.3,1.6*3D
$GPGSV,4,1,16,32,67,241,23,01,60,296,22,14,42,064,20,11,77,229,18*74
$GPGSV,4,2,16,19,39,185,16,28,14,288,15,20,28,250,14,17,06,324,14*72
$GPGSV,4,3,16,03,11,178,,22,13,067,,24,,,,27,06,167,*42
$GPGSV,4,4,16,31,01,119,,30,,,,29,,,,26,,,*48
$GPGGA,101822.0,4933.919335,N,01825.298147,E,1,07,1.3,581.0,M,43.0,M,,*5C
$GPVTG,324.9,T,322.5,M,0.0,N,0.0,K,A*29
$GPRMC,101822.0,A,4933.919335,N,01825.298147,E,0.0,324.9,311213,2.4,E,A*02
$GPGSA,A,3,01,11,14,17,19,20,32,,,,,,2.1,1.3,1.6*3D
$GPGSV,4,1,16,14,42,064,25,32,67,241,24,01,60,296,20,11,77,229,18*74
$GPGSV,4,2,16,28,14,288,15,19,39,185,14,20,28,250,14,17,06,324,14*70
$GPGSV,4,3,16,03,11,178,,22,13,067,,24,,,,27,06,167,*42
$GPGSV,4,4,16,31,01,119,,30,,,,29,,,,26,,,*48
$GPGGA,101823.0,4933.919306,N,01825.298140,E,1,07,1.3,581.0,M,43.0,M,,*5A
$GPVTG,324.9,T,322.5,M,0.0,N,0.0,K,A*29
$GPRMC,101823.0,A,4933.919306,N,01825.298140,E,0.0,324.9,311213,2.4,E,A*04
$GPGSA,A,3,01,11,14,17,19,20,32,,,,,,2.1,1.3,1.6*3D
$GPGSV,4,1,16,14,42,064,24,11,77,229,24,01,60,296,23,32,67,241,23*7E
$GPGSV,4,2,16,28,14,288,15,20,28,250,14,19,39,185,14,17,06,324,14*70
$GPGSV,4,3,16,03,11,178,,22,13,067,,24,,,,27,06,167,*42
$GPGSV,4,4,16,31,01,119,,30,,,,29,,,,26,,,*48
$GPGGA,101824.0,4933.919297,N,01825.298109,E,1,07,1.3,581.0,M,43.0,M,,*59
$GPVTG,324.9,T,322.5,M,0.0,N,0.0,K,A*29
$GPRMC,101824.0,A,4933.919297,N,01825.298109,E,0.0,324.9,311213,2.4,E,A*07
$GPGSA,A,3,01,11,14,17,19,20,32,,,,,,2.1,1.3,1.6*3D
$GPGSV,4,1,16,14,42,064,26,32,67,241,24,01,60,296,24,11,77,229,23*7B
$GPGSV,4,2,16,28,14,288,15,20,28,250,14,19,39,185,14,17,06,324,14*70
$GPGSV,4,3,16,03,11,178,,22,13,067,,24,,,,27,06,167,*42
$GPGSV,4,4,16,31,01,119,,30,,,,29,,,,26,,,*48
$GPGGA,101825.0,4933.919290,N,01825.298117,E,1,07,1.3,581.0,M,43.0,M,,*50
$GPVTG,324.9,T,322.5,M,0.0,N,0.0,K,A*29
$GPRMC,101825.0,A,4933.919290,N,01825.298117,E,0.0,324.9,311213,2.4,E,A*0E
$GPGSA,A,3,01,11,14,17,19,20,32,,,,,,2.1,1.3,1.6*3D
$GPGSV,4,1,16,14,42,064,27,20,28,250,22,32,67,241,21,11,77,229,19*75
$GPGSV,4,2,16,01,60,296,19,19,39,185,14,17,06,324,14,03,11,178,*7C
$GPGSV,4,3,16,22,13,067,,24,,,,27,06,167,,28,14,288,*42
$GPGSV,4,4,16,31,01,119,,30,,,,29,,,,26,,,*48
$GPGGA,101826.0,4933.919275,N,01825.298153,E,1,06,3.1,581.0,M,43.0,M,,*59
$GPVTG,324.9,T,322.5,M,0.0,N,0.0,K,A*29
$GPRMC,101826.0,A,4933.919275,N,01825.298153,E,0.0,324.9,311213,2.4,E,A*06
$GPGSA,A,3,01,11,14,19,20,32,,,,,,,4.0,3.1,2.5*3C
$GPGSV,4,1,16,14,42,064,27,20,28,250,22,32,67,241,21,11,77,229,19*75
$GPGSV,4,2,16,01,60,296,19,03,11,178,,17,06,324,,19,39,185,*7C
$GPGSV,4,3,16,22,13,067,,24,,,,27,06,167,,28,14,288,*42
$GPGSV,4,4,16,31,01,119,,30,,,,29,,,,26,,,*48
$GPGGA,101827.0,4933.919275,N,01825.298153,E,1,06,666.6,581.0,M,43.0,M,,*5A
$GPVTG,324.9,T,324.9,M,0.0,N,0.0,K,A*23
$GPRMC,101827.0,A,4933.919275,N,01825.298153,E,0.0,324.9,311213,,,A*6A
$GPGSA,A,3,01,11,14,19,20,32,,,,,,,666.6,666.6,666.6*3D
$GPGSV,4,1,16,14,42,064,24,20,28,250,24,32,67,241,23,11,77,229,22*7A
$GPGSV,4,2,16,17,06,324,21,01,60,296,19,03,11,178,,19,39,185,*7F
$GPGSV,4,3,16,22,13,067,,24,,,,27,06,167,,28,14,288,*42
$GPGSV,4,4,16,31,01,119,,30,,,,29,,,,26,,,*48
$GPGGA,101828.0,4933.919231,N,01825.298183,E,1,07,2.6,580.9,M,43.0,M,,*55
$GPVTG,324.9,T,322.5,M,0.0,N,0.0,K,A*29
$GPRMC,101828.0,A,4933.919231,N,01825.298183,E,0.0,324.9,311213,2.4,E,A*05
$GPGSA,A,3,01,11,14,17,19,20,32,,,,,,4.1,2.6,3.1*38
$GPGSV,4,1,16,14,42,064,25,01,60,296,21,17,06,324,21,11,77,229,20*79
$GPGSV,4,2,16,32,67,241,20,19,39,185,20,20,28,250,19,03,11,178,*7B
$GPGSV,4,3,16,22,13,067,,24,,,,27,06,167,,28,14,288,*42
$GPGSV,4,4,16,31,01,119,,30,,,,29,,,,26,,,*48
$GPGGA,101829.0,4933.919185,N,01825.298155,E,1,07,1.3,580.9,M,43.0,M,,*55
$GPVTG,324.9,T,322.5,M,0.0,N,0.0,K,A*29
$GPRMC,101829.0,A,4933.919185,N,01825.298155,E,0.0,324.9,311213,2.4,E,A*03
$GPGSA,A,3,01,11,14,17,19,20,32,,,,,,2.1,1.3,1.6*3D
$GPGSV,4,1,16,14,42,064,25,11,77,229,22,01,60,296,21,17,06,324,21*7B
$GPGSV,4,2,16,19,39,185,20,20,28,250,19,32,67,241,18,03,11,178,*70
$GPGSV,4,3,16,22,13,067,,24,,,,27,06,167,,28,14,288,*42
$GPGSV,4,4,16,31,01,119,,30,,,,29,,,,26,,,*48
$GPGGA,101830.0,4933.919187,N,01825.298146,E,1,07,1.3,580.9,M,43.0,M,,*5D
$GPVTG,324.9,T,322.5,M,0.0,N,0.0,K,A*29
$GPRMC,101830.0,A,4933.919187,N,01825.298146,E,0.0,324.9,311213,2.4,E,A*0B
$GPGSA,A,3,01,11,14,17,19,20,32,,,,,,2.1,1.3,1.6*3D
$GPGSV,4,1,16,11,77,229,22,17,06,324,21,01,60,296,20,14,42,064,20*7F
$GPGSV,4,2,16,32,67,241,19,20,28,250,19,19,39,185,17,03,11,178,*75
$GPGSV,4,3,16,22,13,067,,24,,,,27,06,167,,28,14,288,*42
$GPGSV,4,4,16,31,01,119,,30,,,,29,,,,26,,,*48
$GPGGA,101831.0,4933.919217,N,01825.298172,E,1,07,1.3,580.9,M,43.0,M,,*51
$GPVTG,324.9,T,322.5,M,0.0,N,0.0,K,A*29
$GPRMC,101831.0,A,4933.919217,N,01825.298172,E,0.0,324.9,311213,2.4,E,A*07
$GPGSA,A,3,01,11,14,17,19,20,32,,,,,,2.1,1.3,1.6*3D
$GPGSV,4,1,16,14,42,064,21,17,06,324,21,01,60,296,20,32,67,241,19*78
$GPGSV,4,2,16,20,28,250,19,19,39,185,17,11,77,229,16,28,14,288,15*70
$GPGSV,4,3,16,03,11,178,,22,13,067,,24,,,,27,06,167,*42
$GPGSV,4,4,16,31,01,119,,30,,,,29,,,,26,,,*48
$GPGGA,101832.0,4933.919224,N,01825.298247,E,1,08,1.3,580.9,M,43.0,M,,*58
$GPVTG,324.9,T,322.5,M,0.0,N,0.0,K,A*29
$GPRMC,101832.0,A,4933.919224,N,01825.298247,E,0.0,324.9,311213,2.4,E,A*01
$GPGSA,A,3,01,11,14,17,19,20,28,32,,,,,2.0,1.3,1.6*36
$GPGSV,4,1,16,14,42,064,26,17,06,324,21,01,60,296,20,32,67,241,19*7F
$GPGSV,4,2,16,19,39,185,17,11,77,229,16,20,28,250,14,28,14,288,14*7C
$GPGSV,4,3,16,03,11,178,,22,13,067,,24,,,,27,06,167,*42
$GPGSV,4,4,16,31,01,119,,30,,,,29,,,,26,,,*48
$GPGGA,101833.0,4933.919220,N,01825.298273,E,1,08,1.3,580.9,M,43.0,M,,*5A
$GPVTG,324.9,T,322.5,M,0.0,N,0.0,K,A*29
$GPRMC,101833.0,A,4933.919220,N,01825.298273,E,0.0,324.9,311213,2.4,E,A*03
$GPGSA,A,3,01,11,14,17,19,20,28,32,,,,,2.0,1.3,1.6*36
$GPGSV,4,1,16,14,42,064,26,17,06,324,21,32,67,241,19,20,28,250,19*70
$GPGSV,4,2,16,01,60,296,18,19,39,185,17,11,77,229,16,28,14,288,14*75
$GPGSV,4,3,16,03,11,178,,22,13,067,,24,,,,27,06,167,*42
$GPGSV,4,4,16,31,01,119,,30,,,,29,,,,26,,,*48
$GPGGA,101834.0,4933.919223,N,01825.298261,E,1,08,1.3,580.8,M,43.0,M,,*5C
$GPVTG,324.9,T,322.5,M,0.0,N,0.0,K,A*29
$GPRMC,101834.0,A,4933.919223,N,01825.298261,E,0.0,324.9,311213,2.4,E,A*04
$GPGSA,A,3,01,11,14,17,19,20,28,32,,,,,2.0,1.3,1.6*36
$GPGSV,4,1,16,14,42,064,23,17,06,324,21,32,67,241,19,20,28,250,19*75
$GPGSV,4,2,16,01,60,296,18,19,39,185,17,11,77,229,16,28,14,288,14*75
$GPGSV,4,3,16,03,11,178,,22,13,067,,24,,,,27,06,167,*42
$GPGSV,4,4,16,31,01,119,,30,,,,29,,,,26,,,*48
$GPGGA,101835.0,4933.919226,N,01825.298288,E,1,07,1.3,580.8,M,43.0,M,,*50
$GPVTG,324.9,T,322.5,M,0.0,N,0.0,K,A*29
$GPRMC,101835.0,A,4933.919226,N,01825.298288,E,0.0,324.9,311213,2.4,E,A*07
$GPGSA,A,3,01,11,14,19,20,28,32,,,,,,2.0,1.3,1.6*30
$GPGSV,4,1,16,14,42,064,25,17,06,324,21,01,60,296,20,32,67,241,19*7C
$GPGSV,4,2,16,20,28,250,17,11,77,229,16,19,39,185,14,28,14,288,14*7C
$GPGSV,4,3,16,03,11,178,,22,13,067,,24,,,,27,06,167,*42
$GPGSV,4,4,16,31,01,119,,30,,,,29,,,,26,,,*48
$GPGGA,101836.0,4933.919227,N,01825.298310,E,1,07,1.4,580.8,M,43.0,M,,*55
$GPVTG,324.9,T,322.5,M,0.0,N,0.0,K,A*29
$GPRMC,101836.0,A,4933.919227,N,01825.298310,E,0.0,324.9,311213,2.4,E,A*05
$GPGSA,A,3,01,11,14,19,20,28,32,,,,,,2.2,1.4,1.8*3B
$GPGSV,4,1,16,17,06,324,21,01,60,296,19,14,42,064,19,20,28,250,17*7F
$GPGSV,4,2,16,11,77,229,16,32,67,241,14,19,39,185,14,28,14,288,13*70
$GPGSV,4,3,16,03,11,178,,22,13,067,,24,,,,27,06,167,*42
$GPGSV,4,4,16,31,01,119,,30,,,,29,,,,26,,,*48
$GPGGA,101837.0,4933.919215,N,01825.298277,E,1,07,1.4,580.8,M,43.0,M,,*55
$GPVTG,324.9,T,322.5,M,0.0,N,0.0,K,A*29
$GPRMC,101837.0,A,4933.919215,N,01825.298277,E,0.0,324.9,311213,2.4,E,A*05
$GPGSA,A,3,01,11,14,19,20,28,32,,,,,,2.2,1.4,1.8*3B
$GPGSV,4,1,16,14,42,064,22,17,06,324,21,01,60,296,19,20,28,250,16*76
$GPGSV,4,2,16,11,77,229,14,32,67,241,14,19,39,185,14,28,14,288,13*72
$GPGSV,4,3,16,03,11,178,,22,13,067,,24,,,,27,06,167,*42
$GPGSV,4,4,16,31,01,119,,30,,,,29,,,,26,,,*48
$GPGGA,101838.0,4933.919190,N,01825.298237,E,1,07,1.4,580.8,M,43.0,M,,*50
$GPVTG,324.9,T,322.5,M,0.0,N,0.0,K,A*29
$GPRMC,101838.0,A,4933.919190,N,01825.298237,E,0.0,324.9,311213,2.4,E,A*00
$GPGSA,A,3,01,11,14,19,20,28,32,,,,,,2.2,1.4,1.8*3B
$GPGSV,4,1,16,14,42,064,24,01,60,296,21,17,06,324,21,20,28,250,19*74
$GPGSV,4,2,16,32,67,241,18,11,77,229,14,19,39,185,14,28,14,288,13*7E
$GPGSV,4,3,16,03,11,178,,22,13,067,,24,,,,27,06,167,*42
$GPGSV,4,4,16,31,01,119,,30,,,,29,,,,26,,,*48
$GPGGA,101839.0,4933.919167,N,01825.298247,E,1,07,1.4,580.8,M,43.0,M,,*5E
$GPVTG,324.9,T,322.5,M,0.0,N,0.0,K,A*29
$GPRMC,101839.0,A,4933.919167,N,01825.298247,E,0.0,324.9,311213,2.4,E,A*0E
$GPGSA,A,3,01,11,14,19,20,28,32,,,,,,2.2,1.4,1.8*3B
$GPGSV,4,1,16,14,42,064,24,01,60,296,21,20,28,250,19,32,67,241,18*7C
$GPGSV,4,2,16,11,77,229,16,19,39,185,14,28,14,288,13,17,06,324,11*77
$GPGSV,4,3,16,03,11,178,,22,13,067,,24,,,,27,06,167,*42
$GPGSV,4,4,16,31,01,119,,30,,,,29,,,,26,,,*48
$GPGGA,101840.0,4933.919154,N,01825.298248,E,1,08,1.3,580.8,M,43.0,M,,*57
$GPVTG,324.9,T,322.5,M,0.0,N,0.0,K,A*29
$GPRMC,101840.0,A,4933.919154,N,01825.298248,E,0.0,324.9,311213,2.4,E,A*0F
$GPGSA,A,3,01,11,14,17,19,20,28,32,,,,,2.0,1.3,1.6*36
$GPGSV,4,1,16,14,42,064,26,11,77,229,20,32,67,241,19,01,60,296,19*78
$GPGSV,4,2,16,20,28,250,16,19,39,185,14,28,14,288,12,17,06,324,11*70
$GPGSV,4,3,16,03,11,178,,22,13,067,,24,,,,27,06,167,*42
$GPGSV,4,4,16,31,01,119,,30,,,,29,,,,26,,,*48
$GPGGA,101841.0,4933.919146,N,01825.298204,E,1,08,1.3,580.8,M,43.0,M,,*5D
$GPVTG,324.9,T,322.5,M,0.0,N,0.0,K,A*29
$GPRMC,101841.0,A,4933.919146,N,01825.298204,E,0.0,324.9,311213,2.4,E,A*05
$GPGSA,A,3,01,11,14,17,19,20,28,32,,,,,2.0,1.3,1.6*36
$GPGSV,4,1,16,14,42,064,21,11,77,229,20,01,60,296,20,32,67,241,19*75
$GPGSV,4,2,16,20,28,250,16,19,39,185,14,28,14,288,12,17,06,324,11*70
$GPGSV,4,3,16,03,11,178,,22,13,067,,24,,,,27,06,167,*42
$GPGSV,4,4,16,31,01,119,,30,,,,29,,,,26,,,*48
$GPGGA,101842.0,4933.919152,N,01825.298203,E,1,08,1.3,580.8,M,43.0,M,,*5C
$GPVTG,324.9,T,322.5,M,0.0,N,0.0,K,A*29
$GPRMC,101842.0,A,4933.919152,N,01825.298203,E,0.0,324.9,311213,2.4,E,A*04
$GPGSA,A,3,01,11,14,17,19,20,28,32,,,,,2.0,1.3,1.6*36
$GPGSV,4,1,16,01,60,296,28,14,42,064,19,11,77,229,18,32,67,241,17*73
$GPGSV,4,2,16,20,28,250,16,19,39,185,14,28,14,288,12,17,06,324,11*70
$GPGSV,4,3,16,03,11,178,,22,13,067,,24,,,,27,06,167,*42
$GPGSV,4,4,16,31,01,119,,30,,,,29,,,,26,,,*48
$GPGGA,101843.0,4933.919150,N,01825.298198,E,1,08,1.3,580.8,M,43.0,M,,*5E
$GPVTG,324.9,T,322.5,M,0.0,N,0.0,K,A*29
$GPRMC,101843.0,A,4933.919150,N,01825.298198,E,0.0,324.9,311213,2.4,E,A*06
$GPGSA,A,3,01,11,14,17,19,20,28,32,,,,,2.0,1.3,1.6*36
$GPGSV,4,1,16,01,60,296,27,32,67,241,21,14,42,064,19,11,77,229,18*79
$GPGSV,4,2,16,20,28,250,16,19,39,185,16,28,14,288,12,17,06,324,11*72
$GPGSV,4,3,16,03,11,178,,22,13,067,,24,,,,27,06,167,*42
$GPGSV,4,4,16,31,01,119,,30,,,,29,,,,26,,,*48
$GPGGA,101844.0,4933.919142,N,01825.298191,E,1,08,1.3,580.8,M,43.0,M,,*53
$GPVTG,324.9,T,322.5,M,0.0,N,0.0,K,A*29
$GPRMC,101844.0,A,4933.919142,N,01825.298191,E,0.0,324.9,311213,2.4,E,A*0B
$GPGSA,A,3,01,11,14,17,19,20,28,32,,,,,2.0,1.3,1.6*36
$GPGSV,4,1,16,32,67,241,22,14,42,064,22,19,39,185,21,01,60,296,20*78
$GPGSV,4,2,16,11,77,229,18,20,28,250,16,28,14,288,12,17,06,324,11*7B
$GPGSV,4,3,16,03,11,178,,22,13,067,,24,,,,27,06,167,*42
$GPGSV,4,4,16,31,01,119,,30,,,,29,,,,26,,,*48
$GPGGA,101845.0,4933.919153,N,01825.298186,E,1,08,1.3,580.8,M,43.0,M,,*54
$GPVTG,324.9,T,322.5,M,0.0,N,0.0,K,A*29
$GPRMC,101845.0,A,4933.919153,N,01825.298186,E,0.0,324.9,311213,2.4,E,A*0C
$GPGSA,A,3,01,11,14,17,19,20,28,32,,,,,2.0,1.3,1.6*36
$GPGSV,4,1,16,14,42,064,23,01,60,296,21,19,39,185,21,32,67,241,19*70
$GPGSV,4,2,16,11,77,229,18,20,28,250,16,28,14,288,12,17,06,324,11*7B
$GPGSV,4,3,16,03,11,178,,22,13,067,,24,,,,27,06,167,*42
$GPGSV,4,4,16,31,01,119,,30,,,,29,,,,26,,,*48
$GPGGA,101846.0,4933.919161,N,01825.298200,E,1,08,1.3,580.8,M,43.0,M,,*5B
$GPVTG,324.9,T,322.5,M,0.0,N,0.0,K,A*29
$GPRMC,101846.0,A,4933.919161,N,01825.298200,E,0.0,324.9,311213,2.4,E,A*03
$GPGSA,A,3,01,11,14,17,19,20,28,32,,,,,2.0,1.3,1.6*36
$GPGSV,4,1,16,14,42,064,26,01,60,296,25,32,67,241,23,19,39,185,21*78
$GPGSV,4,2,16,20,28,250,16,11,77,229,15,28,14,288,14,17,06,324,11*70
$GPGSV,4,3,16,03,11,178,,22,13,067,,24,,,,27,06,167,*42
$GPGSV,4,4,16,31,01,119,,30,,,,29,,,,26,,,*48
$GPGGA,101847.0,4933.919152,N,01825.298208,E,1,07,1.3,580.8,M,43.0,M,,*5D
$GPVTG,324.9,T,322.5,M,0.0,N,0.0,K,A*29
$GPRMC,101847.0,A,4933.919152,N,01825.298208,E,0.0,324.9,311213,2.4,E,A*0A
$GPGSA,A,3,01,11,14,19,20,28,32,,,,,,2.0,1.3,1.6*30
$GPGSV,4,1,16,01,60,296,25,32,67,241,25,14,42,064,24,11,77,229,24*7E
$GPGSV,4,2,16,19,39,185,17,28,14,288,14,20,28,250,13,17,06,324,11*70
$GPGSV,4,3,16,03,11,178,,22,13,067,,24,,,,27,06,167,*42
$GPGSV,4,4,16,31,01,119,,30,,,,29,,,,26,,,*48
$GPGGA,101848.0,4933.919187,N,01825.298195,E,1,07,1.4,580.8,M,43.0,M,,*5A
$GPVTG,324.9,T,322.5,M,0.0,N,0.0,K,A*29
$GPRMC,101848.0,A,4933.919187,N,01825.298195,E,0.0,324.9,311213,2.4,E,A*0A
$GPGSA,A,3,01,11,14,19,20,28,32,,,,,,2.2,1.4,1.8*3B
$GPGSV,4,1,16,01,60,296,27,32,67,241,27,14,42,064,26,11,77,229,24*7C
$GPGSV,4,2,16,19,39,185,19,28,14,288,14,20,28,250,13,17,06,324,11*7E
$GPGSV,4,3,16,03,11,178,,22,13,067,,24,,,,27,06,167,*42
$GPGSV,4,4,16,31,01,119,,30,,,,29,,,,26,,,*48
$GPGGA,101849.0,4933.919150,N,01825.298200,E,1,07,1.4,580.8,M,43.0,M,,*5E
$GPVTG,324.9,T,322.5,M,0.0,N,0.0,K,A*29
$GPRMC,101849.0,A,4933.919150,N,01825.298200,E,0.0,324.9,311213,2.4,E,A*0E
$GPGSA,A,3,01,11,14,19,20,28,32,,,,,,2.2,1.4,1.8*3B
$GPGSV,4,1,16,14,42,064,25,32,67,241,24,01,60,296,24,11,77,229,22*79
$GPGSV,4,2,16,19,39,185,19,28,14,288,14,20,28,250,13,17,06,324,11*7E
$GPGSV,4,3,16,03,11,178,,22,13,067,,24,,,,27,06,167,*42
$GPGSV,4,4,16,31,01,119,,30,,,,29,,,,26,,,*48
$GPGGA,101850.0,4933.919127,N,01825.298200,E,1,07,3.2,580.6,M,43.0,M,,*5C
$GPVTG,324.9,T,322.5,M,0.0,N,0.0,K,A*29
$GPRMC,101850.0,A,4933.919127,N,01825.298200,E,0.0,324.9,311213,2.4,E,A*06
$GPGSA,A,3,01,11,14,19,20,28,32,,,,,,3.4,3.2,1.0*30
$GPGSV,4,1,16,01,60,296,26,14,42,064,25,11,77,229,24,32,67,241,24*7D
$GPGSV,4,2,16,19,39,185,21,03,11,178,,17,06,324,,20,28,250,*72
$GPGSV,4,3,16,22,13,067,,24,,,,27,06,167,,28,14,288,*42
$GPGSV,4,4,16,31,01,119,,30,,,,29,,,,26,,,*48
$GPGGA,101851.0,4933.919160,N,01825.298170,E,1,07,2.5,580.5,M,43.0,M,,*5F
$GPVTG,324.9,T,322.5,M,0.0,N,0.0,K,A*29
$GPRMC,101851.0,A,4933.919160,N,01825.298170,E,0.0,324.9,311213,2.4,E,A*00
$GPGSA,A,3,01,11,14,19,20,28,32,,,,,,5.8,2.5,5.2*3A
$GPGSV,4,1,16,11,77,229,24,32,67,241,24,01,60,296,22,19,39,185,21*72
$GPGSV,4,2,16,14,42,064,19,03,11,178,,17,06,324,,20,28,250,*76
$GPGSV,4,3,16,22,13,067,,24,,,,27,06,167,,28,14,288,*42
$GPGSV,4,4,16,31,01,119,,30,,,,29,,,,26,,,*48
$GPGGA,101851.9,4933.919138,N,01825.298169,E,1,07,666.6,580.5,M,43.0,M,,*54
$GPVTG,324.9,T,324.9,M,0.0,N,0.0,K,A*23
$GPRMC,101851.9,A,4933.919138,N,01825.298169,E,0.0,324.9,311213,,,A*61
$GPGSA,A,3,01,11,14,19,20,28,32,,,,,,666.6,666.6,666.6*37
$GPGSV,4,1,16,01,60,296,22,14,42,064,19,03,11,178,,11,77,229,*7C
$GPGSV,4,1,16,01,61,296,,03,10,178,,11,77,223,,14,41,063,*7A
$GPGSV,4,2,16,17,07,323,,19,38,184,,20,29,250,,22,13,067,*78
$GPGSV,4,3,16,27,05,167,,28,13,286,,31,02,119,,32,68,243,*7E
$GPGSV,4,4,16,30,,,,29,,,,26,,,,25,,,*75
$GPGGA,101917.5,,,,,0,,,,,,,,*72
$GPVTG,,T,,M,,N,,K,N*2C
$GPRMC,,V,,,,,,,,,,N*53
$GPGSA,A,1,,,,,,,,,,,,,,,*1E
$GPGSV,4,1,16,01,61,296,,03,10,178,,11,77,223,,14,41,063,*7A
$GPGSV,4,2,16,17,07,323,,19,38,184,,20,29,250,,22,13,067,*78
$GPGSV,4,3,16,27,05,167,,28,13,286,,31,02,119,,32,68,243,*7E
$GPGSV,4,4,16,30,,,,29,,,,26,,,,25,,,*75
$GPGGA,,,,,,0,,,,,,,,*66
$GPVTG,,T,,M,,N,,K,N*2C
$GPRMC,,V,,,,,,,,,,N*53
$GPGSA,A,1,,,,,,,,,,,,,,,*1E
$GPGSV,4,1,16,01,61,296,,03,10,178,,11,77,223,,14,41,063,*7A
$GPGSV,4,2,16,17,07,323,,19,38,184,,20,29,250,,22,13,067,*78
$GPGSV,4,3,16,27,05,167,,28,13,286,,31,02,119,,32,68,243,*7E
$GPGSV,4,4,16,30,,,,29,,,,26,,,,25,,,*75
$GPGGA,,,,,,0,,,,,,,,*66
$GPVTG,,T,,M,,N,,K,N*2C
$GPRMC,,V,,,,,,,,,,N*53
$GPGSA,A,1,,,,,,,,,,,,,,,*1E
$GPGSV,4,1,16,01,61,296,23,03,10,178,,11,77,223,,14,41,063,*7B
$GPGSV,4,2,16,17,07,323,,19,38,184,,20,29,250,,22,13,067,*78
$GPGSV,4,3,16,27,05,167,,28,13,286,,31,02,119,,32,68,243,*7E
$GPGSV,4,4,16,30,,,,29,,,,26,,,,25,,,*75
$GPGGA,,,,,,0,,,,,,,,*66
$GPVTG,,T,,M,,N,,K,N*2C
$GPRMC,,V,,,,,,,,,,N*53
$GPGSA,A,1,,,,,,,,,,,,,,,*1E
$GPGSV,4,1,16,01,61,296,22,14,41,063,20,32,68,243,17,03,10,178,*77
$GPGSV,4,2,16,11,77,223,,17,07,323,,19,38,184,,20,29,250,*78
$GPGSV,4,3,16,22,13,067,,27,05,167,,28,13,286,,31,02,119,*77
$GPGSV,4,4,16,30,,,,29,,,,26,,,,25,,,*75
$GPGGA,101921.0,,,,,0,,,,,,,,*72
$GPVTG,,T,,M,,N,,K,N*2C
$GPRMC,,V,,,,,,,,,,N*53
$GPGSA,A,1,,,,,,,,,,,,,,,*1E
$GPGSV,4,1,16,01,61,296,23,14,41,063,17,32,68,243,17,03,10,178,*72
$GPGSV,4,2,16,11,77,223,,17,07,323,,19,38,184,,20,29,250,*78
$GPGSV,4,3,16,22,13,067,,27,05,167,,28,13,286,,31,02,119,*77
$GPGSV,4,4,16,30,,,,29,,,,26,,,,25,,,*75
$GPGGA,101922.0,,,,,0,,,,,,,,*71
$GPVTG,,T,,M,,N,,K,N*2C
$GPRMC,,V,,,,,,,,,,N*53
$GPGSA,A,1,,,,,,,,,,,,,,,*1E
$GPGSV,4,1,16,01,61,296,23,11,77,223,18,32,68,243,17,14,41,063,16*75
$GPGSV,4,2,16,03,10,178,,17,07,323,,19,38,184,,20,29,250,*77
$GPGSV,4,3,16,22,13,067,,27,05,167,,28,13,286,,31,02,119,*77
$GPGSV,4,4,16,30,,,,29,,,,26,,,,25,,,*75
$GPGGA,101923.0,,,,,0,,,,,,,,*70
$GPVTG,,T,,M,,N,,K,N*2C
$GPRMC,,V,,,,,,,,,,N*53
$GPGSA,A,1,,,,,,,,,,,,,,,*1E
$GPGSV,4,1,16,01,61,296,22,11,77,223,18,32,68,243,17,14,41,063,15*77
$GPGSV,4,2,16,03,10,178,,17,07,323,,19,38,184,,20,29,250,*77
$GPGSV,4,3,16,22,13,067,,27,05,167,,28,13,286,,31,02,119,*77
$GPGSV,4,4,16,30,,,,29,,,,26,,,,25,,,*75
$GPGGA,101924.0,,,,,0,,,,,,,,*77
$GPVTG,,T,,M,,N,,K,N*2C
$GPRMC,,V,,,,,,,,,,N*53
$GPGSA,A,1,,,,,,,,,,,,,,,*1E
$GPGSV,4,1,16,01,61,296,24,11,77,223,18,32,68,243,18,14,41,063,15*7E
$GPGSV,4,2,16,03,10,178,,17,07,323,,19,38,184,,20,29,250,*77
$GPGSV,4,3,16,22,13,067,,27,05,167,,28,13,286,,31,02,119,*77
$GPGSV,4,4,16,30,,,,29,,,,26,,,,25,,,*75
$GPGGA,101925.0,,,,,0,,,,,,,,*76
$GPVTG,,T,,M,,N,,K,N*2C
$GPRMC,,V,,,,,,,,,,N*53
$GPGSA,A,1,,,,,,,,,,,,,,,*1E
$GPGSV,4,1,16,01,60,296,22,11,77,230,19,32,67,241,17,14,42,064,15*7C
