$GPGSV,3,1,12,27,52,297,31,08,18,288,27,16,60,238,32,18,55,120,28*7B
$GPGSV,3,2,12,21,58,066,24,22,35,174,29,19,22,292,31,07,10,321,21*7A
$GPGSV,3,3,12,29,06,111,00,15,13,070,00,26,07,034,00,03,21,298,00*70
$GPGGA,101448.000,4933.3391,N,01823.5888,E,1,05,2.2,555.7,M,42.4,M,,*51
$GPGLL,4933.3391,N,01823.5888,E,101448.000,A,A*51
$GPRMC,101448.000,A,4933.3391,N,01823.5888,E,0.9,332.7,191014,,,A*66
$GPGSA,A,3,08,16,18,21,27,,,,,,,,,2.2,*32
$GPVTG,332.7,T,,M,0.1,N,0.1,K,A*08
$GPGSV,3,1,12,27,52,297,31,08,18,288,27,16,60,238,32,18,55,120,29*7A
$GPGSV,3,2,12,21,58,066,24,22,35,174,27,19,22,292,31,07,10,321,21*74
$GPGSV,3,3,12,29,06,111,00,15,13,070,00,26,07,034,00,03,21,298,00*70
$GPGGA,101449.000,4933.3390,N,01823.5887,E,1,05,2.2,555.1,M,42.4,M,,*58
$GPGLL,4933.3390,N,01823.5887,E,101449.000,A,A*5E
$GPRMC,101449.000,A,4933.3390,N,01823.5887,E,0.1,332.7,191014,,,A*61
$GPGSA,A,3,08,16,18,21,27,,,,,,,,,2.2,*32
$GPVTG,332.7,T,,M,0.3,N,0.5,K,A*0E
$GPGSV,3,1,12,27,52,297,31,08,18,288,29,16,60,238,29,18,55,120,29*7E
$GPGSV,3,2,12,21,58,066,24,22,35,174,24,19,22,292,31,07,10,321,21*77
$GPGSV,3,3,12,29,06,111,00,15,13,070,00,26,07,034,00,03,21,298,00*70
$GPGGA,101450.000,4933.3389,N,01823.5882,E,1,05,2.2,554.1,M,42.4,M,,*5C
$GPGLL,4933.3389,N,01823.5882,E,101450.000,A,A*5B
$GPRMC,101450.000,A,4933.3389,N,01823.5882,E,0.3,332.7,191014,,,A*66
$GPGSA,A,3,08,16,18,21,27,,,,,,,,,2.2,*32
$GPVTG,332.7,T,,M,0.7,N,1.2,K,A*0C
$GPGSV,3,1,12,27,52,297,28,08,18,288,28,16,60,238,30,18,55,120,29*7F
$GPGSV,3,2,12,21,58,066,24,22,35,174,27,19,22,292,31,07,10,321,21*74
$GPGSV,3,3,12,29,06,111,00,15,13,070,00,26,07,034,00,03,21,298,00*70
$GPGGA,101451.000,4933.3389,N,01823.5880,E,1,05,2.2,554.6,M,42.4,M,,*58
$GPGLL,4933.3389,N,01823.5880,E,101451.000,A,A*58
$GPRMC,101451.000,A,4933.3389,N,01823.5880,E,0.7,332.7,191014,,,A*61
$GPGSA,A,3,08,16,18,21,27,,,,,,,,,2.2,*32
$GPVTG,332.7,T,,M,0.7,N,1.4,K,A*0A
$GPGSV,3,1,12,27,52,297,28,08,18,288,26,16,60,238,29,18,55,120,29*79
$GPGSV,3,2,12,21,58,066,24,22,35,174,27,19,22,292,30,07,10,321,21*75
$GPGSV,3,3,12,29,06,111,00,15,13,070,00,26,07,034,00,03,21,298,00*70
$GPGGA,101452.000,4933.3390,N,01823.5876,E,1,05,2.2,554.5,M,42.4,M,,*59
$GPGLL,4933.3390,N,01823.5876,E,101452.000,A,A*5A
$GPRMC,101452.000,A,4933.3390,N,01823.5876,E,0.7,332.7,191014,,,A*63
$GPGSA,A,3,08,16,18,21,27,,,,,,,,,2.2,*32
$GPVTG,332.7,T,,M,0.8,N,1.4,K,A*05
$GPGSV,3,1,12,27,52,297,27,08,18,288,27,16,60,238,29,18,55,120,29*77
$GPGSV,3,2,12,21,58,066,24,22,35,174,27,19,22,292,30,07,10,321,21*75
$GPGSV,3,3,12,29,06,111,00,15,13,070,00,26,07,034,00,03,21,298,00*70
$GPGGA,101453.000,4933.3395,N,01823.5876,E,1,05,2.2,554.2,M,42.4,M,,*5A
$GPGLL,4933.3395,N,01823.5876,E,101453.000,A,A*5E
$GPRMC,101453.000,A,4933.3395,N,01823.5876,E,0.8,332.7,191014,,,A*68
$GPGSA,A,3,08,16,18,21,27,,,,,,,,,2.2,*32
$GPVTG,334.4,T,,M,1.2,N,2.2,K,A*0E
$GPGSV,3,1,12,27,52,297,28,08,18,288,23,16,60,238,29,18,55,120,29*7C
$GPGSV,3,2,12,21,58,066,24,22,35,174,27,19,22,292,27,07,10,321,21*73
$GPGSV,3,3,12,29,06,111,00,15,13,070,00,26,07,034,00,03,21,298,00*70
$GPGGA,101454.000,4933.3404,N,01823.5876,E,1,05,2.2,554.2,M,42.4,M,,*52
$GPGLL,4933.3404,N,01823.5876,E,101454.000,A,A*56
$GPRMC,101454.000,A,4933.3404,N,01823.5876,E,1.2,334.4,191014,,,A*6E
$GPGSA,A,3,08,16,18,21,27,,,,,,,,,2.2,*32
$GPVTG,334.4,T,,M,1.1,N,2.1,K,A*0E
$GPGSV,3,1,12,27,52,297,28,08,18,288,20,16,60,238,29,18,55,120,29*7F
$GPGSV,3,2,12,21,58,066,24,22,35,174,27,19,22,292,23,07,10,321,21*77
$GPGSV,3,3,12,29,06,111,00,15,13,070,00,26,07,034,00,03,21,298,00*70
$GPGGA,101455.000,4933.3404,N,01823.5877,E,1,05,2.2,553.8,M,42.4,M,,*5F
$GPGLL,4933.3404,N,01823.5877,E,101455.000,A,A*56
$GPRMC,101455.000,A,4933.3404,N,01823.5877,E,1.1,334.4,191014,,,A*6D
$GPGSA,A,3,08,16,18,21,27,,,,,,,,,2.2,*32
$GPVTG,331.5,T,,M,1.5,N,2.7,K,A*08
$GPGSV,3,1,12,27,52,297,28,08,18,288,23,16,60,238,29,18,55,120,29*7C
$GPGSV,3,2,12,21,58,066,24,22,35,174,27,19,22,292,25,07,10,321,21*71
$GPGSV,3,3,12,29,06,111,00,15,13,070,00,26,07,034,00,03,21,298,00*70
$GPGGA,101456.000,4933.3408,N,01823.5875,E,1,05,2.2,553.6,M,42.4,M,,*5C
$GPGLL,4933.3408,N,01823.5875,E,101456.000,A,A*5B
$GPRMC,101456.000,A,4933.3408,N,01823.5875,E,1.5,331.5,191014,,,A*60
$GPGSA,A,3,08,16,18,21,27,,,,,,,,,2.2,*32
$GPVTG,331.5,T,,M,1.1,N,2.1,K,A*0A
$GPGSV,3,1,12,27,52,297,28,08,18,288,23,16,60,238,29,18,55,120,29*7C
$GPGSV,3,2,12,21,58,066,24,22,35,174,26,19,22,292,26,07,10,321,21*73
$GPGSV,3,3,12,29,06,111,00,15,13,070,00,26,07,034,00,03,21,298,00*70
$GPGGA,101457.000,4933.3411,N,01823.5876,E,1,05,2.2,553.6,M,42.4,M,,*56
$GPGLL,4933.3411,N,01823.5876,E,101457.000,A,A*51
$GPRMC,101457.000,A,4933.3411,N,01823.5876,E,1.1,331.5,191014,,,A*6E
$GPGSA,A,3,08,16,18,21,27,,,,,,,,,2.2,*32
$GPVTG,335.8,T,,M,2.0,N,3.6,K,A*07
$GPGSV,3,1,12,27,52,297,28,08,18,288,24,16,60,238,30,18,55,120,29*73
$GPGSV,3,2,12,21,58,066,24,22,35,174,26,19,22,292,27,07,10,321,21*72
$GPGSV,3,3,12,29,06,111,00,15,13,070,00,26,07,034,00,03,21,298,00*70
$GPGGA,101458.000,4933.3418,N,01823.5876,E,1,05,2.2,553.3,M,42.4,M,,*55
$GPGLL,4933.3418,N,01823.5876,E,101458.000,A,A*57
$GPRMC,101458.000,A,4933.3418,N,01823.5876,E,2.0,335.8,191014,,,A*63
$GPGSA,A,3,08,16,18,21,27,,,,,,,,,2.2,*32
$GPVTG,332.8,T,,M,1.6,N,3.0,K,A*03
$GPGSV,3,1,12,27,52,297,29,08,18,288,25,16,60,238,30,18,55,120,29*73
$GPGSV,3,2,12,21,58,066,24,22,35,174,21,19,22,292,26,07,10,321,22*77
$GPGSV,3,3,12,29,06,111,00,15,13,070,00,26,07,034,00,03,21,298,00*70
$GPGGA,101459.000,4933.3419,N,01823.5873,E,1,05,2.2,553.0,M,42.4,M,,*53
$GPGLL,4933.3419,N,01823.5873,E,101459.000,A,A*52
$GPRMC,101459.000,A,4933.3419,N,01823.5873,E,1.6,332.8,191014,,,A*64
$GPGSA,A,3,08,16,18,21,27,,,,,,,,,2.2,*32
$GPVTG,332.8,T,,M,1.1,N,2.0,K,A*05
$GPGSV,3,1,12,27,52,297,34,08,18,288,25,16,60,238,30,18,55,120,25*73
$GPGSV,3,2,12,21,58,066,24,22,35,174,22,19,22,292,26,07,10,321,22*74
$GPGSV,3,3,12,29,06,111,00,15,13,070,00,26,07,034,00,03,21,298,00*70
$GPGGA,101500.000,4933.3417,N,01823.5868,E,1,05,2.2,552.9,M,42.4,M,,*52
$GPGLL,4933.3417,N,01823.5868,E,101500.000,A,A*5B
$GPRMC,101500.000,A,4933.3417,N,01823.5868,E,1.1,332.8,191014,,,A*6A
$GPGSA,A,3,08,16,18,21,27,,,,,,,,,2.2,*32
$GPVTG,332.8,T,,M,0.7,N,1.3,K,A*02
$GPGSV,3,1,12,27,52,297,35,08,18,288,25,16,60,238,29,18,55,120,26*79
$GPGSV,3,2,12,21,58,066,24,22,35,174,23,19,22,292,26,07,10,321,22*75
$GPGSV,3,3,12,29,06,111,00,15,13,070,00,26,07,034,00,03,21,298,00*70
$GPGGA,101501.000,4933.3421,N,01823.5865,E,1,05,2.2,552.8,M,42.4,M,,*5A
$GPGLL,4933.3421,N,01823.5865,E,101501.000,A,A*52
$GPRMC,101501.000,A,4933.3421,N,01823.5865,E,0.7,332.8,191014,,,A*64
$GPGSA,A,3,08,16,18,21,27,,,,,,,,,2.2,*32
$GPVTG,332.8,T,,M,1.0,N,1.8,K,A*0F
$GPGSV,3,1,12,27,52,297,35,08,18,288,25,16,60,238,28,18,55,120,26*78
$GPGSV,3,2,12,21,58,066,24,22,35,174,24,19,22,292,26,07,10,321,21*71
$GPGSV,3,3,12,29,06,111,00,15,13,070,00,26,07,034,00,03,21,298,00*70
$GPGGA,101502.000,4933.3427,N,01823.5861,E,1,05,2.2,553.0,M,42.4,M,,*52
$GPGLL,4933.3427,N,01823.5861,E,101502.000,A,A*53
$GPRMC,101502.000,A,4933.3427,N,01823.5861,E,1.0,332.8,191014,,,A*63
$GPGSA,A,3,08,16,18,21,27,,,,,,,,,2.2,*32
$GPVTG,332.8,T,,M,0.7,N,1.3,K,A*02
$GPGSV,3,1,12,27,52,297,35,08,18,288,25,16,60,238,28,18,55,120,26*78
$GPGSV,3,2,12,21,58,066,24,22,35,174,24,19,22,292,26,07,10,321,22*72
$GPGSV,3,3,12,29,06,111,00,15,13,070,00,26,07,034,00,03,21,298,00*70
$GPGGA,101503.000,4933.3430,N,01823.5859,E,1,05,2.2,553.2,M,42.4,M,,*5C
$GPGLL,4933.3430,N,01823.5859,E,101503.000,A,A*5F
$GPRMC,101503.000,A,4933.3430,N,01823.5859,E,0.7,332.8,191014,,,A*69
$GPGSA,A,3,08,16,18,21,27,,,,,,,,,2.2,*32
$GPVTG,332.8,T,,M,0.8,N,1.4,K,A*0A
$GPGSV,3,1,12,27,52,297,34,08,18,288,25,16,60,238,28,18,55,120,26*79
$GPGSV,3,2,12,21,58,066,26,22,35,174,24,19,22,292,26,07,10,321,22*70
$GPGSV,3,3,12,29,06,111,00,15,13,070,00,26,07,034,00,03,21,298,00*70
$GPGGA,101504.000,4933.3431,N,01823.5861,E,1,05,2.2,553.2,M,42.4,M,,*51
$GPGLL,4933.3431,N,01823.5861,E,101504.000,A,A*52
$GPRMC,101504.000,A,4933.3431,N,01823.5861,E,0.8,332.8,191014,,,A*6B
$GPGSA,A,3,08,16,18,21,27,,,,,,,,,2.2,*32
$GPVTG,332.8,T,,M,0.4,N,0.8,K,A*0B
$GPGSV,3,1,12,27,52,297,33,08,18,288,25,16,60,238,28,18,55,120,27*7F
$GPGSV,3,2,12,21,58,066,26,22,35,174,24,19,22,292,26,07,10,321,21*73
$GPGSV,3,3,12,29,06,111,00,15,13,070,00,26,07,034,00,03,21,298,00*70
$GPGGA,101505.000,4933.3436,N,01823.5866,E,1,05,2.2,553.3,M,42.4,M,,*51
$GPGLL,4933.3436,N,01823.5866,E,101505.000,A,A*53
$GPRMC,101505.000,A,4933.3436,N,01823.5866,E,0.4,332.8,191014,,,A*66
$GPGSA,A,3,08,16,18,21,27,,,,,,,,,2.2,*32
$GPVTG,332.8,T,,M,0.9,N,1.7,K,A*08
$GPGSV,3,1,12,27,52,297,31,08,18,288,25,16,60,238,28,18,55,120,34*7F
$GPGSV,3,2,12,21,58,066,28,22,35,174,24,19,22,292,26,07,10,321,16*79
$GPGSV,3,3,12,29,06,111,00,15,13,070,00,26,07,034,00,03,21,298,00*70
$GPGGA,101506.000,4933.3440,N,01823.5877,E,1,05,2.2,553.0,M,42.4,M,,*50
$GPGLL,4933.3440,N,01823.5877,E,101506.000,A,A*51
$GPRMC,101506.000,A,4933.3440,N,01823.5877,E,0.9,332.8,191014,,,A*69
$GPGSA,A,3,08,16,18,21,27,,,,,,,,,2.2,*32
$GPVTG,332.8,T,,M,0.5,N,0.9,K,A*0B
$GPGSV,3,1,12,27,52,297,31,08,18,288,25,16,60,238,28,18,55,120,34*7F
$GPGSV,3,2,12,21,58,066,29,22,35,174,31,19,22,292,26,07,10,321,20*79
$GPGSV,3,3,12,29,06,111,00,15,13,070,00,26,07,034,00,03,21,298,00*70
$GPGGA,101507.000,4933.3443,N,01823.5879,E,1,05,2.2,553.0,M,42.4,M,,*5C
$GPGLL,4933.3443,N,01823.5879,E,101507.000,A,A*5D
$GPRMC,101507.000,A,4933.3443,N,01823.5879,E,0.5,332.8,191014,,,A*69
$GPGSA,A,3,08,16,18,21,27,,,,,,,,,2.2,*32
$GPVTG,346.4,T,,M,1.2,N,2.2,K,A*0B
$GPGSV,3,1,12,27,52,297,31,08,18,288,25,16,60,238,28,18,55,120,29*73
$GPGSV,3,2,12,21,58,066,23,22,35,174,29,19,22,292,26,07,10,321,20*7A
$GPGSV,3,3,12,29,06,111,00,15,13,070,00,26,07,034,00,03,21,298,00*70
$GPGGA,101508.000,4933.3446,N,01823.5886,E,1,05,2.2,553.1,M,42.4,M,,*57
$GPGLL,4933.3446,N,01823.5886,E,101508.000,A,A*57
$GPRMC,101508.000,A,4933.3446,N,01823.5886,E,1.2,346.4,191014,,,A*6A
$GPGSA,A,3,08,16,18,21,27,,,,,,,,,2.2,*32
$GPVTG,355.9,T,,M,1.2,N,2.2,K,A*04
$GPGSV,3,1,12,27,52,297,30,08,18,288,24,16,60,238,28,18,55,120,31*7A
$GPGSV,3,2,12,21,58,066,24,22,35,174,30,19,22,292,25,07,10,321,22*74
$GPGSV,3,3,12,29,06,111,00,15,13,070,00,26,07,034,00,03,21,298,00*70
$GPGGA,101509.000,4933.3451,N,01823.5888,E,1,05,2.2,553.3,M,42.4,M,,*5C
$GPGLL,4933.3451,N,01823.5888,E,101509.000,A,A*5E
$GPRMC,101509.000,A,4933.3451,N,01823.5888,E,1.2,355.9,191014,,,A*6C
$GPGSA,A,3,08,16,18,21,27,,,,,,,,,2.2,*32
$GPVTG,0.7,T,,M,1.5,N,2.7,K,A*0B
$GPGSV,3,1,12,27,52,297,25,08,18,288,24,16,60,238,27,18,55,120,30*70
$GPGSV,3,2,12,21,58,066,24,22,35,174,30,19,22,292,25,07,10,321,29*7F
$GPGSV,3,3,12,29,06,111,00,15,13,070,00,26,07,034,00,03,21,298,00*70
$GPGGA,101510.000,4933.3458,N,01823.5892,E,1,05,2.2,553.2,M,42.4,M,,*57
$GPGLL,4933.3458,N,01823.5892,E,101510.000,A,A*54
$GPRMC,101510.000,A,4933.3458,N,01823.5892,E,1.5,0.7,191014,,,A*6C
$GPGSA,A,3,08,16,18,21,27,,,,,,,,,2.2,*32
$GPVTG,6.0,T,,M,1.4,N,2.7,K,A*0B
$GPGSV,3,1,12,27,52,297,28,08,18,288,24,16,60,238,27,18,55,120,30*7D
$GPGSV,3,2,12,21,58,066,24,22,35,174,31,19,22,292,25,07,10,321,29*7E
$GPGSV,3,3,12,29,06,111,00,15,13,070,00,26,07,034,00,03,21,298,00*70
$GPGGA,101511.000,4933.3463,N,01823.5897,E,1,05,2.2,553.0,M,42.4,M,,*59
$GPGLL,4933.3463,N,01823.5897,E,101511.000,A,A*58
$GPRMC,101511.000,A,4933.3463,N,01823.5897,E,1.4,6.0,191014,,,A*60
$GPGSA,A,3,08,16,18,21,27,,,,,,,,,2.2,*32
$GPVTG,6.0,T,,M,0.8,N,1.5,K,A*07
$GPGSV,3,1,12,27,52,297,29,08,18,288,24,16,60,238,27,18,55,120,30*7C
$GPGSV,3,2,12,21,58,066,24,22,35,174,31,19,22,292,27,07,10,321,24*71
$GPGSV,3,3,12,29,06,111,00,15,13,070,00,26,07,034,00,03,21,298,00*70
$GPGGA,101512.000,4933.3463,N,01823.5899,E,1,05,2.2,552.8,M,42.4,M,,*5D
$GPGLL,4933.3463,N,01823.5899,E,101512.000,A,A*55
$GPRMC,101512.000,A,4933.3463,N,01823.5899,E,0.8,6.0,191014,,,A*60
$GPGSA,A,3,08,16,18,21,27,,,,,,,,,2.2,*32
$GPVTG,6.0,T,,M,1.0,N,1.8,K,A*03
$GPGSV,3,1,12,27,52,297,28,08,18,288,24,16,60,238,27,18,55,120,25*79
$GPGSV,3,2,12,21,58,066,24,22,35,174,32,19,22,292,34,07,10,321,23*77
$GPGSV,3,3,12,29,06,111,00,15,13,070,00,26,07,034,00,03,21,298,00*70
$GPGGA,101513.000,4933.3467,N,01823.5902,E,1,05,2.2,552.9,M,42.4,M,,*5A
$GPGLL,4933.3467,N,01823.5902,E,101513.000,A,A*53
$GPRMC,101513.000,A,4933.3467,N,01823.5902,E,1.0,6.0,191014,,,A*6F
$GPGSA,A,3,08,16,18,21,27,,,,,,,,,2.2,*32
$GPVTG,6.0,T,,M,0.7,N,1.2,K,A*0F
$GPGSV,3,1,12,27,52,297,28,08,18,288,24,16,60,238,34,18,55,120,16*7B
$GPGSV,3,2,12,21,58,066,25,22,35,174,32,19,22,292,29,07,10,321,25*7C
$GPGSV,3,3,12,29,06,111,00,15,13,070,00,26,07,034,00,03,21,298,00*70
$GPGGA,101514.000,4933.3468,N,01823.5904,E,1,05,2.2,552.9,M,42.4,M,,*54
$GPGLL,4933.3468,N,01823.5904,E,101514.000,A,A*5D
$GPRMC,101514.000,A,4933.3468,N,01823.5904,E,0.7,6.0,191014,,,A*67
$GPGSA,A,3,08,16,18,21,27,,,,,,,,,2.2,*32
$GPVTG,10.5,T,,M,1.2,N,2.3,K,A*3B
$GPGSV,3,1,12,27,52,297,28,08,18,288,24,16,60,238,29,18,55,120,26*74
$GPGSV,3,2,12,21,58,066,28,22,35,174,32,19,22,292,21,07,10,321,26*7A
$GPGSV,3,3,12,29,06,111,00,15,13,070,00,26,07,034,00,03,21,298,00*70
$GPGGA,101515.000,4933.3474,N,01823.5910,E,1,05,2.2,552.8,M,42.4,M,,*5C
$GPGLL,4933.3474,N,01823.5910,E,101515.000,A,A*54
$GPRMC,101515.000,A,4933.3474,N,01823.5910,E,1.2,10.5,191014,,,A*58
$GPGSA,A,3,08,16,18,21,27,,,,,,,,,2.2,*32
$GPVTG,10.5,T,,M,0.9,N,1.7,K,A*36
$GPGSV,3,1,12,27,52,297,28,08,18,288,24,16,60,238,27,18,55,120,26*7A
$GPGSV,3,2,12,21,58,066,31,22,35,174,32,19,22,292,22,07,10,321,14*70
$GPGSV,3,3,12,29,06,111,00,15,13,070,00,26,07,034,00,03,21,298,00*70
$GPGGA,101516.000,4933.3476,N,01823.5918,E,1,05,2.2,552.5,M,42.4,M,,*58
$GPGLL,4933.3476,N,01823.5918,E,101516.000,A,A*5D
$GPRMC,101516.000,A,4933.3476,N,01823.5918,E,0.9,10.5,191014,,,A*5B
$GPGSA,A,3,08,16,18,21,27,,,,,,,,,2.2,*32
$GPVTG,10.5,T,,M,0.8,N,1.5,K,A*35
$GPGSV,3,1,12,27,52,297,28,08,18,288,24,16,60,238,27,18,55,120,25*79
$GPGSV,3,2,12,21,58,066,31,22,35,174,32,19,22,292,22,07,10,321,18*7C
$GPGSV,3,3,12,29,06,111,00,15,13,070,00,26,07,034,00,03,21,298,00*70
$GPGGA,101517.000,4933.3479,N,01823.5923,E,1,05,2.2,552.4,M,42.4,M,,*5F
$GPGLL,4933.3479,N,01823.5923,E,101517.000,A,A*5B
$GPRMC,101517.000,A,4933.3479,N,01823.5923,E,0.8,10.5,191014,,,A*5C
$GPGSA,A,3,08,16,18,21,27,,,,,,,,,2.2,*32
$GPVTG,17.9,T,,M,1.2,N,2.3,K,A*30
$GPGSV,3,1,12,27,52,297,28,08,18,288,23,16,60,238,27,18,55,120,30*7A
$GPGSV,3,2,12,21,58,066,24,22,35,174,30,19,22,292,23,07,10,321,17*74
$GPGSV,3,3,12,29,06,111,00,15,13,070,00,26,07,034,00,03,21,298,00*70
$GPGGA,101518.000,4933.3485,N,01823.5928,E,1,05,2.2,552.7,M,42.4,M,,*5B
$GPGLL,4933.3485,N,01823.5928,E,101518.000,A,A*5C
$GPRMC,101518.000,A,4933.3485,N,01823.5928,E,1.2,17.9,191014,,,A*5B
$GPGSA,A,3,08,16,18,21,27,,,,,,,,,2.2,*32
$GPVTG,27.5,T,,M,1.5,N,2.8,K,A*33
$GPGSV,3,1,12,27,52,297,28,08,18,288,23,16,60,238,27,18,55,120,27*7C
$GPGSV,3,2,12,21,58,066,25,22,35,174,23,19,22,292,23,07,10,321,16*76
$GPGSV,3,3,12,29,06,111,00,15,13,070,00,26,07,034,00,03,21,298,00*70
$GPGGA,101519.000,4933.3490,N,01823.5935,E,1,05,2.2,553.0,M,42.4,M,,*54
$GPGLL,4933.3490,N,01823.5935,E,101519.000,A,A*55
$GPRMC,101519.000,A,4933.3490,N,01823.5935,E,1.5,27.5,191014,,,A*5A
$GPGSA,A,3,08,16,18,21,27,,,,,,,,,2.2,*32
$GPVTG,27.5,T,,M,1.0,N,1.9,K,A*34
$GPGSV,3,1,12,27,52,297,26,08,18,288,22,16,60,238,27,18,55,120,27*73
$GPGSV,3,2,12,21,58,066,26,22,35,174,25,19,22,292,23,07,10,321,16*73
$GPGSV,3,3,12,29,06,111,00,15,13,070,00,26,07,034,00,03,21,298,00*70
$GPGGA,101520.000,4933.3495,N,01823.5940,E,1,05,2.2,553.1,M,42.4,M,,*58
$GPGLL,4933.3495,N,01823.5940,E,101520.000,A,A*58
$GPRMC,101520.000,A,4933.3495,N,01823.5940,E,1.0,27.5,191014,,,A*52
$GPGSA,A,3,08,16,18,21,27,,,,,,,,,2.2,*32
$GPVTG,27.5,T,,M,0.6,N,1.2,K,A*38
$GPGSV,3,1,12,27,52,297,25,08,18,288,21,16,60,238,27,18,55,120,23*77
$GPGSV,3,2,12,21,58,066,27,22,35,174,36,19,22,292,24,07,10,321,16*77
$GPGSV,3,3,12,29,06,111,00,15,13,070,00,26,07,034,00,03,21,298,00*70
$GPGGA,101521.000,4933.3498,N,01823.5943,E,1,05,2.2,553.2,M,42.4,M,,*54
$GPGLL,4933.3498,N,01823.5943,E,101521.000,A,A*57
$GPRMC,101521.000,A,4933.3498,N,01823.5943,E,0.6,27.5,191014,,,A*5A
$GPGSA,A,3,08,16,18,21,27,,,,,,,,,2.2,*32
$GPVTG,27.5,T,,M,0.2,N,0.4,K,A*3B
$GPGSV,3,1,12,27,52,297,29,08,18,288,21,16,60,238,27,18,55,120,23*7B
$GPGSV,3,2,12,21,58,066,27,22,35,174,34,19,22,292,28,07,10,321,16*79
$GPGSV,3,3,12,29,06,111,00,15,13,070,00,26,07,034,00,03,21,298,00*70
$GPGGA,101522.000,4933.3499,N,01823.5942,E,1,05,2.2,553.2,M,42.4,M,,*57
$GPGLL,4933.3499,N,01823.5942,E,101522.000,A,A*54
$GPRMC,101522.000,A,4933.3499,N,01823.5942,E,0.2,27.5,191014,,,A*5D
$GPGSA,A,3,08,16,18,21,27,,,,,,,,,2.2,*32
$GPVTG,27.5,T,,M,0.4,N,0.7,K,A*3E
$GPGSV,3,1,12,27,52,297,29,08,18,288,20,16,60,238,27,18,55,120,24*7D
$GPGSV,3,2,12,21,58,066,26,22,35,174,34,19,22,292,26,07,10,321,16*76
$GPGSV,3,3,12,29,06,111,00,15,13,070,00,26,07,034,00,03,21,298,00*70
$GPGGA,101523.000,4933.3500,N,01823.5943,E,1,05,2.2,553.1,M,42.4,M,,*55
$GPGLL,4933.3500,N,01823.5943,E,101523.000,A,A*55
$GPRMC,101523.000,A,4933.3500,N,01823.5943,E,0.4,27.5,191014,,,A*5A
$GPGSA,A,3,08,16,18,21,27,,,,,,,,,2.2,*32
$GPVTG,27.5,T,,M,0.2,N,0.4,K,A*3B
$GPGSV,3,1,12,27,52,297,28,08,18,288,20,16,60,238,24,18,55,120,25*7E
$GPGSV,3,2,12,21,58,066,27,22,35,174,35,19,22,292,25,07,10,321,16*75
$GPGSV,3,3,12,29,06,111,00,15,13,070,00,26,07,034,00,03,21,298,00*70
$GPGGA,101524.000,4933.3500,N,01823.5947,E,1,05,2.2,553.0,M,42.4,M,,*57
$GPGLL,4933.3500,N,01823.5947,E,101524.000,A,A*56
$GPRMC,101524.000,A,4933.3500,N,01823.5947,E,0.2,27.5,191014,,,A*5F
$GPGSA,A,3,08,16,18,21,27,,,,,,,,,2.2,*32
$GPVTG,27.5,T,,M,0.9,N,1.6,K,A*33
$GPGSV,3,1,12,27,52,297,28,08,18,288,23,16,60,238,27,18,55,120,25*7E
$GPGSV,3,2,12,21,58,066,27,22,35,174,32,19,22,292,26,07,10,321,17*70
$GPGSV,3,3,12,29,06,111,00,15,13,070,00,26,07,034,00,03,21,298,00*70
$GPGGA,101525.000,4933.3497,N,01823.5949,E,1,05,2.2,552.9,M,42.4,M,,*5F
$GPGLL,4933.3497,N,01823.5949,E,101525.000,A,A*56
$GPRMC,101525.000,A,4933.3497,N,01823.5949,E,0.9,27.5,191014,,,A*54
$GPGSA,A,3,08,16,18,21,27,,,,,,,,,2.2,*32
$GPVTG,27.5,T,,M,0.8,N,1.4,K,A*30
$GPGSV,3,1,12,27,52,297,28,08,18,288,22,16,60,238,27,18,55,120,29*73
$GPGSV,3,2,12,21,58,066,26,22,35,174,30,19,22,292,25,07,10,321,17*70
$GPGSV,3,3,12,29,06,111,00,15,13,070,00,26,07,034,00,03,21,298,00*70
$GPGGA,101526.000,4933.3495,N,01823.5952,E,1,05,2.2,552.9,M,42.4,M,,*54
$GPGLL,4933.3495,N,01823.5952,E,101526.000,A,A*5D
$GPRMC,101526.000,A,4933.3495,N,01823.5952,E,0.8,27.5,191014,,,A*5E
$GPGSA,A,3,08,16,18,21,27,,,,,,,,,2.2,*32
$GPVTG,41.8,T,,M,1.2,N,2.2,K,A*33
$GPGSV,3,1,12,27,52,297,28,08,18,288,22,16,60,238,27,18,55,120,34*7F
$GPGSV,3,2,12,21,58,066,21,22,35,174,32,19,22,292,25,07,10,321,17*75
$GPGSV,3,3,12,29,06,111,00,15,13,070,00,26,07,034,00,03,21,298,00*70
$GPGGA,101527.000,4933.3492,N,01823.5959,E,1,05,2.2,552.8,M,42.4,M,,*58
$GPGLL,4933.3492,N,01823.5959,E,101527.000,A,A*50
$GPRMC,101527.000,A,4933.3492,N,01823.5959,E,1.2,41.8,191014,,,A*55
$GPGSA,A,3,08,16,18,21,27,,,,,,,,,2.2,*32
$GPVTG,67.2,T,,M,1.4,N,2.6,K,A*3F
$GPGSV,3,1,12,27,52,297,28,08,18,288,22,16,60,238,27,18,55,120,31*7A
$GPGSV,3,2,12,21,58,066,20,22,35,174,33,19,22,292,25,07,10,321,17*75
$GPGSV,3,3,12,29,06,111,00,15,13,070,00,26,07,034,00,03,21,298,00*70
$GPGGA,101528.000,4933.3487,N,01823.5963,E,1,05,2.2,552.8,M,42.4,M,,*5A
$GPGLL,4933.3487,N,01823.5963,E,101528.000,A,A*52
$GPRMC,101528.000,A,4933.3487,N,01823.5963,E,1.4,67.2,191014,,,A*5F
$GPGSA,A,3,08,16,18,21,27,,,,,,,,,2.2,*32
$GPVTG,95.9,T,,M,1.5,N,2.8,K,A*36
$GPGSV,3,1,12,27,52,297,33,08,18,288,22,16,60,238,27,18,55,120,27*77
$GPGSV,3,2,12,21,58,066,20,22,35,174,33,19,22,292,25,07,10,321,17*75
$GPGSV,3,3,12,29,06,111,00,15,13,070,00,26,07,034,00,03,21,298,00*70
$GPGGA,101529.000,4933.3482,N,01823.5967,E,1,05,2.2,552.7,M,42.4,M,,*55
$GPGLL,4933.3482,N,01823.5967,E,101529.000,A,A*52
$GPRMC,101529.000,A,4933.3482,N,01823.5967,E,1.5,95.9,191014,,,A*58
$GPGSA,A,3,08,16,18,21,27,,,,,,,,,2.2,*32
$GPVTG,95.9,T,,M,1.1,N,2.0,K,A*3A
$GPGSV,3,1,12,27,52,297,31,08,18,288,22,16,60,238,27,18,55,120,32*71
$GPGSV,3,2,12,21,58,066,21,22,35,174,33,19,22,292,25,07,10,321,17*74
$GPGSV,3,3,12,29,06,111,00,15,13,070,00,26,07,034,00,03,21,298,00*70
$GPGGA,101530.000,4933.3480,N,01823.5972,E,1,05,2.2,552.6,M,42.4,M,,*5A
$GPGLL,4933.3480,N,01823.5972,E,101530.000,A,A*5C
$GPRMC,101530.000,A,4933.3480,N,01823.5972,E,1.1,95.9,191014,,,A*52
$GPGSA,A,3,08,16,18,21,27,,,,,,,,,2.2,*32
$GPVTG,95.9,T,,M,0.3,N,0.5,K,A*3E
$GPGSV,3,1,12,27,52,297,31,08,18,288,22,16,60,238,28,18,55,120,35*79
$GPGSV,3,2,12,21,58,066,24,22,35,174,34,19,22,292,25,07,10,321,17*76
$GPGSV,3,3,12,29,06,111,00,15,13,070,00,26,07,034,00,03,21,298,00*70
$GPGGA,101531.000,4933.3478,N,01823.5978,E,1,05,2.2,552.5,M,42.4,M,,*55
$GPGLL,4933.3478,N,01823.5978,E,101531.000,A,A*50
$GPRMC,101531.000,A,4933.3478,N,01823.5978,E,0.3,95.9,191014,,,A*5D
$GPGSA,A,3,08,16,18,21,27,,,,,,,,,2.2,*32
$GPVTG,95.9,T,,M,0.6,N,1.0,K,A*3F
$GPGSV,3,1,12,27,52,297,30,08,18,288,22,16,60,238,27,18,55,120,25*76
$GPGSV,3,2,12,21,58,066,23,22,35,174,34,19,22,292,23,07,10,321,17*77
$GPGSV,3,3,12,29,06,111,00,15,13,070,00,26,07,034,00,03,21,298,00*70
$GPGGA,101532.000,4933.3481,N,01823.5981,E,1,05,2.2,552.6,M,42.4,M,,*55
$GPGLL,4933.3481,N,01823.5981,E,101532.000,A,A*53
$GPRMC,101532.000,A,4933.3481,N,01823.5981,E,0.6,95.9,191014,,,A*5B
$GPGSA,A,3,08,16,18,21,27,,,,,,,,,2.2,*32
$GPVTG,95.9,T,,M,0.4,N,0.8,K,A*34
$GPGSV,3,1,12,27,52,297,30,08,18,288,22,16,60,238,27,18,55,120,25*76
$GPGSV,3,2,12,21,58,066,24,22,35,174,34,19,22,292,22,07,10,321,17*71
$GPGSV,3,3,12,29,06,111,00,15,13,070,00,26,07,034,00,03,21,298,00*70
$GPGGA,101533.000,4933.3482,N,01823.5983,E,1,05,2.2,552.7,M,42.4,M,,*54
$GPGLL,4933.3482,N,01823.5983,E,101533.000,A,A*53
$GPRMC,101533.000,A,4933.3482,N,01823.5983,E,0.4,95.9,191014,,,A*59
$GPGSA,A,3,08,16,18,21,27,,,,,,,,,2.2,*32
$GPVTG,95.9,T,,M,0.3,N,0.6,K,A*3D
$GPGSV,3,1,12,27,52,297,28,08,18,288,20,16,60,238,27,18,55,120,27*7F
$GPGSV,3,2,12,21,58,066,24,22,35,174,32,19,22,292,22,07,10,321,17*77
$GPGSV,3,3,12,29,06,111,00,15,13,070,00,26,07,034,00,03,21,298,00*70
$GPGGA,101534.000,4933.3485,N,01823.5985,E,1,05,2.2,552.7,M,42.4,M,,*52
$GPGLL,4933.3485,N,01823.5985,E,101534.000,A,A*55
$GPRMC,101534.000,A,4933.3485,N,01823.5985,E,0.3,95.9,191014,,,A*58
$GPGSA,A,3,08,16,18,21,27,,,,,,,,,2.2,*32
$GPVTG,95.9,T,,M,0.3,N,0.6,K,A*3D
$GPGSV,3,1,12,27,52,297,25,08,18,288,21,16,60,238,27,18,55,120,21*75
$GPGSV,3,2,12,21,58,066,24,22,35,174,33,19,22,292,21,07,10,321,16*74
$GPGSV,3,3,12,29,06,111,00,15,13,070,00,26,07,034,00,03,21,298,00*70
$GPGGA,101535.000,4933.3487,N,01823.5989,E,1,05,2.2,552.6,M,42.4,M,,*5C
$GPGLL,4933.3487,N,01823.5989,E,101535.000,A,A*5A
$GPRMC,101535.000,A,4933.3487,N,01823.5989,E,0.3,95.9,191014,,,A*57
$GPGSA,A,3,08,16,18,21,27,,,,,,,,,2.2,*32
$GPVTG,95.9,T,,M,0.4,N,0.8,K,A*34
$GPGSV,3,1,12,27,52,297,24,08,18,288,21,16,60,238,27,18,55,120,22*77
$GPGSV,3,2,12,21,58,066,23,22,35,174,36,19,22,292,21,07,10,321,16*76
$GPGSV,3,3,12,29,06,111,00,15,13,070,00,26,07,034,00,03,21,298,00*70
$GPGGA,101536.000,4933.3489,N,01823.5989,E,1,05,2.2,552.7,M,42.4,M,,*50
$GPGLL,4933.3489,N,01823.5989,E,101536.000,A,A*57
$GPRMC,101536.000,A,4933.3489,N,01823.5989,E,0.4,95.9,191014,,,A*5D
$GPGSA,A,3,08,18,21,27,,,,,,,,,,3.4,*32
$GPVTG,95.9,T,,M,0.4,N,0.7,K,A*3B
$GPGSV,3,1,12,27,52,297,24,08,18,288,20,16,60,238,14,18,55,120,22*76
$GPGSV,3,2,12,21,58,066,23,22,35,174,35,19,22,292,21,07,10,321,16*75
$GPGSV,3,3,12,29,06,111,00,15,13,070,00,26,07,034,00,03,21,298,00*70
$GPGGA,101537.000,4933.3489,N,01823.5990,E,1,04,3.4,552.6,M,42.4,M,,*5E
$GPGLL,4933.3489,N,01823.5990,E,101537.000,A,A*5E
$GPRMC,101537.000,A,4933.3489,N,01823.5990,E,0.4,95.9,191014,,,A*54
$GPGSA,A,3,08,16,18,21,27,,,,,,,,,2.2,*32
$GPVTG,95.9,T,,M,0.2,N,0.3,K,A*39
$GPGSV,3,1,12,27,52,297,24,08,18,288,19,16,60,238,21,18,55,120,21*79
$GPGSV,3,2,12,21,58,066,24,22,35,174,35,19,22,292,21,07,10,321,16*72
$GPGSV,3,3,12,29,06,111,00,15,13,070,00,26,07,034,00,03,21,298,00*70
$GPGGA,101538.000,4933.3488,N,01823.5990,E,1,05,2.2,552.5,M,42.4,M,,*55
$GPGLL,4933.3488,N,01823.5990,E,101538.000,A,A*50
$GPRMC,101538.000,A,4933.3488,N,01823.5990,E,0.2,95.9,191014,,,A*5C
$GPGSA,A,3,08,16,18,21,27,,,,,,,,,2.2,*32
$GPVTG,95.9,T,,M,0.2,N,0.4,K,A*3E
$GPGSV,3,1,12,27,52,297,26,08,18,288,20,16,60,238,25,18,55,120,25*71
$GPGSV,3,2,12,21,58,066,24,22,35,174,35,19,22,292,21,07,10,321,16*72
$GPGSV,3,3,12,29,06,111,00,15,13,070,00,26,07,034,00,03,21,298,00*70
$GPGGA,101539.000,4933.3489,N,01823.5991,E,1,05,2.2,552.5,M,42.4,M,,*54
$GPGLL,4933.3489,N,01823.5991,E,101539.000,A,A*51
$GPRMC,101539.000,A,4933.3489,N,01823.5991,E,0.2,95.9,191014,,,A*5D
$GPGSA,A,3,08,16,18,21,27,,,,,,,,,2.2,*32
$GPVTG,95.9,T,,M,0.4,N,0.7,K,A*3B
$GPGSV,3,1,12,27,52,297,28,08,18,288,20,16,60,238,26,18,55,120,27*7E
$GPGSV,3,2,12,21,58,066,24,22,35,174,34,19,22,292,21,07,10,321,16*73
$GPGSV,3,3,12,29,06,111,00,15,13,070,00,26,07,034,00,03,21,298,00*70
$GPGGA,101540.000,4933.3489,N,01823.5992,E,1,05,2.2,552.5,M,42.4,M,,*59
$GPGLL,4933.3489,N,01823.5992,E,101540.000,A,A*5C
$GPRMC,101540.000,A,4933.3489,N,01823.5992,E,0.4,95.9,191014,,,A*56
$GPGSA,A,3,08,16,18,21,27,,,,,,,,,2.2,*32
$GPVTG,95.9,T,,M,0.7,N,1.3,K,A*3D
$GPGSV,3,1,12,27,52,297,28,08,18,288,20,16,60,238,27,18,55,120,29*71
$GPGSV,3,2,12,21,58,066,24,22,35,174,31,19,22,292,20,07,10,321,16*77
$GPGSV,3,3,12,29,06,111,00,15,13,070,00,26,07,034,00,03,21,298,00*70
$GPGGA,101541.000,4933.3486,N,01823.5999,E,1,05,2.2,552.4,M,42.4,M,,*5D
$GPGLL,4933.3486,N,01823.5999,E,101541.000,A,A*59
$GPRMC,101541.000,A,4933.3486,N,01823.5999,E,0.7,95.9,191014,,,A*50
$GPGSA,A,3,08,16,18,21,27,,,,,,,,,2.2,*32
$GPVTG,110.8,T,,M,1.6,N,2.9,K,A*09
$GPGSV,3,1,12,27,52,297,28,08,18,288,20,16,60,238,27,18,55,120,30*79
$GPGSV,3,2,12,21,58,066,24,22,35,174,28,19,22,292,21,07,10,321,16*7E
$GPGSV,3,3,12,29,06,111,00,15,13,070,00,26,07,034,00,03,21,298,00*70
$GPGGA,101542.000,4933.3474,N,01823.6006,E,1,05,2.2,552.2,M,42.4,M,,*59
$GPGLL,4933.3474,N,01823.6006,E,101542.000,A,A*5B
$GPRMC,101542.000,A,4933.3474,N,01823.6006,E,1.6,110.8,191014,,,A*6F
$GPGSA,A,3,08,16,18,21,27,,,,,,,,,2.2,*32
$GPVTG,114.0,T,,M,1.5,N,2.8,K,A*07
$GPGSV,3,1,12,27,52,297,29,08,18,288,20,16,60,238,27,18,55,120,31*79
$GPGSV,3,2,12,21,58,066,24,22,35,174,29,19,22,292,21,07,10,321,16*7F
$GPGSV,3,3,12,29,06,111,00,15,13,070,00,26,07,034,00,03,21,298,00*70
$GPGGA,101543.000,4933.3470,N,01823.6013,E,1,05,2.2,552.2,M,42.4,M,,*58
$GPGLL,4933.3470,N,01823.6013,E,101543.000,A,A*5A
$GPRMC,101543.000,A,4933.3470,N,01823.6013,E,1.5,114.0,191014,,,A*61
$GPGSA,A,3,08,16,18,21,27,,,,,,,,,2.2,*32
$GPVTG,120.8,T,,M,2.0,N,3.6,K,A*01
$GPGSV,3,1,12,27,52,297,28,08,18,288,20,16,60,238,27,18,55,120,30*79
$GPGSV,3,2,12,21,58,066,24,22,35,174,29,19,22,292,21,07,10,321,16*7F
$GPGSV,3,3,12,29,06,111,00,15,13,070,00,26,07,034,00,03,21,298,00*70
$GPGGA,101544.000,4933.3458,N,01823.6021,E,1,05,2.2,552.1,M,42.4,M,,*57
$GPGLL,4933.3458,N,01823.6021,E,101544.000,A,A*56
$GPRMC,101544.000,A,4933.3458,N,01823.6021,E,2.0,120.8,191014,,,A*64
$GPGSA,A,3,08,18,21,27,,,,,,,,,,3.4,*32
$GPVTG,121.4,T,,M,1.3,N,2.4,K,A*0F
$GPGSV,3,1,12,27,52,297,28,08,18,288,20,16,60,238,18,18,55,120,26*72
$GPGSV,3,2,12,21,58,066,24,22,35,174,29,19,22,292,21,07,10,321,15*7C
$GPGSV,3,3,12,29,06,111,00,15,13,070,00,26,07,034,00,03,21,298,00*70
$GPGGA,101545.000,4933.3457,N,01823.6027,E,1,04,3.4,552.1,M,42.4,M,,*59
$GPGLL,4933.3457,N,01823.6027,E,101545.000,A,A*5E
$GPRMC,101545.000,A,4933.3457,N,01823.6027,E,1.3,121.4,191014,,,A*61
$GPGSA,A,3,08,16,18,21,27,,,,,,,,,2.2,*32
$GPVTG,121.4,T,,M,1.1,N,2.1,K,A*08
$GPGSV,3,1,12,27,52,297,28,08,18,288,19,16,60,238,21,18,55,120,26*72
$GPGSV,3,2,12,21,58,066,24,22,35,174,29,19,22,292,21,07,10,321,15*7C
$GPGSV,3,3,12,29,06,111,00,15,13,070,00,26,07,034,00,03,21,298,00*70
$GPGGA,101546.000,4933.3454,N,01823.6032,E,1,05,2.2,552.1,M,42.4,M,,*5B
$GPGLL,4933.3454,N,01823.6032,E,101546.000,A,A*5A
$GPRMC,101546.000,A,4933.3454,N,01823.6032,E,1.1,121.4,191014,,,A*67
$GPGSA,A,3,08,16,18,21,27,,,,,,,,,2.2,*32
$GPVTG,121.4,T,,M,0.3,N,0.6,K,A*0E
$GPGSV,3,1,12,27,52,297,29,08,18,288,19,16,60,238,26,18,55,120,25*77
$GPGSV,3,2,12,21,58,066,24,22,35,174,30,19,22,292,21,07,10,321,15*74
$GPGSV,3,3,12,29,06,111,00,15,13,070,00,26,07,034,00,03,21,298,00*70
$GPGGA,101547.000,4933.3457,N,01823.6036,E,1,05,2.2,552.1,M,42.4,M,,*5D
$GPGLL,4933.3457,N,01823.6036,E,101547.000,A,A*5C
$GPRMC,101547.000,A,4933.3457,N,01823.6036,E,0.3,121.4,191014,,,A*62
$GPGSA,A,3,08,16,18,21,27,,,,,,,,,2.2,*32
$GPVTG,121.4,T,,M,0.3,N,0.6,K,A*0E
$GPGSV,3,1,12,27,52,297,38,08,18,288,19,16,60,238,26,18,55,120,26*74
$GPGSV,3,2,12,21,58,066,24,22,35,174,29,19,22,292,21,07,10,321,15*7C
$GPGSV,3,3,12,29,06,111,00,15,13,070,00,26,07,034,00,03,21,298,00*70
$GPGGA,101548.000,4933.3468,N,01823.6036,E,1,05,2.2,552.2,M,42.4,M,,*5D
$GPGLL,4933.3468,N,01823.6036,E,101548.000,A,A*5F
$GPRMC,101548.000,A,4933.3468,N,01823.6036,E,0.3,121.4,191014,,,A*61
$GPGSA,A,3,08,16,18,21,27,,,,,,,,,2.2,*32
$GPVTG,121.4,T,,M,0.1,N,0.3,K,A*09
$GPGSV,3,1,12,27,52,297,38,08,18,288,19,16,60,238,26,18,55,120,26*74
$GPGSV,3,2,12,21,58,066,18,22,35,174,29,19,22,292,21,07,10,321,15*73
$GPGSV,3,3,12,29,06,111,00,15,13,070,00,26,07,034,00,03,21,298,00*70
$GPGGA,101549.000,4933.3471,N,01823.6035,E,1,05,2.2,552.4,M,42.4,M,,*51
$GPGLL,4933.3471,N,01823.6035,E,101549.000,A,A*55
$GPRMC,101549.000,A,4933.3471,N,01823.6035,E,0.1,121.4,191014,,,A*69
$GPGSA,A,3,08,16,18,21,27,,,,,,,,,2.2,*32
$GPVTG,121.4,T,,M,0.3,N,0.5,K,A*0D
$GPGSV,3,1,12,27,52,297,36,08,18,288,20,16,60,238,26,18,55,120,26*70
$GPGSV,3,2,12,21,58,066,17,22,35,174,26,19,22,292,21,07,10,321,15*73
$GPGSV,3,3,12,29,06,111,00,15,13,070,00,26,07,034,00,03,21,298,00*70
$GPGGA,101550.000,4933.3470,N,01823.6035,E,1,05,2.2,552.5,M,42.4,M,,*59
$GPGLL,4933.3470,N,01823.6035,E,101550.000,A,A*5C
$GPRMC,101550.000,A,4933.3470,N,01823.6035,E,0.3,121.4,191014,,,A*62
$GPGSA,A,3,08,16,18,21,27,,,,,,,,,2.2,*32
$GPVTG,121.4,T,,M,0.3,N,0.6,K,A*0E
$GPGSV,3,1,12,27,52,297,25,08,18,288,19,16,60,238,26,18,55,120,31*7E
$GPGSV,3,2,12,21,58,066,18,22,35,174,24,19,22,292,21,07,10,321,15*7E
$GPGSV,3,3,12,29,06,111,00,15,13,070,00,26,07,034,00,03,21,298,00*70
$GPGGA,101551.000,4933.3468,N,01823.6038,E,1,05,2.2,552.4,M,42.4,M,,*5D
$GPGLL,4933.3468,N,01823.6038,E,101551.000,A,A*59
$GPRMC,101551.000,A,4933.3468,N,01823.6038,E,0.3,121.4,191014,,,A*67
$GPGSA,A,3,08,16,18,21,27,,,,,,,,,2.2,*32
$GPVTG,121.4,T,,M,0.2,N,0.4,K,A*0D
$GPGSV,3,1,12,27,52,297,25,08,18,288,19,16,60,238,26,18,55,120,31*7E
$GPGSV,3,2,12,21,58,066,17,22,35,174,25,19,22,292,21,07,10,321,15*70
$GPGSV,3,3,12,29,06,111,00,15,13,070,00,26,07,034,00,03,21,298,00*70
$GPGGA,101552.000,4933.3468,N,01823.6038,E,1,05,2.2,552.5,M,42.4,M,,*5F
$GPGLL,4933.3468,N,01823.6038,E,101552.000,A,A*5A
$GPRMC,101552.000,A,4933.3468,N,01823.6038,E,0.2,121.4,191014,,,A*65
$GPGSA,A,3,08,16,18,21,27,,,,,,,,,2.2,*32
$GPVTG,121.4,T,,M,0.3,N,0.5,K,A*0D
$GPGSV,3,1,12,27,52,297,27,08,18,288,19,16,60,238,25,18,55,120,30*7E
$GPGSV,3,2,12,21,58,066,18,22,35,174,24,19,22,292,21,07,10,321,14*7F
$GPGSV,3,3,12,29,06,111,00,15,13,070,00,26,07,034,00,03,21,298,00*70
$GPGGA,101553.000,4933.3469,N,01823.6039,E,1,05,2.2,552.6,M,42.4,M,,*5D
$GPGLL,4933.3469,N,01823.6039,E,101553.000,A,A*5B
$GPRMC,101553.000,A,4933.3469,N,01823.6039,E,0.3,121.4,191014,,,A*65
$GPGSA,A,3,08,16,18,21,27,,,,,,,,,2.2,*32
$GPVTG,121.4,T,,M,0.3,N,0.5,K,A*0D
$GPGSV,3,1,12,27,52,297,33,08,18,288,25,16,60,238,17,18,55,120,22*76
$GPGSV,3,2,12,21,58,066,18,22,35,174,24,19,22,292,21,07,10,321,15*7E
$GPGSV,3,3,12,29,06,111,00,15,13,070,00,26,07,034,00,03,21,298,00*70
$GPGGA,101554.000,4933.3473,N,01823.6038,E,1,05,2.2,552.8,M,42.4,M,,*5E
$GPGLL,4933.3473,N,01823.6038,E,101554.000,A,A*56
$GPRMC,101554.000,A,4933.3473,N,01823.6038,E,0.3,121.4,191014,,,A*68
$GPGSA,A,3,08,16,18,21,27,,,,,,,,,2.2,*32
$GPVTG,121.4,T,,M,0.6,N,1.2,K,A*0E
$GPGSV,3,1,12,27,52,297,29,08,18,288,25,16,60,238,23,18,55,120,19*72
$GPGSV,3,2,12,21,58,066,18,22,35,174,24,19,22,292,21,07,10,321,15*7E
$GPGSV,3,3,12,29,06,111,00,15,13,070,00,26,07,034,00,03,21,298,00*70
$GPGGA,101555.000,4933.3479,N,01823.6040,E,1,05,2.2,553.1,M,42.4,M,,*52
$GPGLL,4933.3479,N,01823.6040,E,101555.000,A,A*52
$GPRMC,101555.000,A,4933.3479,N,01823.6040,E,0.6,121.4,191014,,,A*69
$GPGSA,A,3,08,16,18,21,27,,,,,,,,,2.2,*32
$GPVTG,121.4,T,,M,0.4,N,0.8,K,A*07
$GPGSV,3,1,12,27,52,297,28,08,18,288,18,16,60,238,24,18,55,120,21*71
$GPGSV,3,2,12,21,58,066,18,22,35,174,24,19,22,292,21,07,10,321,14*7F
$GPGSV,3,3,12,29,06,111,00,15,13,070,00,26,07,034,00,03,21,298,00*70
$GPGGA,101556.000,4933.3482,N,01823.6039,E,1,05,2.2,553.2,M,42.4,M,,*58
$GPGLL,4933.3482,N,01823.6039,E,101556.000,A,A*5B
$GPRMC,101556.000,A,4933.3482,N,01823.6039,E,0.4,121.4,191014,,,A*62
$GPGSA,A,3,08,16,18,21,27,,,,,,,,,2.2,*32
$GPVTG,121.4,T,,M,0.5,N,0.9,K,A*07
$GPGSV,3,1,12,27,52,297,28,08,18,288,16,16,60,238,23,18,55,120,20*79
$GPGSV,3,2,12,21,58,066,18,22,35,174,24,19,22,292,20,07,10,321,14*7E
$GPGSV,3,3,12,29,06,111,00,15,13,070,00,26,07,034,00,03,21,298,00*70
$GPGGA,101557.000,4933.3481,N,01823.6040,E,1,05,2.2,553.4,M,42.4,M,,*52
$GPGLL,4933.3481,N,01823.6040,E,101557.000,A,A*57
$GPRMC,101557.000,A,4933.3481,N,01823.6040,E,0.5,121.4,191014,,,A*6F
$GPGSA,A,3,08,16,18,21,27,,,,,,,,,2.2,*32
$GPVTG,121.4,T,,M,0.3,N,0.6,K,A*0E
$GPGSV,3,1,12,27,52,297,28,08,18,288,18,16,60,238,24,18,55,120,24*74
$GPGSV,3,2,12,21,58,066,18,22,35,174,28,19,22,292,20,07,10,321,15*73
$GPGSV,3,3,12,29,06,111,00,15,13,070,00,26,07,034,00,03,21,298,00*70
$GPGGA,101558.000,4933.3483,N,01823.6041,E,1,05,2.2,553.5,M,42.4,M,,*5F
$GPGLL,4933.3483,N,01823.6041,E,101558.000,A,A*5B
$GPRMC,101558.000,A,4933.3483,N,01823.6041,E,0.3,121.4,191014,,,A*65
$GPGSA,A,3,08,16,18,21,27,,,,,,,,,2.2,*32
$GPVTG,121.4,T,,M,0.4,N,0.8,K,A*07
$GPGSV,3,1,12,27,52,297,28,08,18,288,19,16,60,238,24,18,55,120,30*70
$GPGSV,3,2,12,21,58,066,18,22,35,174,30,19,22,292,20,07,10,321,15*7A
$GPGSV,3,3,12,29,06,111,00,15,13,070,00,26,07,034,00,03,21,298,00*70
$GPGGA,101559.000,4933.3483,N,01823.6040,E,1,05,2.2,553.6,M,42.4,M,,*5C
$GPGLL,4933.3483,N,01823.6040,E,101559.000,A,A*5B
$GPRMC,101559.000,A,4933.3483,N,01823.6040,E,0.4,121.4,191014,,,A*62
$GPGSA,A,3,08,16,18,21,27,,,,,,,,,2.2,*32
$GPVTG,121.4,T,,M,0.5,N,0.9,K,A*07
$GPGSV,3,1,12,27,52,297,28,08,18,288,20,16,60,238,24,18,55,120,29*72
$GPGSV,3,2,12,21,58,066,18,22,35,174,29,19,22,292,20,07,10,321,15*72
$GPGSV,3,3,12,29,06,111,00,15,13,070,00,26,07,034,00,03,21,298,00*70
$GPGGA,101600.000,4933.3485,N,01823.6039,E,1,05,2.2,553.6,M,42.4,M,,*5B
$GPGLL,4933.3485,N,01823.6039,E,101600.000,A,A*5C
$GPRMC,101600.000,A,4933.3485,N,01823.6039,E,0.5,121.4,191014,,,A*64
$GPGSA,A,3,08,16,18,21,27,,,,,,,,,2.2,*32
$GPVTG,121.4,T,,M,0.3,N,0.6,K,A*0E
$GPGSV,3,1,12,27,52,297,28,08,18,288,19,16,60,238,24,18,55,120,28*79
$GPGSV,3,2,12,21,58,066,25,22,35,174,28,19,22,292,20,07,10,321,15*7D
$GPGSV,3,3,12,29,06,111,00,15,13,070,00,26,07,034,00,03,21,298,00*70
$GPGGA,101601.000,4933.3483,N,01823.6036,E,1,05,2.2,553.5,M,42.4,M,,*50
$GPGLL,4933.3483,N,01823.6036,E,101601.000,A,A*54
$GPRMC,101601.000,A,4933.3483,N,01823.6036,E,0.3,121.4,191014,,,A*6A
$GPGSA,A,3,08,16,18,21,27,,,,,,,,,2.2,*32
$GPVTG,121.4,T,,M,0.4,N,0.7,K,A*08
$GPGSV,3,1,12,27,52,297,32,08,18,288,20,16,60,238,24,18,55,120,28*78
$GPGSV,3,2,12,21,58,066,23,22,35,174,23,19,22,292,20,07,10,321,15*70
$GPGSV,3,3,12,29,06,111,00,15,13,070,00,26,07,034,00,03,21,298,00*70
$GPGGA,101602.000,4933.3487,N,01823.6040,E,1,05,2.2,553.4,M,42.4,M,,*57
$GPGLL,4933.3487,N,01823.6040,E,101602.000,A,A*52
$GPRMC,101602.000,A,4933.3487,N,01823.6040,E,0.4,121.4,191014,,,A*6B
$GPGSA,A,3,08,16,18,21,27,,,,,,,,,2.2,*32
$GPVTG,121.4,T,,M,0.3,N,0.6,K,A*0E
$GPGSV,3,1,12,27,52,297,32,08,18,288,26,16,60,238,28,18,55,120,28*72
$GPGSV,3,2,12,21,58,066,23,22,35,174,23,19,22,292,27,07,10,321,15*77
$GPGSV,3,3,12,29,06,111,00,15,13,070,00,26,07,034,00,03,21,298,00*70
$GPGGA,101603.000,4933.3488,N,01823.6042,E,1,05,2.2,553.4,M,42.4,M,,*5B
$GPGLL,4933.3488,N,01823.6042,E,101603.000,A,A*5E
$GPRMC,101603.000,A,4933.3488,N,01823.6042,E,0.3,121.4,191014,,,A*60
$GPGSA,A,3,08,16,18,21,27,,,,,,,,,2.2,*32
$GPVTG,121.4,T,,M,0.4,N,0.8,K,A*07
$GPGSV,3,1,12,27,53,297,29,08,18,286,28,16,59,235,31,18,56,117,28*71
$GPGSV,3,2,12,21,57,066,23,22,37,172,23,19,23,292,27,07,10,319,15*76
$GPGSV,3,3,12,29,05,111,00,15,13,069,00,26,07,033,00,03,22,298,00*7F
$GPGGA,101604.000,4933.3488,N,01823.6037,E,1,05,2.2,552.2,M,42.4,M,,*59
$GPGLL,4933.3488,N,01823.6037,E,101604.000,A,A*5B
$GPRMC,101604.000,A,4933.3488,N,01823.6037,E,0.4,121.4,191014,,,A*62
$GPGSA,A,3,08,16,18,21,27,,,,,,,,,2.2,*32
$GPVTG,121.4,T,,M,0.3,N,0.6,K,A*0E
$GPGSV,3,1,12,27,53,297,24,08,18,286,25,16,59,235,29,18,56,117,31*70
$GPGSV,3,2,12,21,57,066,23,22,37,172,24,19,23,292,22,07,10,319,15*74
$GPGSV,3,3,12,29,05,111,00,15,13,069,00,26,07,033,00,03,22,298,00*7F
$GPGGA,101605.000,4933.3486,N,01823.6036,E,1,05,2.2,552.2,M,42.4,M,,*57
$GPGLL,4933.3486,N,01823.6036,E,101605.000,A,A*55
$GPRMC,101605.000,A,4933.3486,N,01823.6036,E,0.3,121.4,191014,,,A*6B
$GPGSA,A,3,08,16,18,21,27,,,,,,,,,2.2,*32
$GPVTG,121.4,T,,M,0.6,N,1.2,K,A*0E
$GPGSV,3,1,12,27,53,297,25,08,18,286,18,16,59,235,28,18,56,117,32*7D
$GPGSV,3,2,12,21,57,066,22,22,37,172,30,19,23,292,22,07,10,319,15*70
$GPGSV,3,3,12,29,05,111,00,15,13,069,00,26,07,033,00,03,22,298,00*7F
$GPGGA,101606.000,4933.3497,N,01823.6047,E,1,05,2.2,551.7,M,42.4,M,,*54
$GPGLL,4933.3497,N,01823.6047,E,101606.000,A,A*50
$GPRMC,101606.000,A,4933.3497,N,01823.6047,E,0.6,121.4,191014,,,A*6B
$GPGSA,A,3,08,16,18,21,27,,,,,,,,,2.2,*32
$GPVTG,121.4,T,,M,0.8,N,1.4,K,A*06
$GPGSV,3,1,12,27,53,297,27,08,18,286,19,16,59,235,28,18,56,117,31*7D
$GPGSV,3,2,12,21,57,066,22,22,37,172,30,19,23,292,22,07,10,319,15*70
$GPGSV,3,3,12,29,05,111,00,15,13,069,00,26,07,033,00,03,22,298,00*7F
$GPGGA,101607.000,4933.3496,N,01823.6050,E,1,05,2.2,551.6,M,42.4,M,,*53
$GPGLL,4933.3496,N,01823.6050,E,101607.000,A,A*56
$GPRMC,101607.000,A,4933.3496,N,01823.6050,E,0.8,121.4,191014,,,A*63
$GPGSA,A,3,08,16,18,21,27,,,,,,,,,2.2,*32
$GPVTG,121.4,T,,M,1.1,N,2.1,K,A*08
$GPGSV,3,1,12,27,53,297,27,08,18,286,20,16,59,235,29,18,56,117,30*77
$GPGSV,3,2,12,21,57,066,22,22,37,172,30,19,23,292,22,07,10,319,15*70
$GPGSV,3,3,12,29,05,111,00,15,13,069,00,26,07,033,00,03,22,298,00*7F
$GPGGA,101608.000,4933.3502,N,01823.6055,E,1,05,2.2,551.7,M,42.4,M,,*54
$GPGLL,4933.3502,N,01823.6055,E,101608.000,A,A*50
$GPRMC,101608.000,A,4933.3502,N,01823.6055,E,1.1,121.4,191014,,,A*6D
$GPGSA,A,3,08,16,18,21,27,,,,,,,,,2.2,*32
$GPVTG,80.7,T,,M,1.2,N,2.2,K,A*31
$GPGSV,3,1,12,27,53,297,28,08,18,286,20,16,59,235,28,18,56,117,30*79
$GPGSV,3,2,12,21,57,066,23,22,37,172,29,19,23,292,22,07,10,319,15*79
$GPGSV,3,3,12,29,05,111,00,15,13,069,00,26,07,033,00,03,22,298,00*7F
$GPGGA,101609.000,4933.3508,N,01823.6059,E,1,05,2.2,551.7,M,42.4,M,,*53
$GPGLL,4933.3508,N,01823.6059,E,101609.000,A,A*57
$GPRMC,101609.000,A,4933.3508,N,01823.6059,E,1.2,80.7,191014,,,A*50
$GPGSA,A,3,08,16,18,21,27,,,,,,,,,2.2,*32
$GPVTG,55.8,T,,M,1.8,N,3.4,K,A*3B
$GPGSV,3,1,12,27,53,297,28,08,18,286,20,16,59,235,29,18,56,117,29*70
$GPGSV,3,2,12,21,57,066,29,22,37,172,30,19,23,292,22,07,10,319,15*7B
$GPGSV,3,3,12,29,05,111,00,15,13,069,00,26,07,033,00,03,22,298,00*7F
$GPGGA,101610.000,4933.3516,N,01823.6071,E,1,05,2.2,551.5,M,42.4,M,,*5C
$GPGLL,4933.3516,N,01823.6071,E,101610.000,A,A*5A
$GPRMC,101610.000,A,4933.3516,N,01823.6071,E,1.8,55.8,191014,,,A*50
$GPGSA,A,3,08,16,18,21,27,,,,,,,,,2.2,*32
$GPVTG,55.8,T,,M,1.0,N,1.9,K,A*3C
$GPGSV,3,1,12,27,53,297,28,08,18,286,20,16,59,235,29,18,56,117,30*78
$GPGSV,3,2,12,21,57,066,29,22,37,172,30,19,23,292,22,07,10,319,15*7B
$GPGSV,3,3,12,29,05,111,00,15,13,069,00,26,07,033,00,03,22,298,00*7F
$GPGGA,101611.000,4933.3518,N,01823.6073,E,1,05,2.2,551.4,M,42.4,M,,*50
$GPGLL,4933.3518,N,01823.6073,E,101611.000,A,A*57
$GPRMC,101611.000,A,4933.3518,N,01823.6073,E,1.0,55.8,191014,,,A*55
$GPGSA,A,3,08,16,18,21,27,,,,,,,,,2.2,*32
$GPVTG,55.8,T,,M,0.8,N,1.5,K,A*39
$GPGSV,3,1,12,27,53,297,28,08,18,286,19,16,59,235,29,18,56,117,36*74
$GPGSV,3,2,12,21,57,066,24,22,37,172,24,19,23,292,22,07,10,319,15*73
$GPGSV,3,3,12,29,05,111,00,15,13,069,00,26,07,033,00,03,22,298,00*7F
$GPGGA,101612.000,4933.3516,N,01823.6079,E,1,05,2.2,551.1,M,42.4,M,,*52
$GPGLL,4933.3516,N,01823.6079,E,101612.000,A,A*50
$GPRMC,101612.000,A,4933.3516,N,01823.6079,E,0.8,55.8,191014,,,A*5B
$GPGSA,A,3,08,16,18,21,27,,,,,,,,,2.2,*32
$GPVTG,55.8,T,,M,0.4,N,0.8,K,A*39
$GPGSV,3,1,12,27,53,297,28,08,18,286,20,16,59,235,29,18,56,117,36*7E
$GPGSV,3,2,12,21,57,066,23,22,37,172,25,19,23,292,22,07,10,319,15*75
$GPGSV,3,3,12,29,05,111,00,15,13,069,00,26,07,033,00,03,22,298,00*7F
$GPGGA,101613.000,4933.3512,N,01823.6079,E,1,05,2.2,551.1,M,42.4,M,,*57
$GPGLL,4933.3512,N,01823.6079,E,101613.000,A,A*55
$GPRMC,101613.000,A,4933.3512,N,01823.6079,E,0.4,55.8,191014,,,A*52
$GPGSA,A,3,08,16,18,21,27,,,,,,,,,2.2,*32
$GPVTG,55.8,T,,M,0.8,N,1.4,K,A*38
$GPGSV,3,1,12,27,53,297,28,08,18,286,22,16,59,235,29,18,56,117,29*72
$GPGSV,3,2,12,21,57,066,23,22,37,172,27,19,23,292,21,07,10,319,16*77
$GPGSV,3,3,12,29,05,111,00,15,13,069,00,26,07,033,00,03,22,298,00*7F
$GPGGA,101614.000,4933.3512,N,01823.6083,E,1,05,2.2,551.0,M,42.4,M,,*54
$GPGLL,4933.3512,N,01823.6083,E,101614.000,A,A*57
$GPRMC,101614.000,A,4933.3512,N,01823.6083,E,0.8,55.8,191014,,,A*5C
$GPGSA,A,3,08,16,18,21,27,,,,,,,,,2.2,*32
$GPVTG,55.8,T,,M,0.6,N,1.0,K,A*32
$GPGSV,3,1,12,27,53,297,28,08,18,286,28,16,59,235,29,18,56,117,32*72
$GPGSV,3,2,12,21,57,066,24,22,37,172,27,19,23,292,22,07,10,319,16*73
$GPGSV,3,3,12,29,05,111,00,15,13,069,00,26,07,033,00,03,22,298,00*7F
$GPGGA,101615.000,4933.3508,N,01823.6084,E,1,05,2.2,551.6,M,42.4,M,,*5F
$GPGLL,4933.3508,N,01823.6084,E,101615.000,A,A*5A
$GPRMC,101615.000,A,4933.3508,N,01823.6084,E,0.6,55.8,191014,,,A*5F
$GPGSA,A,3,08,16,18,21,27,,,,,,,,,2.2,*32
$GPVTG,55.8,T,,M,1.1,N,2.1,K,A*36
$GPGSV,3,1,12,27,53,297,28,08,18,286,25,16,59,235,29,18,56,117,31*7C
$GPGSV,3,2,12,21,57,066,23,22,37,172,27,19,23,292,24,07,10,319,16*72
$GPGSV,3,3,12,29,05,111,00,15,13,069,00,26,07,033,00,03,22,298,00*7F
$GPGGA,101616.000,4933.3505,N,01823.6088,E,1,05,2.2,551.6,M,42.4,M,,*5D
$GPGLL,4933.3505,N,01823.6088,E,101616.000,A,A*58
$GPRMC,101616.000,A,4933.3505,N,01823.6088,E,1.1,55.8,191014,,,A*5B
$GPGSA,A,3,08,16,18,21,27,,,,,,,,,2.2,*32
$GPVTG,55.8,T,,M,1.0,N,1.9,K,A*3C
$GPGSV,3,1,12,27,53,297,28,08,18,286,24,16,59,235,29,18,56,117,32*7E
$GPGSV,3,2,12,21,57,066,23,22,37,172,27,19,23,292,23,07,10,319,16*75
$GPGSV,3,3,12,29,05,111,00,15,13,069,00,26,07,033,00,03,22,298,00*7F
$GPGGA,101617.000,4933.3498,N,01823.6092,E,1,05,2.2,551.6,M,42.4,M,,*52
$GPGLL,4933.3498,N,01823.6092,E,101617.000,A,A*57
$GPRMC,101617.000,A,4933.3498,N,01823.6092,E,1.0,55.8,191014,,,A*55
$GPGSA,A,3,08,16,18,21,27,,,,,,,,,2.2,*32
$GPVTG,55.8,T,,M,1.0,N,1.8,K,A*3D
$GPGSV,3,1,12,27,53,297,28,08,18,286,23,16,59,235,28,18,56,117,33*79
$GPGSV,3,2,12,21,57,066,23,22,37,172,28,19,23,292,23,07,10,319,16*7A
$GPGSV,3,3,12,29,05,111,00,15,13,069,00,26,07,033,00,03,22,298,00*7F
$GPGGA,101618.000,4933.3497,N,01823.6100,E,1,05,2.2,551.7,M,42.4,M,,*59
$GPGLL,4933.3497,N,01823.6100,E,101618.000,A,A*5D
$GPRMC,101618.000,A,4933.3497,N,01823.6100,E,1.0,55.8,191014,,,A*5F
$GPGSA,A,3,16,18,21,27,,,,,,,,,,2.2,*3A
$GPVTG,55.8,T,,M,0.7,N,1.3,K,A*30
$GPGSV,3,1,12,27,53,297,28,08,18,286,13,16,59,235,27,18,56,117,33*75
$GPGSV,3,2,12,21,57,066,23,22,37,172,29,19,23,292,23,07,10,319,15*78
$GPGSV,3,3,12,29,05,111,00,15,13,069,00,26,07,033,00,03,22,298,00*7F
$GPGGA,101619.000,4933.3490,N,01823.6104,E,1,04,2.2,551.5,M,42.4,M,,*58
$GPGLL,4933.3490,N,01823.6104,E,101619.000,A,A*5F
$GPRMC,101619.000,A,4933.3490,N,01823.6104,E,0.7,55.8,191014,,,A*5B
$GPGSA,A,3,08,16,18,21,27,,,,,,,,,2.2,*32
$GPVTG,55.8,T,,M,0.8,N,1.5,K,A*39
$GPGSV,3,1,12,27,53,297,28,08,18,286,13,16,59,235,27,18,56,117,27*70
$GPGSV,3,2,12,21,57,066,14,22,37,172,32,19,23,292,22,07,10,319,16*74
$GPGSV,3,3,12,29,05,111,00,15,13,069,00,26,07,033,00,03,22,298,00*7F
$GPGGA,101620.000,4933.3493,N,01823.6109,E,1,05,2.2,551.5,M,42.4,M,,*5D
$GPGLL,4933.3493,N,01823.6109,E,101620.000,A,A*5B
$GPRMC,101620.000,A,4933.3493,N,01823.6109,E,0.8,55.8,191014,,,A*50
$GPGSA,A,3,08,16,18,21,27,,,,,,,,,2.2,*32
$GPVTG,55.8,T,,M,0.8,N,1.5,K,A*39
$GPGSV,3,1,12,27,53,297,29,08,18,286,20,16,59,235,27,18,56,117,31*76
$GPGSV,3,2,12,21,57,066,22,22,37,172,28,19,23,292,29,07,10,319,16*71
$GPGSV,3,3,12,29,05,111,00,15,13,069,00,26,07,033,00,03,22,298,00*7F
$GPGGA,101621.000,4933.3494,N,01823.6115,E,1,05,2.2,551.5,M,42.4,M,,*56
$GPGLL,4933.3494,N,01823.6115,E,101621.000,A,A*50
$GPRMC,101621.000,A,4933.3494,N,01823.6115,E,0.8,55.8,191014,,,A*5B
$GPGSA,A,3,08,16,18,21,27,,,,,,,,,2.2,*32
$GPVTG,55.8,T,,M,0.6,N,1.1,K,A*33
$GPGSV,3,1,12,27,53,297,28,08,18,286,22,16,59,235,22,18,56,117,32*73
$GPGSV,3,2,12,21,57,066,23,22,37,172,24,19,23,292,21,07,10,319,16*74
$GPGSV,3,3,12,29,05,111,00,15,13,069,00,26,07,033,00,03,22,298,00*7F
$GPGGA,101622.000,4933.3494,N,01823.6121,E,1,05,2.2,551.4,M,42.4,M,,*53
$GPGLL,4933.3494,N,01823.6121,E,101622.000,A,A*54
$GPRMC,101622.000,A,4933.3494,N,01823.6121,E,0.6,55.8,191014,,,A*51
$GPEVT,19102014,121621.561,1,,,*50
$GPEVT,19102014,121621.561,2,,,*53
$GPGSA,A,3,08,16,18,21,27,,,,,,,,,2.2,*32
$GPVTG,55.8,T,,M,0.8,N,1.4,K,A*38
$GPGSV,3,1,12,27,53,297,28,08,18,286,23,16,59,235,21,18,56,117,31*72
$GPGSV,3,2,12,21,57,066,23,22,37,172,25,19,23,292,14,07,10,319,16*73
$GPGSV,3,3,12,29,05,111,00,15,13,069,00,26,07,033,00,03,22,298,00*7F
$GPGGA,101623.000,4933.3495,N,01823.6125,E,1,05,2.2,551.4,M,42.4,M,,*57
$GPGLL,4933.3495,N,01823.6125,E,101623.000,A,A*50
$GPRMC,101623.000,A,4933.3495,N,01823.6125,E,0.8,55.8,191014,,,A*5B
$GPGSA,A,3,08,16,18,21,27,,,,,,,,,2.2,*32
$GPVTG,55.8,T,,M,1.0,N,1.8,K,A*3D
$GPGSV,3,1,12,27,53,297,29,08,18,286,22,16,59,235,22,18,56,117,31*71
$GPGSV,3,2,12,21,57,066,24,22,37,172,25,19,23,292,18,07,10,319,16*78
$GPGSV,3,3,12,29,05,111,00,15,13,069,00,26,07,033,00,03,22,298,00*7F
$GPGGA,101624.000,4933.3501,N,01823.6132,E,1,05,2.2,551.5,M,42.4,M,,*5B
$GPGLL,4933.3501,N,01823.6132,E,101624.000,A,A*5D
$GPRMC,101624.000,A,4933.3501,N,01823.6132,E,1.0,55.8,191014,,,A*5F
$GPGSA,A,3,08,16,18,21,27,,,,,,,,,2.2,*32
$GPVTG,55.8,T,,M,0.6,N,1.2,K,A*30
$GPGSV,3,1,12,27,53,297,33,08,18,286,22,16,59,235,22,18,56,117,30*7B
$GPGSV,3,2,12,21,57,066,24,22,37,172,30,19,23,292,21,07,10,319,15*75
$GPGSV,3,3,12,29,05,111,00,15,13,069,00,26,07,033,00,03,22,298,00*7F
$GPGGA,101625.000,4933.3502,N,01823.6131,E,1,05,2.2,551.5,M,42.4,M,,*5A
$GPGLL,4933.3502,N,01823.6131,E,101625.000,A,A*5C
$GPRMC,101625.000,A,4933.3502,N,01823.6131,E,0.6,55.8,191014,,,A*59
$GPGSA,A,3,08,16,18,21,27,,,,,,,,,2.2,*32
$GPVTG,55.8,T,,M,0.3,N,0.6,K,A*30
$GPGSV,3,1,12,27,53,297,33,08,18,286,23,16,59,235,22,18,56,117,25*7E
$GPGSV,3,2,12,21,57,066,24,22,37,172,33,19,23,292,26,07,10,319,15*71
$GPGSV,3,3,12,29,05,111,00,15,13,069,00,26,07,033,00,03,22,298,00*7F
$GPGGA,101626.000,4933.3499,N,01823.6129,E,1,05,2.2,551.5,M,42.4,M,,*53
$GPGLL,4933.3499,N,01823.6129,E,101626.000,A,A*55
$GPRMC,101626.000,A,4933.3499,N,01823.6129,E,0.3,55.8,191014,,,A*55
$GPGSA,A,3,08,16,18,21,27,,,,,,,,,2.2,*32
$GPVTG,55.8,T,,M,0.6,N,1.0,K,A*32
$GPGSV,3,1,12,27,53,297,33,08,18,286,23,16,59,235,23,18,56,117,27*7D
$GPGSV,3,2,12,21,57,066,24,22,37,172,30,19,23,292,25,07,10,319,15*71
$GPGSV,3,3,12,29,05,111,00,15,13,069,00,26,07,033,00,03,22,298,00*7F
$GPGGA,101627.000,4933.3505,N,01823.6131,E,1,05,2.2,551.4,M,42.4,M,,*5E
$GPGLL,4933.3505,N,01823.6131,E,101627.000,A,A*59
$GPRMC,101627.000,A,4933.3505,N,01823.6131,E,0.6,55.8,191014,,,A*5C
$GPGSA,A,3,08,16,18,21,27,,,,,,,,,2.2,*32
$GPVTG,55.8,T,,M,0.8,N,1.5,K,A*39
$GPGSV,3,1,12,27,53,297,29,08,18,286,22,16,59,235,23,18,56,117,28*78
$GPGSV,3,2,12,21,57,066,24,22,37,172,31,19,23,292,24,07,10,319,15*71
$GPGSV,3,3,12,29,05,111,00,15,13,069,00,26,07,033,00,03,22,298,00*7F
$GPGGA,101628.000,4933.3513,N,01823.6137,E,1,05,2.2,551.4,M,42.4,M,,*50
$GPGLL,4933.3513,N,01823.6137,E,101628.000,A,A*57
$GPRMC,101628.000,A,4933.3513,N,01823.6137,E,0.8,55.8,191014,,,A*5C
$GPGSA,A,3,08,16,18,21,27,,,,,,,,,2.2,*32
$GPVTG,55.8,T,,M,1.1,N,2.0,K,A*37
$GPGSV,3,1,12,27,53,297,32,08,18,286,22,16,59,235,23,18,56,117,28*72
$GPGSV,3,2,12,21,57,066,24,22,37,172,30,19,23,292,24,07,10,319,15*70
$GPGSV,3,3,12,29,05,111,00,15,13,069,00,26,07,033,00,03,22,298,00*7F
$GPGGA,101629.000,4933.3513,N,01823.6146,E,1,05,2.2,551.6,M,42.4,M,,*55
$GPGLL,4933.3513,N,01823.6146,E,101629.000,A,A*50
$GPRMC,101629.000,A,4933.3513,N,01823.6146,E,1.1,55.8,191014,,,A*53
$GPGSA,A,3,08,16,18,21,27,,,,,,,,,2.2,*32
$GPVTG,55.8,T,,M,0.2,N,0.4,K,A*33
$GPGSV,3,1,12,27,53,297,31,08,18,286,22,16,59,235,23,18,56,117,32*7A
$GPGSV,3,2,12,21,57,066,21,22,37,172,29,19,23,292,25,07,10,319,15*7C
$GPGSV,3,3,12,29,05,111,00,15,13,069,00,26,07,033,00,03,22,298,00*7F
$GPGGA,101630.000,4933.3510,N,01823.6145,E,1,05,2.2,551.6,M,42.4,M,,*5D
$GPGLL,4933.3510,N,01823.6145,E,101630.000,A,A*58
$GPRMC,101630.000,A,4933.3510,N,01823.6145,E,0.2,55.8,191014,,,A*59
$GPGSA,A,3,08,16,18,21,27,,,,,,,,,2.2,*32
$GPVTG,55.8,T,,M,0.7,N,1.4,K,A*37
$GPGSV,3,1,12,27,53,297,26,08,18,286,22,16,59,235,27,18,56,117,36*7C
$GPGSV,3,2,12,21,57,066,21,22,37,172,27,19,23,292,25,07,10,319,15*72
$GPGSV,3,3,12,29,05,111,00,15,13,069,00,26,07,033,00,03,22,298,00*7F
$GPGGA,101631.000,4933.3510,N,01823.6151,E,1,05,2.2,551.6,M,42.4,M,,*59
$GPGLL,4933.3510,N,01823.6151,E,101631.000,A,A*5C
$GPRMC,101631.000,A,4933.3510,N,01823.6151,E,0.7,55.8,191014,,,A*58
$GPGSA,A,3,08,16,18,21,27,,,,,,,,,2.2,*32
$GPVTG,55.8,T,,M,0.8,N,1.4,K,A*38
$GPGSV,3,1,12,27,53,297,27,08,18,286,22,16,59,235,27,18,56,117,25*7F
$GPGSV,3,2,12,21,57,066,21,22,37,172,31,19,23,292,25,07,10,319,15*75
$GPGSV,3,3,12,29,05,111,00,15,13,069,00,26,07,033,00,03,22,298,00*7F
$GPGGA,101632.000,4933.3514,N,01823.6157,E,1,05,2.2,551.6,M,42.4,M,,*58
$GPGLL,4933.3514,N,01823.6157,E,101632.000,A,A*5D
$GPRMC,101632.000,A,4933.3514,N,01823.6157,E,0.8,55.8,191014,,,A*56
$GPGSA,A,3,08,16,18,21,27,,,,,,,,,2.2,*32
$GPVTG,55.8,T,,M,0.6,N,1.1,K,A*33
$GPGSV,3,1,12,27,53,297,27,08,18,286,22,16,59,235,26,18,56,117,25*7E
$GPGSV,3,2,12,21,57,066,20,22,37,172,31,19,23,292,25,07,10,319,15*74
$GPGSV,3,3,12,29,05,111,00,15,13,069,00,26,07,033,00,03,22,298,00*7F
$GPGGA,101633.000,4933.3514,N,01823.6159,E,1,05,2.2,551.6,M,42.4,M,,*57
$GPGLL,4933.3514,N,01823.6159,E,101633.000,A,A*52
$GPRMC,101633.000,A,4933.3514,N,01823.6159,E,0.6,55.8,191014,,,A*57
$GPGSA,A,3,08,16,18,21,27,,,,,,,,,2.2,*32
$GPVTG,55.8,T,,M,1.1,N,2.1,K,A*36
$GPGSV,3,1,12,27,53,297,27,08,18,286,22,16,59,235,26,18,56,117,26*7D
$GPGSV,3,2,12,21,57,066,21,22,37,172,31,19,23,292,25,07,10,319,15*75
$GPGSV,3,3,12,29,05,111,00,15,13,069,00,26,07,033,00,03,22,298,00*7F
$GPGGA,101634.000,4933.3522,N,01823.6165,E,1,05,2.2,551.6,M,42.4,M,,*5A
$GPGLL,4933.3522,N,01823.6165,E,101634.000,A,A*5F
$GPRMC,101634.000,A,4933.3522,N,01823.6165,E,1.1,55.8,191014,,,A*5C
$GPGSA,A,3,08,16,18,21,27,,,,,,,,,2.2,*32
$GPVTG,55.8,T,,M,0.9,N,1.7,K,A*3A
$GPGSV,3,1,12,27,53,297,27,08,18,286,22,16,59,235,27,18,56,117,35*7E
$GPGSV,3,2,12,21,57,066,21,22,37,172,31,19,23,292,18,07,10,319,15*7B
$GPGSV,3,3,12,29,05,111,00,15,13,069,00,26,07,033,00,03,22,298,00*7F
$GPGGA,101635.000,4933.3522,N,01823.6168,E,1,05,2.2,551.4,M,42.4,M,,*54
$GPGLL,4933.3522,N,01823.6168,E,101635.000,A,A*53
$GPRMC,101635.000,A,4933.3522,N,01823.6168,E,0.9,55.8,191014,,,A*59
$GPGSA,A,3,08,16,18,21,27,,,,,,,,,2.2,*32
$GPVTG,42.4,T,,M,1.4,N,2.5,K,A*3D
$GPGSV,3,1,12,27,53,297,27,08,18,286,22,16,59,235,27,18,56,117,31*7A
$GPGSV,3,2,12,21,57,066,21,22,37,172,26,19,23,292,14,07,10,319,15*71
$GPGSV,3,3,12,29,05,111,00,15,13,069,00,26,07,033,00,03,22,298,00*7F
$GPGGA,101636.000,4933.3522,N,01823.6173,E,1,05,2.2,551.3,M,42.4,M,,*5A
$GPGLL,4933.3522,N,01823.6173,E,101636.000,A,A*5A
$GPRMC,101636.000,A,4933.3522,N,01823.6173,E,1.4,42.4,191014,,,A*56
$GPGSA,A,3,08,16,18,21,27,,,,,,,,,2.2,*32
$GPVTG,30.5,T,,M,1.4,N,2.6,K,A*3A
$GPGSV,3,1,12,27,53,297,27,08,18,286,18,16,59,235,27,18,56,117,26*75
$GPGSV,3,2,12,21,57,066,21,22,37,172,24,19,23,292,15,07,10,319,15*72
$GPGSV,3,3,12,29,05,111,00,15,13,069,00,26,07,033,00,03,22,298,00*7F
$GPGGA,101637.000,4933.3523,N,01823.6176,E,1,05,2.2,551.4,M,42.4,M,,*58
$GPGLL,4933.3523,N,01823.6176,E,101637.000,A,A*5F
$GPRMC,101637.000,A,4933.3523,N,01823.6176,E,1.4,30.5,191014,,,A*57
$GPGSA,A,3,08,16,18,21,27,,,,,,,,,2.2,*32
$GPVTG,26.9,T,,M,1.4,N,2.5,K,A*32
$GPGSV,3,1,12,27,53,297,25,08,18,286,16,16,59,235,27,18,56,117,29*76
$GPGSV,3,2,12,21,57,066,26,22,37,172,26,19,23,292,16,07,10,319,15*74
$GPGSV,3,3,12,29,05,111,00,15,13,069,00,26,07,033,00,03,22,298,00*7F
$GPGGA,101638.000,4933.3529,N,01823.6179,E,1,05,2.2,551.4,M,42.4,M,,*52
$GPGLL,4933.3529,N,01823.6179,E,101638.000,A,A*55
$GPRMC,101638.000,A,4933.3529,N,01823.6179,E,1.4,26.9,191014,,,A*56
$GPGSA,A,3,08,16,18,21,27,,,,,,,,,2.2,*32
$GPVTG,24.1,T,,M,1.4,N,2.6,K,A*3B
$GPGSV,3,1,12,27,53,297,23,08,18,286,16,16,59,235,25,18,56,117,29*72
$GPGSV,3,2,12,21,57,066,23,22,37,172,26,19,23,292,17,07,10,319,15*70
$GPGSV,3,3,12,29,05,111,00,15,13,069,00,26,07,033,00,03,22,298,00*7F
$GPGGA,101639.000,4933.3531,N,01823.6182,E,1,05,2.2,551.4,M,42.4,M,,*5E
$GPGLL,4933.3531,N,01823.6182,E,101639.000,A,A*59
$GPRMC,101639.000,A,4933.3531,N,01823.6182,E,1.4,24.1,191014,,,A*50
$GPGSA,A,3,08,16,18,21,27,,,,,,,,,2.2,*32
$GPVTG,23.1,T,,M,1.3,N,2.5,K,A*38
$GPGSV,3,1,12,27,53,297,24,08,18,286,17,16,59,235,25,18,56,117,29*74
$GPGSV,3,2,12,21,57,066,23,22,37,172,26,19,23,292,17,07,10,319,15*70
$GPGSV,3,3,12,29,05,111,00,15,13,069,00,26,07,033,00,03,22,298,00*7F
$GPGGA,101640.000,4933.3531,N,01823.6184,E,1,05,2.2,551.3,M,42.4,M,,*51
$GPGLL,4933.3531,N,01823.6184,E,101640.000,A,A*51
$GPRMC,101640.000,A,4933.3531,N,01823.6184,E,1.3,23.1,191014,,,A*58
$GPGSA,A,3,08,16,18,21,27,,,,,,,,,2.2,*32
$GPVTG,21.6,T,,M,1.5,N,2.7,K,A*39
$GPGSV,3,1,12,27,53,297,24,08,18,286,17,16,59,235,25,18,56,117,29*74
$GPGSV,3,2,12,21,57,066,23,22,37,172,26,19,23,292,17,07,10,319,15*70
$GPGSV,3,3,12,29,05,111,00,15,13,069,00,26,07,033,00,03,22,298,00*7F
$GPGGA,101641.000,4933.3543,N,01823.6188,E,1,05,2.2,551.2,M,42.4,M,,*58
$GPGLL,4933.3543,N,01823.6188,E,101641.000,A,A*59
$GPRMC,101641.000,A,4933.3543,N,01823.6188,E,1.5,21.6,191014,,,A*53
$GPGSA,A,3,08,16,18,21,27,,,,,,,,,2.2,*32
$GPVTG,23.2,T,,M,1.4,N,2.6,K,A*3F
$GPGSV,3,1,12,27,53,297,28,08,18,286,18,16,59,235,25,18,56,117,29*77
$GPGSV,3,2,12,21,57,066,27,22,37,172,26,19,23,292,18,07,10,319,15*7B
$GPGSV,3,3,12,29,05,111,00,15,13,069,00,26,07,033,00,03,22,298,00*7F
$GPGGA,101642.000,4933.3551,N,01823.6199,E,1,05,2.2,551.2,M,42.4,M,,*58
$GPGLL,4933.3551,N,01823.6199,E,101642.000,A,A*59
$GPRMC,101642.000,A,4933.3551,N,01823.6199,E,1.4,23.2,191014,,,A*54
$GPGSA,A,3,08,16,18,21,27,,,,,,,,,2.2,*32
$GPVTG,20.9,T,,M,1.5,N,2.7,K,A*37
$GPGSV,3,1,12,27,53,297,29,08,18,286,18,16,59,235,25,18,56,117,29*76
$GPGSV,3,2,12,21,57,066,28,22,37,172,25,19,23,292,18,07,10,319,14*76
$GPGSV,3,3,12,29,05,111,00,15,13,069,00,26,07,033,00,03,22,298,00*7F
$GPGGA,101643.000,4933.3558,N,01823.6203,E,1,05,2.2,551.2,M,42.4,M,,*50
$GPGLL,4933.3558,N,01823.6203,E,101643.000,A,A*51
$GPRMC,101643.000,A,4933.3558,N,01823.6203,E,1.5,20.9,191014,,,A*55
$GPGSA,A,3,08,16,18,21,27,,,,,,,,,2.2,*32
$GPVTG,18.4,T,,M,1.6,N,3.0,K,A*34
$GPGSV,3,1,12,27,53,297,29,08,18,286,18,16,59,235,25,18,56,117,27*78
$GPGSV,3,2,12,21,57,066,28,22,37,172,25,19,23,292,18,07,10,319,14*76
$GPGSV,3,3,12,29,05,111,00,15,13,069,00,26,07,033,00,03,22,298,00*7F
$GPGGA,101644.000,4933.3568,N,01823.6205,E,1,05,2.2,551.4,M,42.4,M,,*54
$GPGLL,4933.3568,N,01823.6205,E,101644.000,A,A*53
$GPRMC,101644.000,A,4933.3568,N,01823.6205,E,1.6,18.4,191014,,,A*52
$GPGSA,A,3,08,16,18,21,27,,,,,,,,,2.2,*32
$GPVTG,18.4,T,,M,0.9,N,1.7,K,A*3F
$GPGSV,3,1,12,27,53,297,29,08,18,286,18,16,59,235,25,18,56,117,26*79
$GPGSV,3,2,12,21,57,066,28,22,37,172,25,19,23,292,18,07,10,319,14*76
$GPGSV,3,3,12,29,05,111,00,15,13,069,00,26,07,033,00,03,22,298,00*7F
$GPGGA,101645.000,4933.3569,N,01823.6206,E,1,05,2.2,551.4,M,42.4,M,,*57
$GPGLL,4933.3569,N,01823.6206,E,101645.000,A,A*50
$GPRMC,101645.000,A,4933.3569,N,01823.6206,E,0.9,18.4,191014,,,A*5F
$GPGSA,A,3,08,16,18,21,27,,,,,,,,,2.2,*32
$GPVTG,15.6,T,,M,1.3,N,2.5,K,A*3A
$GPGSV,3,1,12,27,53,297,29,08,18,286,18,16,59,235,25,18,56,117,27*78
$GPGSV,3,2,12,21,57,066,27,22,37,172,24,19,23,292,19,07,10,319,14*79
$GPGSV,3,3,12,29,05,111,00,15,13,069,00,26,07,033,00,03,22,298,00*7F
$GPGGA,101646.000,4933.3572,N,01823.6208,E,1,05,2.2,551.5,M,42.4,M,,*51
$GPGLL,4933.3572,N,01823.6208,E,101646.000,A,A*57
$GPRMC,101646.000,A,4933.3572,N,01823.6208,E,1.3,15.6,191014,,,A*5C
$GPGSA,A,3,08,16,18,21,27,,,,,,,,,2.2,*32
$GPVTG,14.6,T,,M,1.4,N,2.6,K,A*3F
$GPGSV,3,1,12,27,53,297,29,08,18,286,18,16,59,235,25,18,56,117,26*79
$GPGSV,3,2,12,21,57,066,22,22,37,172,23,19,23,292,19,07,10,319,14*7B
$GPGSV,3,3,12,29,05,111,00,15,13,069,00,26,07,033,00,03,22,298,00*7F
$GPGGA,101647.000,4933.3577,N,01823.6208,E,1,05,2.2,551.5,M,42.4,M,,*55
$GPGLL,4933.3577,N,01823.6208,E,101647.000,A,A*53
$GPRMC,101647.000,A,4933.3577,N,01823.6208,E,1.4,14.6,191014,,,A*5E
$GPGSA,A,3,08,16,18,21,27,,,,,,,,,2.2,*32
$GPVTG,14.5,T,,M,1.7,N,3.1,K,A*39
$GPGSV,3,1,12,27,53,297,29,08,18,286,18,16,59,235,25,18,56,117,26*79
$GPGSV,3,2,12,21,57,066,21,22,37,172,22,19,23,292,19,07,10,319,14*79
$GPGSV,3,3,12,29,05,111,00,15,13,069,00,26,07,033,00,03,22,298,00*7F
$GPGGA,101648.000,4933.3586,N,01823.6212,E,1,05,2.2,551.5,M,42.4,M,,*5F
$GPGLL,4933.3586,N,01823.6212,E,101648.000,A,A*59
$GPRMC,101648.000,A,4933.3586,N,01823.6212,E,1.7,14.5,191014,,,A*54
$GPGSA,A,3,08,16,18,21,27,,,,,,,,,2.2,*32
$GPVTG,13.6,T,,M,2.7,N,5.0,K,A*39
$GPGSV,3,1,12,27,53,297,29,08,18,286,18,16,59,235,25,18,56,117,26*79
$GPGSV,3,2,12,21,57,066,20,22,37,172,22,19,23,292,19,07,10,319,13*7F
$GPGSV,3,3,12,29,05,111,00,15,13,069,00,26,07,033,00,03,22,298,00*7F
$GPGGA,101649.000,4933.3603,N,01823.6216,E,1,05,2.2,551.5,M,42.4,M,,*54
$GPGLL,4933.3603,N,01823.6216,E,101649.000,A,A*52
$GPRMC,101649.000,A,4933.3603,N,01823.6216,E,2.7,13.6,191014,,,A*58
$GPGSA,A,3,08,16,18,21,27,,,,,,,,,2.2,*32
$GPVTG,13.0,T,,M,2.6,N,4.8,K,A*37
$GPGSV,3,1,12,27,53,297,29,08,18,286,18,16,59,235,25,18,56,117,24*7B
$GPGSV,3,2,12,21,57,066,23,22,37,172,22,19,23,292,19,07,10,319,13*7C
$GPGSV,3,3,12,29,05,111,00,15,13,069,00,26,07,033,00,03,22,298,00*7F
$GPGGA,101650.000,4933.3613,N,01823.6215,E,1,05,2.2,551.6,M,42.4,M,,*5D
$GPGLL,4933.3613,N,01823.6215,E,101650.000,A,A*58
$GPRMC,101650.000,A,4933.3613,N,01823.6215,E,2.6,13.0,191014,,,A*55
$GPGSA,A,3,08,16,18,21,27,,,,,,,,,2.2,*32
$GPVTG,12.5,T,,M,3.0,N,5.6,K,A*3B
$GPGSV,3,1,12,27,53,297,29,08,18,286,18,16,59,235,25,18,56,117,22*7D
$GPGSV,3,2,12,21,57,066,28,22,37,172,22,19,23,292,22,07,10,319,12*7E
$GPGSV,3,3,12,29,05,111,00,15,13,069,00,26,07,033,00,03,22,298,00*7F
$GPGGA,101651.000,4933.3632,N,01823.6225,E,1,05,2.2,551.8,M,42.4,M,,*52
$GPGLL,4933.3632,N,01823.6225,E,101651.000,A,A*59
$GPRMC,101651.000,A,4933.3632,N,01823.6225,E,3.0,12.5,191014,,,A*57
$GPGSA,A,3,08,16,18,21,27,,,,,,,,,2.2,*32
$GPVTG,14.0,T,,M,2.4,N,4.5,K,A*3F
$GPGSV,3,1,12,27,53,297,29,08,18,286,17,16,59,235,25,18,56,117,20*70
$GPGSV,3,2,12,21,57,066,15,22,37,172,22,19,23,292,20,07,10,319,13*73
$GPGSV,3,3,12,29,05,111,00,15,13,069,00,26,07,033,00,03,22,298,00*7F
$GPGGA,101652.000,4933.3634,N,01823.6226,E,1,05,2.2,551.9,M,42.4,M,,*55
$GPGLL,4933.3634,N,01823.6226,E,101652.000,A,A*5F
$GPRMC,101652.000,A,4933.3634,N,01823.6226,E,2.4,14.0,191014,,,A*57
$GPGSA,A,3,08,16,18,21,27,,,,,,,,,2.2,*32
$GPVTG,13.5,T,,M,2.7,N,4.9,K,A*32
$GPGSV,3,1,12,27,53,297,29,08,18,286,18,16,59,235,25,18,56,117,20*7F
$GPGSV,3,2,12,21,57,066,18,22,37,172,22,19,23,292,19,07,10,319,12*75
$GPGSV,3,3,12,29,05,111,00,15,13,069,00,26,07,033,00,03,22,298,00*7F
$GPGGA,101653.000,4933.3643,N,01823.6226,E,1,05,2.2,551.9,M,42.4,M,,*54
$GPGLL,4933.3643,N,01823.6226,E,101653.000,A,A*5E
$GPRMC,101653.000,A,4933.3643,N,01823.6226,E,2.7,13.5,191014,,,A*57
$GPGSA,A,3,08,16,18,21,27,,,,,,,,,2.2,*32
$GPVTG,9.5,T,,M,2.8,N,5.1,K,A*0F
$GPGSV,3,1,12,27,53,297,28,08,18,286,18,16,59,235,22,18,56,117,20*79
$GPGSV,3,2,12,21,57,066,20,22,37,172,22,19,23,292,20,07,10,319,12*74
$GPGSV,3,3,12,29,05,111,00,15,13,069,00,26,07,033,00,03,22,298,00*7F
