$GPGSA,A,1,,,,,,,,,,,,,,,*1E
$GPGSA,A,1,,,,,,,,,,,,,,,*1E
$GPGSA,A,1,,,,,,,,,,,,,,,*1E
$GPGSA,A,1,,,,,,,,,,,,,,,*1E
$GPGSA,A,1,,,,,,,,,,,,,,,*1E
$GPGSA,A,1,,,,,,,,,,,,,,,*1E
$GPGSA,A,1,,,,,,,,,,,,,,,*1E
$GPGSA,A,1,,,,,,,,,,,,,,,*1E
$GPGSA,A,1,,,,,,,,,,,,,,,*1E
$GPGSA,A,1,,,,,,,,,,,,,,,*1E
$GPGSA,A,1,,,,,,,,,,,,,,,*1E
$GPGSA,A,1,,,,,,,,,,,,,,,*1E
$GPGSA,A,1,,,,,,,,,,,,,,,*1E
$GPGSA,A,1,,,,,,,,,,,,,,,*1E
$GPGSA,A,1,,,,,,,,,,,,,,,*1E
$GPGSA,A,1,,,,,,,,,,,,,,,*1E
$GPGSA,A,1,,,,,,,,,,,,,,,*1E
$GPGSA,A,1,,,,,,,,,,,,,,,*1E
$GPGSA,A,1,,,,,,,,,,,,,,,*1E
$GPGSA,A,1,,,,,,,,,,,,,,,*1E
$GPGSA,A,1,,,,,,,,,,,,,,,*1E
$GPGSA,A,1,,,,,,,,,,,,,,,*1E
$GPGSA,A,1,,,,,,,,,,,,,,,*1E
$GPGSA,A,1,,,,,,,,,,,,,,,*1E
$GPGSA,A,1,,,,,,,,,,,,,,,*1E
$GPGSA,A,1,,,,,,,,,,,,,,,*1E
$GPGSA,A,1,,,,,,,,,,,,,,,*1E
$GPGSA,A,1,,,,,,,,,,,,,,,*1E
$GPGSA,A,1,,,,,,,,,,,,,,,*1E
$GPGSA,A,1,,,,,,,,,,,,,,,*1E
$GPGSA,A,1,,,,,,,,,,,,,,,*1E
$GPGSA,A,1,,,,,,,,,,,,,,,*1E
$GPGSA,A,1,,,,,,,,,,,,,,,*1E
$GPGSA,A,1,,,,,,,,,,,,,,,*1E
$GPGSA,A,1,,,,,,,,,,,,,,,*1E
$GPGSA,A,1,,,,,,,,,,,,,,,*1E
$GPGSA,A,1,,,,,,,,,,,,,,,*1E
$GPGSA,A,1,,,,,,,,,,,,,,,*1E
$GPGSA,A,1,,,,,,,,,,,,,,,*1E
$GPGSV,2,1,07,02,05,044,18,05,23,065,18,16,13,305,18,21,43,195,18*77
$GPGSV,2,2,07,25,35,134,18,29,70,060,18,31,42,240,18*48
$QZGSV,1,1,,,,,,,,,,,,,0.0*4B
$QZGSA,1,1,,,,,,,,,,,,,0.0*5C
$GPGSA,A,1,,,,,,,,,,,,,,,*1E
$GPGSA,A,1,,,,,,,,,,,,,,,*1E
$GPGSA,A,1,,,,,,,,,,,,,,,*1E
$GPGSA,A,1,,,,,,,,,,,,,,,*1E
$GPGSA,A,1,,,,,,,,,,,,,,,*1E
$GPGSA,A,1,,,,,,,,,,,,,,,*1E
$GPGSA,A,1,,,,,,,,,,,,,,,*1E
$GPGSA,A,1,,,,,,,,,,,,,,,*1E
$GPGSA,A,1,,,,,,,,,,,,,,,*1E
$GPGSA,A,1,,,,,,,,,,,,,,,*1E
$GPGSA,A,1,,,,,,,,,,,,,,,*1E
$GPGSA,A,1,,,,,,,,,,,,,,,*1E
$GPGSA,A,1,,,,,,,,,,,,,,,*1E
$GPGSA,A,1,,,,,,,,,,,,,,,*1E
$GPGSA,A,1,,,,,,,,,,,,,,,*1E
$GPGSA,A,1,,,,,,,,,,,,,,,*1E
$GPGSA,A,1,,,,,,,,,,,,,,,*1E
$GPGSA,A,1,,,,,,,,,,,,,,,*1E
$GPGSA,A,1,,,,,,,,,,,,,,,*1E
$GPGSA,A,1,,,,,,,,,,,,,,,*1E
$GPGSA,A,1,,,,,,,,,,,,,,,*1E
$GPGSA,A,1,,,,,,,,,,,,,,,*1E
$GPGSA,A,1,,,,,,,,,,,,,,,*1E
$GPGSA,A,1,,,,,,,,,,,,,,,*1E
$GPGSA,A,1,,,,,,,,,,,,,,,*1E
$GPGSA,A,1,,,,,,,,,,,,,,,*1E
$GPGSA,A,1,,,,,,,,,,,,,,,*1E
$GPGSA,A,1,,,,,,,,,,,,,,,*1E
$GPGSA,A,1,,,,,,,,,,,,,,,*1E
$GPGSA,A,1,,,,,,,,,,,,,,,*1E
$GPGSA,A,1,,,,,,,,,,,,,,,*1E
$GPGSA,A,1,,,,,,,,,,,,,,,*1E
$GPGSV,1,1,01,16,13,305,08*43
$QZGSV,1,1,,,,,,,,,,,,,0.0*4B
$QZGSA,1,1,,,,,,,,,,,,,0.0*5C
$GPGSA,A,1,,,,,,,,,,,,,,,*1E
$GPGSV,1,1,02,09,01,352,07,16,13,305,07*74
$QZGSV,1,1,,,,,,,,,,,,,0.0*4B
$QZGSA,1,1,,,,,,,,,,,,,0.0*5C
$GPGSA,A,1,,,,,,,,,,,,,,,*1E
$GPGSV,1,1,02,09,01,352,07,16,13,305,07*74
$QZGSV,1,1,,,,,,,,,,,,,0.0*4B
$QZGSA,1,1,,,,,,,,,,,,,0.0*5C
$GPGSA,A,1,,,,,,,,,,,,,,,*1E
$GPGSV,1,1,02,05,18,043,33,29,48,080,34*78
$QZGSV,1,1,,,,,,,,,,,,,0.0*4B
$QZGSA,1,1,,,,,,,,,,,,,0.0*5C
$GPGSA,A,1,,,,,,,,,,,,,,,*1E
$GPGSV,1,1,02,05,18,043,33,29,48,080,33*7F
$QZGSV,1,1,,,,,,,,,,,,,0.0*4B
$QZGSA,1,1,,,,,,,,,,,,,0.0*5C
$GPGSA,A,2,05,29,,,,,,,,,,,45.1,44.8,3.2*34
$GPGSV,2,1,05,05,18,043,32,16,35,307,24,21,67,193,22,29,48,080,33*70
$GPGSV,2,2,05,31,23,222,21*4E
$GLGSV,1,1,03,70,26,049,29,76,34,206,19,88,03,259,20*56
$QZGSV,1,1,,,,,,,,,,,,,0.0*4B
$QZGSA,1,1,,,,,,,,,,,,,0.0*5C
$GNGSA,A,2,05,29,,,,,,,,,,,45.0,44.8,3.0*29
$GNGSA,A,2,70,,,,,,,,,,,,45.0,44.8,3.0*20
$GPGSA,A,3,05,16,29,31,,,,,,,,,3.2,1.2,3.0*38
$GPGSV,2,1,06,05,18,043,32,08,12,329,20,16,35,307,24,21,67,193,22*7D
$GPGSV,2,2,06,29,48,080,33,31,22,222,21*73
$GLGSV,1,1,03,70,26,049,29,76,34,206,20,88,03,259,18*57
$QZGSV,1,1,,,,,,,,,,,,,0.0*4B
$QZGSA,1,1,,,,,,,,,,,,,0.0*5C
$GNGSA,A,3,05,16,29,31,,,,,,,,,3.2,1.2,2.8*2F
$GNGSA,A,3,70,76,,,,,,,,,,,3.2,1.2,2.8*22
$GPGSA,A,3,05,16,21,29,31,,,,,,,,2.4,1.2,2.1*3C
$GPGSV,2,1,06,05,18,043,32,08,12,329,19,16,35,307,24,21,67,193,22*77
$GPGSV,2,2,06,29,48,080,33,31,22,222,21*73
$GLGSV,1,1,03,70,26,049,29,76,34,206,20,88,03,259,18*57
$QZGSV,1,1,,,,,,,,,,,,,0.0*4B
$QZGSA,1,1,,,,,,,,,,,,,0.0*5C
$GNGSA,A,3,05,16,21,29,31,,,,,,,,2.2,1.2,2.0*25
$GNGSA,A,3,70,76,,,,,,,,,,,2.2,1.2,2.0*2B
$GPGSA,A,3,05,08,16,21,29,31,,,,,,,2.2,1.0,2.0*31
$GPGSV,2,1,06,05,18,043,30,08,12,329,18,16,35,307,22,21,67,193,22*72
$GPGSV,2,2,06,29,48,080,32,31,22,222,22*71
$GLGSV,1,1,04,78,16,336,16,70,26,049,30,76,34,206,18,88,03,259,17*65
$QZGSV,1,1,,,,,,,,,,,,,0.0*4B
$QZGSA,1,1,,,,,,,,,,,,,0.0*5C
$GNGSA,A,3,05,08,16,21,29,31,,,,,,,2.2,1.0,1.8*24
$GNGSA,A,3,70,76,,,,,,,,,,,2.2,1.0,1.8*22
$GPGSA,A,3,05,08,16,18,21,29,31,,,,,,1.7,0.8,1.5*31
$GPGSV,2,1,07,05,18,043,30,08,12,329,17,16,35,307,21,18,14,158,18*7F
$GPGSV,2,2,07,21,67,193,22,29,48,080,33,31,22,222,22*48
$GLGSV,1,1,04,78,16,336,12,70,26,049,31,76,34,206,17,88,03,259,16*6E
$QZGSV,1,1,,,,,,,,,,,,,0.0*4B
$QZGSA,1,1,,,,,,,,,,,,,0.0*5C
$GNGSA,A,3,05,08,16,18,21,29,31,,,,,,1.6,0.8,1.4*2F
$GNGSA,A,3,70,76,,,,,,,,,,,1.6,0.8,1.4*20
$GPGSA,A,3,05,08,16,18,21,29,31,,,,,,1.7,0.8,1.5*31
$GPGSV,2,1,07,05,18,043,29,08,12,329,17,16,35,307,20,18,14,158,18*76
$GPGSV,2,2,07,21,67,193,22,29,48,080,33,31,22,222,22*48
$GLGSV,1,1,03,78,16,336,11,70,26,049,31,76,34,206,17*50
$QZGSV,1,1,,,,,,,,,,,,,0.0*4B
$QZGSA,1,1,,,,,,,,,,,,,0.0*5C
$GNGSA,A,3,05,08,16,18,21,29,31,,,,,,1.6,0.8,1.4*2F
$GNGSA,A,3,70,76,,,,,,,,,,,1.6,0.8,1.4*20
$GPGSA,A,3,05,08,16,18,21,29,31,,,,,,1.7,0.8,1.5*31
$GPGSV,2,1,07,05,18,043,30,08,12,329,16,16,35,307,20,18,14,158,18*7F
$GPGSV,2,2,07,21,67,193,22,29,48,080,33,31,22,222,29*43
$GLGSV,1,1,03,78,16,336,10,70,26,049,31,76,34,206,18*5E
$QZGSV,1,1,,,,,,,,,,,,,0.0*4B
$QZGSA,1,1,,,,,,,,,,,,,0.0*5C
$GNGSA,A,3,05,08,16,18,21,29,31,,,,,,1.6,0.8,1.4*2F
$GNGSA,A,3,70,76,,,,,,,,,,,1.6,0.8,1.4*20
$GPRMC,075815.000,A,4950.660096,N,01819.313417,E,0.2,224.1,251014,,,A*61
$GPGGA,075815.000,4950.660096,N,01819.313417,E,1,09,0.8,238.6,M,42.5,M,,*5A
$GPGSA,A,3,05,08,16,18,21,29,31,,,,,,1.7,0.8,1.5*31
$GPGSV,2,1,07,05,18,043,30,08,12,329,16,16,35,307,20,18,14,158,18*7F
$GPGSV,2,2,07,21,67,193,22,29,48,080,33,31,22,222,26*4C
$GLGSV,1,1,02,70,26,049,30,76,34,206,19*60
$QZGSV,1,1,,,,,,,,,,,,,0.0*4B
$QZGSA,1,1,,,,,,,,,,,,,0.0*5C
$GNGSA,A,3,05,08,16,18,21,29,31,,,,,,1.6,0.8,1.4*2F
$GNGSA,A,3,70,76,,,,,,,,,,,1.6,0.8,1.4*20
$GPRMC,075816.000,A,4950.662601,N,01819.313339,E,6.1,351.7,251014,,,A*63
$GPGGA,075816.000,4950.662601,N,01819.313339,E,1,09,0.8,241.8,M,42.5,M,,*58
$GPGSA,A,3,05,08,16,18,21,29,31,,,,,,1.7,0.8,1.5*31
$GPGSV,2,1,07,05,18,043,30,08,12,329,15,16,35,307,20,18,14,158,18*7C
$GPGSV,2,2,07,21,67,193,22,29,48,080,33,31,22,222,24*4E
$GLGSV,1,1,02,70,26,049,30,76,34,206,20*6A
$QZGSV,1,1,,,,,,,,,,,,,0.0*4B
$QZGSA,1,1,,,,,,,,,,,,,0.0*5C
$GNGSA,A,3,05,08,16,18,21,29,31,,,,,,1.6,0.8,1.4*2F
$GNGSA,A,3,70,76,,,,,,,,,,,1.6,0.8,1.4*20
$GPRMC,075817.000,A,4950.664185,N,01819.314076,E,5.7,0.1,251014,,,A*64
$GPGGA,075817.000,4950.664185,N,01819.314076,E,1,09,0.8,243.2,M,42.5,M,,*53
$GPGSA,A,3,05,08,16,18,21,29,31,,,,,,1.7,0.8,1.5*31
$GPGSV,2,1,07,05,18,043,30,08,12,329,15,16,35,307,20,18,14,158,19*7D
$GPGSV,2,2,07,21,67,193,22,29,48,080,33,31,22,222,24*4E
$GLGSV,1,1,02,70,26,049,30,76,34,206,20*6A
$QZGSV,1,1,,,,,,,,,,,,,0.0*4B
$QZGSA,1,1,,,,,,,,,,,,,0.0*5C
$GNGSA,A,3,05,08,16,18,21,29,31,,,,,,1.6,0.8,1.4*2F
$GNGSA,A,3,70,76,,,,,,,,,,,1.6,0.8,1.4*20
$GPRMC,075818.000,A,4950.665139,N,01819.314792,E,1.0,4.1,251014,,,A*67
$GPGGA,075818.000,4950.665139,N,01819.314792,E,1,09,0.8,244.8,M,42.4,M,,*5B
$GPGSA,A,3,05,08,16,18,21,29,31,,,,,,1.7,0.8,1.5*31
$GPGSV,2,1,07,05,18,043,29,08,12,329,15,16,35,307,28,18,14,158,19*7D
$GPGSV,2,2,07,21,67,193,22,29,48,080,33,31,22,222,25*4F
$GLGSV,1,1,02,70,26,049,34,76,34,206,20*6E
$QZGSV,1,1,,,,,,,,,,,,,0.0*4B
$QZGSA,1,1,,,,,,,,,,,,,0.0*5C
$GNGSA,A,3,05,08,16,18,21,29,31,,,,,,1.6,0.8,1.4*2F
$GNGSA,A,3,70,76,,,,,,,,,,,1.6,0.8,1.4*20
$GPRMC,075819.000,A,4950.665264,N,01819.315092,E,0.8,7.1,251014,,,A*61
$GPGGA,075819.000,4950.665264,N,01819.315092,E,1,09,0.8,244.7,M,42.4,M,,*58
$GPGSA,A,3,05,08,16,18,21,29,31,,,,,,1.7,0.8,1.5*31
$GPGSV,2,1,07,05,18,043,29,08,12,329,15,16,35,307,28,18,14,158,19*7D
$GPGSV,2,2,07,21,67,193,28,29,48,080,33,31,22,222,25*45
$GLGSV,1,1,02,70,26,049,36,76,34,206,20*6C
$QZGSV,1,1,,,,,,,,,,,,,0.0*4B
$QZGSA,1,1,,,,,,,,,,,,,0.0*5C
$GNGSA,A,3,05,08,16,18,21,29,31,,,,,,1.6,0.8,1.4*2F
$GNGSA,A,3,70,76,,,,,,,,,,,1.6,0.8,1.4*20
$GPRMC,075820.000,A,4950.665302,N,01819.315272,E,0.6,10.1,251014,,,A*5E
$GPGGA,075820.000,4950.665302,N,01819.315272,E,1,09,0.8,245.3,M,42.5,M,,*5B
$GPGSA,A,3,05,08,16,18,21,29,31,,,,,,1.7,0.8,1.5*31
$GPGSV,2,1,07,05,18,043,29,08,12,329,15,16,35,307,28,18,14,158,18*7C
$GPGSV,2,2,07,21,67,193,27,29,48,080,33,31,22,222,25*4A
$GLGSV,1,1,02,70,26,049,35,76,34,206,20*6F
$QZGSV,1,1,,,,,,,,,,,,,0.0*4B
$QZGSA,1,1,,,,,,,,,,,,,0.0*5C
$GNGSA,A,3,05,08,16,18,21,29,31,,,,,,1.6,0.8,1.4*2F
$GNGSA,A,3,70,76,,,,,,,,,,,1.6,0.8,1.4*20
$GPRMC,075821.000,A,4950.665459,N,01819.315740,E,0.8,13.1,251014,,,A*5F
$GPGGA,075821.000,4950.665459,N,01819.315740,E,1,09,0.8,245.4,M,42.5,M,,*50
$GPGSA,A,3,05,16,18,21,29,31,,,,,,,2.0,1.0,1.7*36
$GPGSV,2,1,07,05,18,043,19,08,12,329,15,16,35,307,27,18,14,158,18*70
$GPGSV,2,2,07,21,67,193,26,29,48,080,33,31,22,222,25*4B
$GLGSV,1,1,02,70,26,049,34,76,34,206,19*64
$QZGSV,1,1,,,,,,,,,,,,,0.0*4B
$QZGSA,1,1,,,,,,,,,,,,,0.0*5C
$GNGSA,A,3,05,16,18,21,29,31,,,,,,,1.8,1.0,1.6*22
$GNGSA,A,3,70,,,,,,,,,,,,1.8,1.0,1.6*24
$GPRMC,075822.000,A,4950.665468,N,01819.316310,E,0.9,16.1,251014,,,A*58
$GPGGA,075822.000,4950.665468,N,01819.316310,E,1,07,1.0,246.4,M,42.4,M,,*56
$GPGSA,A,3,05,08,16,18,21,29,31,,,,,,1.7,0.8,1.5*31
$GPGSV,2,1,08,05,18,043,21,08,12,329,15,16,35,307,28,18,14,158,18*7B
$GPGSV,2,2,08,21,67,193,26,27,09,274,14,29,48,080,33,31,22,222,25*7C
$GLGSV,1,1,02,70,26,049,34,76,34,206,19*64
$QZGSV,1,1,,,,,,,,,,,,,0.0*4B
$QZGSA,1,1,,,,,,,,,,,,,0.0*5C
$GNGSA,A,3,05,08,16,18,21,29,31,,,,,,1.6,0.8,1.4*2F
$GNGSA,A,3,70,76,,,,,,,,,,,1.6,0.8,1.4*20
$GPRMC,075823.000,A,4950.665744,N,01819.316633,E,0.5,19.2,251014,,,A*50
$GPGGA,075823.000,4950.665744,N,01819.316633,E,1,09,0.8,248.1,M,42.4,M,,*52
$GPGSA,A,3,05,08,16,18,21,27,29,31,,,,,1.6,0.6,1.4*3A
$GPGSV,2,1,08,05,18,043,21,08,12,329,16,16,35,307,28,18,14,158,19*79
$GPGSV,2,2,08,21,67,193,26,27,09,274,15,29,48,080,33,31,22,222,25*7D
$GLGSV,1,1,02,70,26,049,35,76,34,206,19*65
$QZGSV,1,1,,,,,,,,,,,,,0.0*4B
$QZGSA,1,1,,,,,,,,,,,,,0.0*5C
$GNGSA,A,3,05,08,16,18,21,27,29,31,,,,,1.6,0.6,1.4*24
$GNGSA,A,3,70,76,,,,,,,,,,,1.6,0.6,1.4*2E
$GPRMC,075824.000,A,4950.665996,N,01819.316675,E,0.6,22.2,251014,,,A*5F
$GPGGA,075824.000,4950.665996,N,01819.316675,E,1,10,0.6,249.1,M,42.4,M,,*51
$GPGSA,A,3,05,08,16,18,21,27,29,31,,,,,1.6,0.8,1.4*34
$GPGSV,2,1,08,05,18,043,21,08,12,329,16,16,35,307,28,18,14,158,28*7B
$GPGSV,2,2,08,21,67,193,26,27,09,274,14,29,48,080,33,31,22,222,25*7C
$GLGSV,1,1,02,70,26,049,35,76,34,206,19*65
$QZGSV,1,1,,,,,,,,,,,,,0.0*4B
$QZGSA,1,1,,,,,,,,,,,,,0.0*5C
$GNGSA,A,3,05,08,16,18,21,27,29,31,,,,,1.6,0.8,1.4*2A
$GNGSA,A,3,70,,,,,,,,,,,,1.6,0.8,1.4*21
$GPRMC,075825.000,A,4950.666105,N,01819.316790,E,0.9,36.5,251014,,,A*58
$GPGGA,075825.000,4950.666105,N,01819.316790,E,1,09,0.8,251.0,M,42.5,M,,*54
$GPGSA,A,3,05,08,16,18,21,27,29,31,,,,,1.6,0.6,1.4*3A
$GPGSV,2,1,08,05,18,043,22,08,12,329,16,16,35,307,29,18,14,158,22*73
$GPGSV,2,2,08,21,67,193,25,27,09,274,14,29,48,080,32,31,22,222,25*7E
$GLGSV,1,1,02,70,26,049,35,76,34,206,19*65
$QZGSV,1,1,,,,,,,,,,,,,0.0*4B
$QZGSA,1,1,,,,,,,,,,,,,0.0*5C
$GNGSA,A,3,05,08,16,18,21,27,29,31,,,,,1.6,0.6,1.4*24
$GNGSA,A,3,70,76,,,,,,,,,,,1.6,0.6,1.4*2E
$GPRMC,075826.000,A,4950.666614,N,01819.316940,E,1.0,62.3,251014,,,A*50
$GPGGA,075826.000,4950.666614,N,01819.316940,E,1,10,0.6,252.6,M,42.5,M,,*50
$GPGSA,A,3,05,08,16,18,21,27,29,31,,,,,1.6,0.6,1.4*3A
$GPGSV,2,1,08,05,18,043,23,08,12,329,16,16,35,307,29,18,14,158,21*71
$GPGSV,2,2,08,21,67,193,25,27,09,274,13,29,48,080,32,31,22,222,25*79
$GLGSV,1,1,03,78,16,336,04,70,26,049,35,76,34,206,19*5E
$QZGSV,1,1,,,,,,,,,,,,,0.0*4B
$QZGSA,1,1,,,,,,,,,,,,,0.0*5C
$GNGSA,A,3,05,08,16,18,21,27,29,31,,,,,1.6,0.6,1.4*24
$GNGSA,A,3,70,76,,,,,,,,,,,1.6,0.6,1.4*2E
$GPRMC,075827.000,A,4950.666790,N,01819.317192,E,1.0,68.8,251014,,,A*5B
$GPGGA,075827.000,4950.666790,N,01819.317192,E,1,10,0.6,252.7,M,42.4,M,,*5A
$GPGSA,A,3,05,08,16,18,21,27,29,31,,,,,1.6,0.6,1.4*3A
$GPGSV,2,1,08,05,18,043,28,08,12,329,16,16,35,307,29,18,14,158,18*70
$GPGSV,2,2,08,21,67,193,25,27,09,274,13,29,48,080,33,31,22,222,25*78
$GLGSV,1,1,03,78,16,336,05,70,26,049,35,76,34,206,19*5F
$QZGSV,1,1,,,,,,,,,,,,,0.0*4B
$QZGSA,1,1,,,,,,,,,,,,,0.0*5C
$GNGSA,A,3,05,08,16,18,21,27,29,31,,,,,1.6,0.6,1.4*24
$GNGSA,A,3,70,76,,,,,,,,,,,1.6,0.6,1.4*2E
$GPRMC,075828.000,A,4950.667449,N,01819.317576,E,1.5,57.4,251014,,,A*59
$GPGGA,075828.000,4950.667449,N,01819.317576,E,1,10,0.6,253.6,M,42.4,M,,*5D
$GPGSA,A,3,05,08,16,21,27,29,31,,,,,,2.1,1.0,1.8*3C
$GPGSV,2,1,08,05,18,043,27,08,12,329,16,16,35,307,29,18,14,158,18*7F
$GPGSV,2,2,08,21,67,193,25,27,09,274,13,29,48,080,34,31,22,222,25*7F
$GLGSV,1,1,03,78,16,336,12,70,26,049,35,76,34,206,19*59
$QZGSV,1,1,,,,,,,,,,,,,0.0*4B
$QZGSA,1,1,,,,,,,,,,,,,0.0*5C
$GNGSA,A,3,05,08,16,21,27,29,31,,,,,,2.0,1.0,1.8*23
$GNGSA,A,3,70,76,,,,,,,,,,,2.0,1.0,1.8*20
$GPRMC,075829.000,A,4950.667849,N,01819.317835,E,1.5,53.8,251014,,,A*56
$GPGGA,075829.000,4950.667849,N,01819.317835,E,1,09,1.0,254.3,M,42.4,M,,*57
$GPGSA,A,3,05,08,16,18,21,27,29,31,,,,,1.6,0.6,1.4*3A
$GPGSV,2,1,08,05,18,043,27,08,12,329,16,16,35,307,29,18,14,158,17*70
$GPGSV,2,2,08,21,67,193,25,27,09,274,13,29,48,080,34,31,22,222,25*7F
$GLGSV,1,1,03,78,16,336,16,70,26,049,35,76,34,206,19*5D
$QZGSV,1,1,,,,,,,,,,,,,0.0*4B
$QZGSA,1,1,,,,,,,,,,,,,0.0*5C
$GNGSA,A,3,05,08,16,18,21,27,29,31,,,,,1.6,0.6,1.4*24
$GNGSA,A,3,70,76,,,,,,,,,,,1.6,0.6,1.4*2E
$GPRMC,075830.000,A,4950.668217,N,01819.318291,E,1.6,53.2,251014,,,A*52
$GPGGA,075830.000,4950.668217,N,01819.318291,E,1,10,0.6,254.2,M,42.5,M,,*55
$GPGSA,A,3,05,08,16,18,21,27,29,31,,,,,1.6,0.6,1.4*3A
$GPGSV,2,1,08,05,18,043,27,08,12,329,16,16,35,307,22,18,14,158,17*7B
$GPGSV,2,2,08,21,67,193,25,27,09,274,13,29,48,080,33,31,22,222,25*78
$GLGSV,1,1,03,78,16,336,16,70,26,049,35,76,34,206,19*5D
$QZGSV,1,1,,,,,,,,,,,,,0.0*4B
$QZGSA,1,1,,,,,,,,,,,,,0.0*5C
$GNGSA,A,3,05,08,16,18,21,27,29,31,,,,,1.6,0.6,1.4*24
$GNGSA,A,3,70,76,,,,,,,,,,,1.6,0.6,1.4*2E
$GPRMC,075831.000,A,4950.668652,N,01819.318774,E,1.7,50.6,251014,,,A*5E
$GPGGA,075831.000,4950.668652,N,01819.318774,E,1,10,0.6,254.7,M,42.5,M,,*5A
$GPGSA,A,3,05,08,16,18,21,27,29,31,,,,,1.6,0.6,1.4*3A
$GPGSV,2,1,08,05,18,043,27,08,12,329,16,16,35,307,27,18,14,158,16*7F
$GPGSV,2,2,08,21,67,193,25,27,09,274,14,29,48,080,33,31,22,222,25*7F
$GLGSV,1,1,03,78,16,336,16,70,26,049,35,76,34,206,19*5D
$QZGSV,1,1,,,,,,,,,,,,,0.0*4B
$QZGSA,1,1,,,,,,,,,,,,,0.0*5C
$GNGSA,A,3,05,08,16,18,21,27,29,31,,,,,1.6,0.6,1.4*24
$GNGSA,A,3,70,76,,,,,,,,,,,1.6,0.6,1.4*2E
$GPRMC,075832.000,A,4950.669094,N,01819.319339,E,1.8,48.5,251014,,,A*59
$GPGGA,075832.000,4950.669094,N,01819.319339,E,1,10,0.6,254.7,M,42.4,M,,*59
$GPGSA,A,3,05,08,16,18,21,27,29,31,,,,,1.6,0.6,1.4*3A
$GPGSV,2,1,08,05,18,043,27,08,12,329,16,16,35,307,27,18,14,158,16*7F
$GPGSV,2,2,08,21,67,193,31,27,09,274,13,29,48,080,30,31,22,222,25*7E
$GLGSV,1,1,03,78,16,336,16,70,26,049,35,76,34,206,20*57
$QZGSV,1,1,,,,,,,,,,,,,0.0*4B
$QZGSA,1,1,,,,,,,,,,,,,0.0*5C
$GNGSA,A,3,05,08,16,18,21,27,29,31,,,,,1.6,0.6,1.4*24
$GNGSA,A,3,70,76,,,,,,,,,,,1.6,0.6,1.4*2E
$GPRMC,075833.000,A,4950.669481,N,01819.319742,E,1.7,43.7,251014,,,A*56
$GPGGA,075833.000,4950.669481,N,01819.319742,E,1,10,0.6,255.1,M,42.5,M,,*56
$GPGSA,A,1,,,,,,,,,,,,,,,*1E
$GPGSV,1,1,01,29,48,080,32*46
$QZGSV,1,1,,,,,,,,,,,,,0.0*4B
$QZGSA,1,1,,,,,,,,,,,,,0.0*5C
$GPGSA,A,1,,,,,,,,,,,,,,,*1E
$GPGSV,1,1,02,29,48,080,32,31,22,222,24*73
$QZGSV,1,1,,,,,,,,,,,,,0.0*4B
$QZGSA,1,1,,,,,,,,,,,,,0.0*5C
$GPGSA,A,3,05,16,29,31,,,,,,,,,2.6,1.2,2.2*3E
$GPGSV,2,1,05,05,18,043,17,08,12,329,18,16,35,307,17,29,48,080,31*76
$GPGSV,2,2,05,31,22,222,24*4A
$QZGSV,1,1,,,,,,,,,,,,,0.0*4B
$QZGSA,1,1,,,,,,,,,,,,,0.0*5C
$GPGSA,A,3,05,08,16,29,31,,,,,,,,2.4,1.0,2.0*34
$GPGSV,2,1,05,05,18,043,17,08,12,329,17,16,35,307,17,29,48,080,31*79
$GPGSV,2,2,05,31,22,222,24*4A
$GLGSV,1,1,01,76,33,206,19*59
$QZGSV,1,1,,,,,,,,,,,,,0.0*4B
$QZGSA,1,1,,,,,,,,,,,,,0.0*5C
$GNGSA,A,3,05,08,16,29,31,,,,,,,,2.2,1.0,2.0*2C
$GPGSA,A,3,05,08,16,21,29,31,,,,,,,2.3,1.0,2.0*30
$GPGSV,2,1,06,05,18,043,17,08,12,329,18,16,35,307,19,21,68,192,18*78
$GPGSV,2,2,06,29,48,080,31,31,22,222,24*74
$GLGSV,1,1,01,76,33,206,21*52
$QZGSV,1,1,,,,,,,,,,,,,0.0*4B
$QZGSA,1,1,,,,,,,,,,,,,0.0*5C
$GNGSA,A,3,05,08,16,21,29,31,,,,,,,2.2,1.0,1.8*24
$GNGSA,A,3,76,,,,,,,,,,,,2.2,1.0,1.8*25
$GPGSA,A,3,05,08,16,21,29,31,,,,,,,2.2,1.0,2.0*31
$GPGSV,2,1,07,05,18,043,17,08,12,329,19,16,35,307,21,21,68,192,20*78
$GPGSV,2,2,07,25,12,144,13,29,48,080,32,31,22,222,24*41
$GLGSV,1,1,02,70,26,049,15,76,33,206,22*68
$QZGSV,1,1,,,,,,,,,,,,,0.0*4B
$QZGSA,1,1,,,,,,,,,,,,,0.0*5C
$GNGSA,A,3,05,08,16,21,29,31,,,,,,,2.2,1.0,1.8*24
$GNGSA,A,3,70,76,,,,,,,,,,,2.2,1.0,1.8*22
$GPGSA,A,3,05,08,16,21,25,29,31,,,,,,1.7,0.8,1.5*3F
$GPGSV,2,1,08,05,18,043,16,08,12,329,18,16,35,307,20,18,14,158,14*76
$GPGSV,2,2,08,21,68,192,20,25,12,144,14,29,48,080,32,31,22,222,24*7C
$GLGSV,1,1,02,70,26,049,15,76,33,206,22*68
$QZGSV,1,1,,,,,,,,,,,,,0.0*4B
$QZGSA,1,1,,,,,,,,,,,,,0.0*5C
$GNGSA,A,3,05,08,16,21,25,29,31,,,,,,1.6,0.8,1.4*21
$GNGSA,A,3,76,,,,,,,,,,,,1.6,0.8,1.4*27
$GPGSA,A,3,05,08,16,18,21,25,29,31,,,,,1.6,0.6,1.4*38
$GPGSV,2,1,08,05,18,043,16,08,12,329,18,16,35,307,20,18,14,158,12*70
$GPGSV,2,2,08,21,68,192,20,25,12,144,16,29,48,080,32,31,22,222,24*7E
$GLGSV,1,1,02,70,26,049,17,76,33,206,23*6B
$QZGSV,1,1,,,,,,,,,,,,,0.0*4B
$QZGSA,1,1,,,,,,,,,,,,,0.0*5C
$GNGSA,A,3,05,08,16,18,21,25,29,31,,,,,1.6,0.6,1.4*26
$GNGSA,A,3,70,76,,,,,,,,,,,1.6,0.6,1.4*2E
$GPGSA,A,3,05,08,16,18,21,25,29,31,,,,,1.6,0.6,1.4*38
$GPGSV,2,1,08,05,18,043,17,08,12,329,18,16,35,307,20,18,14,158,11*72
$GPGSV,2,2,08,21,68,192,20,25,12,144,18,29,48,080,32,31,22,222,24*70
$GLGSV,1,1,02,70,26,049,19,76,33,206,23*65
$QZGSV,1,1,,,,,,,,,,,,,0.0*4B
$QZGSA,1,1,,,,,,,,,,,,,0.0*5C
$GNGSA,A,3,05,08,16,18,21,25,29,31,,,,,1.6,0.6,1.4*26
$GNGSA,A,3,70,76,,,,,,,,,,,1.6,0.6,1.4*2E
$GPGSA,A,3,05,08,16,18,21,25,29,31,,,,,1.6,0.6,1.4*38
$GPGSV,2,1,08,05,18,043,18,08,12,329,18,16,35,307,32,18,14,158,15*7A
$GPGSV,2,2,08,21,68,192,20,25,12,144,20,29,48,080,32,31,22,222,24*7B
$GLGSV,1,1,02,70,26,049,26,76,33,206,23*69
$QZGSV,1,1,,,,,,,,,,,,,0.0*4B
$QZGSA,1,1,,,,,,,,,,,,,0.0*5C
$GNGSA,A,3,05,08,16,18,21,25,29,31,,,,,1.6,0.6,1.4*26
$GNGSA,A,3,70,76,,,,,,,,,,,1.6,0.6,1.4*2E
$GPRMC,075856.000,A,4950.672489,N,01819.326774,E,0.2,100.5,251014,,,A*6E
$GPGGA,075856.000,4950.672489,N,01819.326774,E,1,10,0.6,258.7,M,42.5,M,,*55
$GPGSA,A,3,05,08,16,18,21,25,29,31,,,,,1.6,0.8,1.4*36
$GPGSV,2,1,08,05,18,043,26,08,12,329,18,16,35,307,30,18,14,158,15*75
$GPGSV,2,2,08,21,68,192,20,25,12,144,21,29,48,080,32,31,22,222,24*7A
$GLGSV,1,1,02,70,26,049,23,76,33,206,22*6D
$QZGSV,1,1,,,,,,,,,,,,,0.0*4B
$QZGSA,1,1,,,,,,,,,,,,,0.0*5C
$GNGSA,A,3,05,08,16,18,21,25,29,31,,,,,1.6,0.8,1.4*28
$GNGSA,A,3,76,,,,,,,,,,,,1.6,0.8,1.4*27
$GPRMC,075857.000,A,4950.672489,N,01819.326774,E,0.1,100.5,251014,,,A*6C
$GPGGA,075857.000,4950.672489,N,01819.326774,E,1,09,0.8,258.7,M,42.5,M,,*52
$GPGSA,A,3,05,08,18,21,25,29,31,,,,,,1.7,0.8,1.4*30
$GPGSV,2,1,08,05,18,043,24,08,12,329,18,16,35,307,29,18,14,158,16*7C
$GPGSV,2,2,08,21,68,192,19,25,12,144,22,29,48,080,32,31,22,222,24*73
$GLGSV,1,1,01,76,33,206,22*51
$QZGSV,1,1,,,,,,,,,,,,,0.0*4B
$QZGSA,1,1,,,,,,,,,,,,,0.0*5C
$GNGSA,A,3,05,08,18,21,25,29,31,,,,,,1.6,0.8,1.4*2F
$GNGSA,A,3,76,,,,,,,,,,,,1.6,0.8,1.4*27
$GPRMC,075858.000,A,4950.672489,N,01819.326774,E,0.2,100.5,251014,,,A*60
$GPGGA,075858.000,4950.672489,N,01819.326774,E,1,08,0.8,258.7,M,42.5,M,,*5C
$GPGSA,A,1,,,,,,,,,,,,,,,*1E
$GPGSV,1,1,01,31,22,222,30*4B
$QZGSV,1,1,,,,,,,,,,,,,0.0*4B
$QZGSA,1,1,,,,,,,,,,,,,0.0*5C
$GPGSA,A,1,,,,,,,,,,,,,,,*1E
$GPGSV,2,1,05,05,18,042,22,16,36,307,19,18,15,158,19,21,68,192,23*74
$GPGSV,2,2,05,31,22,222,31*4E
$GLGSV,1,1,02,70,26,049,22,76,33,206,26*68
$QZGSV,1,1,,,,,,,,,,,,,0.0*4B
$QZGSA,1,1,,,,,,,,,,,,,0.0*5C
$GPGSA,A,3,05,16,18,21,31,,,,,,,,2.3,1.0,2.0*3A
$GPGSV,2,1,06,05,18,042,22,16,36,307,20,18,15,158,19,21,68,192,23*7D
$GPGSV,2,2,06,29,47,080,19,31,22,222,31*75
$GLGSV,1,1,02,70,26,049,23,76,33,206,27*68
$QZGSV,1,1,,,,,,,,,,,,,0.0*4B
$QZGSA,1,1,,,,,,,,,,,,,0.0*5C
$GNGSA,A,3,05,16,18,21,31,,,,,,,,2.2,1.0,1.8*2E
$GNGSA,A,3,70,76,,,,,,,,,,,2.2,1.0,1.8*22
$GPGSA,A,3,05,16,18,21,25,29,31,,,,,,1.9,0.8,1.6*33
$GPGSV,2,1,07,05,18,042,22,16,36,307,20,18,15,158,19,21,68,192,23*7C
$GPGSV,2,2,07,25,12,144,19,29,47,080,18,31,22,222,31*48
$GLGSV,1,1,02,70,26,049,23,76,33,206,27*68
$QZGSV,1,1,,,,,,,,,,,,,0.0*4B
$QZGSA,1,1,,,,,,,,,,,,,0.0*5C
$GNGSA,A,3,05,16,18,21,25,29,31,,,,,,1.8,0.8,1.6*2C
$GNGSA,A,3,70,76,,,,,,,,,,,1.8,0.8,1.6*2C
$GPGSA,A,3,05,16,18,21,25,29,31,,,,,,1.9,0.8,1.6*33
$GPGSV,2,1,07,05,18,042,22,16,36,307,20,18,15,158,19,21,68,192,24*7B
$GPGSV,2,2,07,25,12,144,19,29,47,080,20,31,22,222,32*40
$GLGSV,1,1,02,70,26,049,23,76,33,206,26*69
$QZGSV,1,1,,,,,,,,,,,,,0.0*4B
$QZGSA,1,1,,,,,,,,,,,,,0.0*5C
$GNGSA,A,3,05,16,18,21,25,29,31,,,,,,1.8,0.8,1.6*2C
$GNGSA,A,3,70,76,,,,,,,,,,,1.8,0.8,1.6*2C
$GPGSA,A,3,05,16,18,21,25,29,31,,,,,,1.9,0.8,1.6*33
$GPGSV,2,1,07,05,18,042,20,16,36,307,21,18,15,158,18,21,68,192,23*7E
$GPGSV,2,2,07,25,12,144,22,29,47,080,21,31,22,222,33*48
$GLGSV,1,1,02,70,26,049,22,76,33,206,26*68
$QZGSV,1,1,,,,,,,,,,,,,0.0*4B
$QZGSA,1,1,,,,,,,,,,,,,0.0*5C
$GNGSA,A,3,05,16,18,21,25,29,31,,,,,,1.8,0.8,1.6*2C
$GNGSA,A,3,70,76,,,,,,,,,,,1.8,0.8,1.6*2C
$GPGSA,A,3,05,08,16,18,21,25,29,31,,,,,1.6,0.6,1.4*38
$GPGSV,2,1,08,05,18,042,21,08,12,329,16,16,36,307,20,18,15,158,19*72
$GPGSV,2,2,08,21,68,192,23,25,12,144,23,29,47,080,23,31,22,222,33*72
$GLGSV,1,1,02,70,26,049,21,76,33,206,25*68
$QZGSV,1,1,,,,,,,,,,,,,0.0*4B
$QZGSA,1,1,,,,,,,,,,,,,0.0*5C
$GNGSA,A,3,05,08,16,18,21,25,29,31,,,,,1.6,0.6,1.4*26
$GNGSA,A,3,70,,,,,,,,,,,,1.6,0.6,1.4*2F
$GPGSA,A,3,05,08,16,18,21,25,29,31,,,,,1.6,0.6,1.4*38
$GPGSV,2,1,08,05,18,042,22,08,12,329,16,16,36,307,20,18,15,158,20*7B
$GPGSV,2,2,08,21,68,192,23,25,12,144,23,29,47,080,24,31,22,222,32*74
$GLGSV,1,1,01,70,26,049,21*59
$QZGSV,1,1,,,,,,,,,,,,,0.0*4B
$QZGSA,1,1,,,,,,,,,,,,,0.0*5C
$GNGSA,A,3,05,08,16,18,21,25,29,31,,,,,1.6,0.6,1.4*26
$GNGSA,A,3,70,,,,,,,,,,,,1.6,0.6,1.4*2F
$GPGSA,A,3,05,08,16,18,21,25,29,31,,,,,1.6,0.6,1.4*38
$GPGSV,2,1,08,05,18,042,22,08,12,329,15,16,36,307,20,18,15,158,24*7C
$GPGSV,2,2,08,21,68,192,23,25,12,144,23,29,47,080,24,31,22,222,32*74
$GLGSV,1,1,02,70,26,049,21,76,33,206,18*66
$QZGSV,1,1,,,,,,,,,,,,,0.0*4B
$QZGSA,1,1,,,,,,,,,,,,,0.0*5C
$GNGSA,A,3,05,08,16,18,21,25,29,31,,,,,1.6,0.6,1.4*26
$GNGSA,A,3,70,76,,,,,,,,,,,1.6,0.6,1.4*2E
$GPRMC,075920.000,A,4950.672867,N,01819.333187,E,2.7,87.4,251014,,,A*54
$GPGGA,075920.000,4950.672867,N,01819.333187,E,1,10,0.6,246.1,M,42.5,M,,*5E
$GPGSA,A,3,05,08,16,18,21,25,29,31,,,,,1.6,0.6,1.4*38
$GPGSV,2,1,08,05,18,042,22,08,12,329,14,16,36,307,20,18,15,158,24*7D
$GPGSV,2,2,08,21,68,192,23,25,12,144,33,29,47,080,24,31,22,222,32*75
$GLGSV,1,1,02,70,26,049,21,76,33,206,21*6C
$QZGSV,1,1,,,,,,,,,,,,,0.0*4B
$QZGSA,1,1,,,,,,,,,,,,,0.0*5C
$GNGSA,A,3,05,08,16,18,21,25,29,31,,,,,1.6,0.6,1.4*26
$GNGSA,A,3,70,76,,,,,,,,,,,1.6,0.6,1.4*2E
$GPRMC,075921.000,A,4950.671872,N,01819.334908,E,2.2,91.0,251014,,,A*5C
$GPGGA,075921.000,4950.671872,N,01819.334908,E,1,10,0.6,250.5,M,42.5,M,,*53
$GPGSA,A,3,05,08,16,18,21,25,29,31,,,,,1.6,0.6,1.4*38
$GPGSV,2,1,08,05,18,042,21,08,12,329,14,16,36,307,20,18,15,158,24*7E
$GPGSV,2,2,08,21,68,192,23,25,12,144,32,29,47,080,24,31,22,222,32*74
$GLGSV,1,1,02,70,26,049,21,76,33,206,22*6F
$QZGSV,1,1,,,,,,,,,,,,,0.0*4B
$QZGSA,1,1,,,,,,,,,,,,,0.0*5C
$GNGSA,A,3,05,08,16,18,21,25,29,31,,,,,1.6,0.6,1.4*26
$GNGSA,A,3,70,76,,,,,,,,,,,1.6,0.6,1.4*2E
$GPRMC,075922.000,A,4950.671657,N,01819.335809,E,1.4,87.1,251014,,,A*54
$GPGGA,075922.000,4950.671657,N,01819.335809,E,1,10,0.6,251.7,M,42.5,M,,*5B
$GPGSA,A,1,,,,,,,,,,,,,,,*1E
$GPGSV,1,1,01,29,47,081,27*4C
$QZGSV,1,1,,,,,,,,,,,,,0.0*4B
$QZGSA,1,1,,,,,,,,,,,,,0.0*5C
$GPGSA,A,1,,,,,,,,,,,,,,,*1E
$GPGSV,1,1,01,29,47,081,27*4C
$QZGSV,1,1,,,,,,,,,,,,,0.0*4B
$QZGSA,1,1,,,,,,,,,,,,,0.0*5C
$GPGSA,A,1,,,,,,,,,,,,,,,*1E
$GPGSV,2,1,05,05,18,042,25,16,36,307,19,18,15,158,26,29,47,081,29*73
$GPGSV,2,2,05,31,22,221,21*4C
$GLGSV,1,1,01,70,26,048,27*5E
$QZGSV,1,1,,,,,,,,,,,,,0.0*4B
$QZGSA,1,1,,,,,,,,,,,,,0.0*5C
$GPGSA,A,3,05,16,18,29,,,,,,,,,2.4,1.0,2.1*36
$GPGSV,2,1,05,05,18,042,25,16,36,307,19,18,15,158,26,29,47,081,30*7B
$GPGSV,2,2,05,31,22,221,21*4C
$GLGSV,1,1,02,70,26,048,27,76,33,206,18*61
$QZGSV,1,1,,,,,,,,,,,,,0.0*4B
$QZGSA,1,1,,,,,,,,,,,,,0.0*5C
$GNGSA,A,3,05,16,18,29,,,,,,,,,2.2,1.0,2.0*2F
$GNGSA,A,3,70,,,,,,,,,,,,2.2,1.0,2.0*28
$GPGSA,A,3,05,16,18,29,31,,,,,,,,2.9,1.0,2.7*3F
$GPGSV,2,1,06,05,18,042,25,16,36,307,19,18,15,158,26,21,68,192,18*74
$GPGSV,2,2,06,29,47,081,30,31,22,221,21*7D
$GLGSV,1,1,02,70,26,048,27,76,33,206,18*61
$QZGSV,1,1,,,,,,,,,,,,,0.0*4B
$QZGSA,1,1,,,,,,,,,,,,,0.0*5C
$GNGSA,A,3,05,16,18,29,31,,,,,,,,2.8,1.0,2.6*21
$GNGSA,A,3,70,,,,,,,,,,,,2.8,1.0,2.6*24
$GPGSA,A,3,05,16,18,21,25,29,31,,,,,,1.9,0.8,1.6*33
$GPGSV,2,1,07,05,18,042,23,16,36,307,20,18,15,158,25,21,68,192,16*74
$GPGSV,2,2,07,25,12,144,16,29,47,081,29,31,22,221,22*45
$GLGSV,1,1,02,70,26,048,27,76,33,206,18*61
$QZGSV,1,1,,,,,,,,,,,,,0.0*4B
$QZGSA,1,1,,,,,,,,,,,,,0.0*5C
$GNGSA,A,3,05,16,18,21,25,29,31,,,,,,1.8,0.8,1.6*2C
$GNGSA,A,3,70,76,,,,,,,,,,,1.8,0.8,1.6*2C
$GPGSA,A,3,05,16,18,21,25,29,31,,,,,,1.9,0.8,1.6*33
$GPGSV,2,1,07,05,18,042,23,16,36,307,19,18,15,158,25,21,68,192,16*7E
$GPGSV,2,2,07,25,12,144,15,29,47,081,29,31,22,221,23*47
$GLGSV,1,1,02,70,26,048,25,76,33,206,18*63
$QZGSV,1,1,,,,,,,,,,,,,0.0*4B
$QZGSA,1,1,,,,,,,,,,,,,0.0*5C
$GNGSA,A,3,05,16,18,21,25,29,31,,,,,,1.8,0.8,1.6*2C
$GNGSA,A,3,76,,,,,,,,,,,,1.8,0.8,1.6*2B
$GPGSA,A,3,05,16,18,21,25,29,31,,,,,,1.9,0.8,1.6*33
$GPGSV,2,1,07,05,18,042,22,16,36,307,19,18,15,158,30,21,68,192,17*7A
$GPGSV,2,2,07,25,12,144,17,29,47,081,28,31,22,221,22*45
$GLGSV,1,1,02,70,26,048,14,76,33,206,18*61
$QZGSV,1,1,,,,,,,,,,,,,0.0*4B
$QZGSA,1,1,,,,,,,,,,,,,0.0*5C
$GNGSA,A,3,05,16,18,21,25,29,31,,,,,,1.8,0.8,1.6*2C
$GNGSA,A,3,76,,,,,,,,,,,,1.8,0.8,1.6*2B
$GPGSA,A,3,05,16,18,21,25,29,31,,,,,,1.9,0.8,1.6*33
$GPGSV,2,1,07,05,18,042,23,16,36,307,19,18,15,158,33,21,68,192,29*75
$GPGSV,2,2,07,25,12,144,30,29,47,081,29,31,22,221,23*40
$GLGSV,1,1,02,70,26,048,16,76,33,206,18*63
$QZGSV,1,1,,,,,,,,,,,,,0.0*4B
$QZGSA,1,1,,,,,,,,,,,,,0.0*5C
$GNGSA,A,3,05,16,18,21,25,29,31,,,,,,1.8,0.8,1.6*2C
$GNGSA,A,3,76,,,,,,,,,,,,1.8,0.8,1.6*2B
$GPGSA,A,3,05,16,18,21,25,29,31,,,,,,1.9,0.8,1.6*33
$GPGSV,2,1,07,05,18,042,24,16,36,307,20,18,15,158,33,21,68,192,27*76
$GPGSV,2,2,07,25,12,144,26,29,47,081,30,31,22,221,22*4E
$GLGSV,1,1,02,70,26,048,23,76,33,206,18*65
$QZGSV,1,1,,,,,,,,,,,,,0.0*4B
$QZGSA,1,1,,,,,,,,,,,,,0.0*5C
$GNGSA,A,3,05,16,18,21,25,29,31,,,,,,1.8,0.8,1.6*2C
$GNGSA,A,3,76,,,,,,,,,,,,1.8,0.8,1.6*2B
$GPRMC,075945.000,A,4950.681056,N,01819.350504,E,1.4,63.5,251014,,,A*50
$GPGGA,075945.000,4950.681056,N,01819.350504,E,1,08,0.8,248.3,M,42.4,M,,*5B
$GPGSA,A,3,05,16,18,21,25,29,31,,,,,,1.9,0.8,1.6*33
$GPGSV,2,1,07,05,18,042,24,16,36,307,20,18,15,158,33,21,68,192,27*76
$GPGSV,2,2,07,25,12,144,25,29,47,081,30,31,22,221,22*4D
$GLGSV,1,1,02,70,26,048,28,76,33,206,18*6E
$QZGSV,1,1,,,,,,,,,,,,,0.0*4B
$QZGSA,1,1,,,,,,,,,,,,,0.0*5C
$GNGSA,A,3,05,16,18,21,25,29,31,,,,,,1.8,0.8,1.6*2C
$GNGSA,A,3,70,76,,,,,,,,,,,1.8,0.8,1.6*2C
$GPRMC,075946.000,A,4950.681910,N,01819.351188,E,1.1,62.7,251014,,,A*5F
$GPGGA,075946.000,4950.681910,N,01819.351188,E,1,09,0.8,248.2,M,42.4,M,,*52
$GPGSA,A,3,05,16,18,21,25,29,31,,,,,,1.9,0.8,1.6*33
$GPGSV,2,1,07,05,18,042,24,16,36,307,20,18,15,158,32,21,68,192,28*78
$GPGSV,2,2,07,25,12,144,24,29,47,081,29,31,22,221,22*44
$GLGSV,1,1,02,70,26,048,30,76,33,206,18*67
$QZGSV,1,1,,,,,,,,,,,,,0.0*4B
$QZGSA,1,1,,,,,,,,,,,,,0.0*5C
$GNGSA,A,3,05,16,18,21,25,29,31,,,,,,1.8,0.8,1.6*2C
$GNGSA,A,3,70,76,,,,,,,,,,,1.8,0.8,1.6*2C
$GPRMC,075947.000,A,4950.682313,N,01819.351667,E,0.9,65.9,251014,,,A*52
$GPGGA,075947.000,4950.682313,N,01819.351667,E,1,09,0.8,247.6,M,42.4,M,,*54
$GPGSA,A,1,,,,,,,,,,,,,,,*1E
$GPGSA,A,1,,,,,,,,,,,,,,,*1E
$GPGSA,A,3,05,16,21,29,,,,,,,,,3.8,2.2,3.0*30
$GPGSV,1,1,04,05,18,042,23,16,36,307,18,21,68,192,20,29,47,081,23*7C
$GLGSV,1,1,01,70,26,048,23*5A
$QZGSV,1,1,,,,,,,,,,,,,0.0*4B
$QZGSA,1,1,,,,,,,,,,,,,0.0*5C
$GNGSA,A,3,05,16,21,29,,,,,,,,,3.6,2.2,3.0*20
$GPGSA,A,3,05,16,21,29,,,,,,,,,3.7,2.0,3.0*3D
$GPGSV,1,1,04,05,18,042,23,16,36,307,17,21,68,192,20,29,47,081,23*73
$GLGSV,1,1,01,70,26,048,23*5A
$QZGSV,1,1,,,,,,,,,,,,,0.0*4B
$QZGSA,1,1,,,,,,,,,,,,,0.0*5C
$GNGSA,A,3,05,16,21,29,,,,,,,,,3.6,2.0,3.0*22
$GNGSA,A,3,70,,,,,,,,,,,,3.6,2.0,3.0*2F
$GPGSA,A,3,05,16,21,29,,,,,,,,,3.7,2.0,3.0*3D
$GPGSV,1,1,04,05,18,042,23,16,36,307,17,21,68,192,20,29,47,081,23*73
$GLGSV,1,1,01,70,26,048,23*5A
$QZGSV,1,1,,,,,,,,,,,,,0.0*4B
$QZGSA,1,1,,,,,,,,,,,,,0.0*5C
$GNGSA,A,3,05,16,21,29,,,,,,,,,3.6,2.0,3.0*22
$GNGSA,A,3,70,,,,,,,,,,,,3.6,2.0,3.0*2F
$GPGSA,A,3,05,16,21,29,,,,,,,,,3.7,2.0,3.0*3D
$GPGSV,1,1,04,05,18,042,23,16,36,307,18,21,68,192,21,29,47,081,23*7D
$GLGSV,1,1,01,70,26,048,23*5A
$QZGSV,1,1,,,,,,,,,,,,,0.0*4B
$QZGSA,1,1,,,,,,,,,,,,,0.0*5C
$GNGSA,A,3,05,16,21,29,,,,,,,,,3.6,2.0,3.0*22
$GNGSA,A,3,70,,,,,,,,,,,,3.6,2.0,3.0*2F
$GPGSA,A,3,05,16,21,29,,,,,,,,,3.7,2.0,3.0*3D
$GPGSV,2,1,05,05,18,042,23,16,36,307,18,18,15,158,13,21,68,192,21*7C
$GPGSV,2,2,05,29,47,081,23*4C
$GLGSV,1,1,01,70,26,048,23*5A
$QZGSV,1,1,,,,,,,,,,,,,0.0*4B
$QZGSA,1,1,,,,,,,,,,,,,0.0*5C
$GNGSA,A,3,05,16,21,29,,,,,,,,,3.6,2.0,3.0*22
$GNGSA,A,3,70,,,,,,,,,,,,3.6,2.0,3.0*2F
$GPGSA,A,3,05,16,18,21,29,,,,,,,,2.2,1.0,1.9*38
$GPGSV,2,1,05,05,18,042,23,16,36,307,18,18,15,158,15,21,68,192,21*7A
$GPGSV,2,2,05,29,47,081,23*4C
$GLGSV,1,1,01,70,26,048,24*5D
$QZGSV,1,1,,,,,,,,,,,,,0.0*4B
$QZGSA,1,1,,,,,,,,,,,,,0.0*5C
$GNGSA,A,3,05,16,18,21,29,,,,,,,,2.0,1.0,1.8*25
$GNGSA,A,3,70,,,,,,,,,,,,2.0,1.0,1.8*21
$GPGSA,A,3,05,16,18,21,29,,,,,,,,2.0,1.2,1.6*37
$GPGSV,2,1,05,05,18,042,23,16,36,307,18,18,15,158,16,21,68,192,22*7A
$GPGSV,2,2,05,29,47,081,23*4C
$GLGSV,1,1,01,70,26,048,23*5A
$QZGSV,1,1,,,,,,,,,,,,,0.0*4B
$QZGSA,1,1,,,,,,,,,,,,,0.0*5C
$GNGSA,A,3,05,16,18,21,29,,,,,,,,2.0,1.2,1.6*29
$GPRMC,080009.091,A,4950.682838,N,01819.358033,E,0.1,293.6,251014,,,A*63
$GPGGA,080009.091,4950.682838,N,01819.358033,E,1,05,1.2,242.3,M,42.5,M,,*5F
$GPGSA,A,3,05,16,18,21,29,,,,,,,,2.0,1.2,1.6*37
$GPGSV,2,1,05,05,18,042,23,16,36,307,18,18,15,158,15,21,68,192,21*7A
$GPGSV,2,2,05,29,47,081,23*4C
$QZGSV,1,1,,,,,,,,,,,,,0.0*4B
$QZGSA,1,1,,,,,,,,,,,,,0.0*5C
$GPRMC,080010.091,A,4950.682198,N,01819.356174,E,0.4,293.5,251014,,,A*62
$GPGGA,080010.091,4950.682198,N,01819.356174,E,1,05,1.2,242.1,M,42.4,M,,*5B
$GPGSA,A,3,16,18,21,29,,,,,,,,,2.5,1.6,1.8*3D
$GPGSV,2,1,05,05,18,042,22,16,36,307,18,18,15,158,16,21,68,192,21*78
$GPGSV,2,2,05,29,47,081,23*4C
$QZGSV,1,1,,,,,,,,,,,,,0.0*4B
$QZGSA,1,1,,,,,,,,,,,,,0.0*5C
$GPRMC,080011.091,A,4950.681404,N,01819.355556,E,0.5,293.5,251014,,,A*66
$GPGGA,080011.091,4950.681404,N,01819.355556,E,1,04,1.6,242.0,M,42.4,M,,*5A
$GPGSA,A,1,,,,,,,,,,,,,,,*1E
$GPGSA,A,1,,,,,,,,,,,,,,,*1E
$GPGSV,2,1,05,05,18,042,21,16,36,307,18,18,15,158,20,21,68,192,23*7C
$GPGSV,2,2,05,29,47,081,24*4B
$GLGSV,1,1,01,76,33,206,19*59
$QZGSV,1,1,,,,,,,,,,,,,0.0*4B
$QZGSA,1,1,,,,,,,,,,,,,0.0*5C
$GPGSA,A,3,05,16,18,21,29,,,,,,,,2.2,1.0,1.8*39
$GPGSV,2,1,05,05,18,042,22,16,36,307,19,18,15,158,20,21,68,192,23*7E
$GPGSV,2,2,05,29,47,081,25*4A
$GLGSV,1,1,01,76,33,206,20*53
$QZGSV,1,1,,,,,,,,,,,,,0.0*4B
$QZGSA,1,1,,,,,,,,,,,,,0.0*5C
$GNGSA,A,3,05,16,18,21,29,,,,,,,,2.0,1.0,1.8*25
$GNGSA,A,3,76,,,,,,,,,,,,2.0,1.0,1.8*27
$GPGSA,A,3,05,16,18,21,29,,,,,,,,2.2,1.0,1.8*39
$GPGSV,2,1,05,05,18,042,22,16,36,307,19,18,15,158,20,21,68,192,23*7E
$GPGSV,2,2,05,29,47,081,25*4A
$GLGSV,1,1,02,70,26,048,20,76,33,206,20*6D
$QZGSV,1,1,,,,,,,,,,,,,0.0*4B
$QZGSA,1,1,,,,,,,,,,,,,0.0*5C
$GNGSA,A,3,05,16,18,21,29,,,,,,,,2.0,1.0,1.8*25
$GNGSA,A,3,76,,,,,,,,,,,,2.0,1.0,1.8*27
$GPGSA,A,3,05,16,18,21,29,,,,,,,,2.1,1.0,1.8*3A
$GPGSV,2,1,05,05,18,042,22,16,36,307,20,18,15,158,20,21,68,192,23*74
$GPGSV,2,2,05,29,47,081,26*49
$GLGSV,1,1,02,70,26,048,21,76,33,206,20*6C
$QZGSV,1,1,,,,,,,,,,,,,0.0*4B
$QZGSA,1,1,,,,,,,,,,,,,0.0*5C
$GNGSA,A,3,05,16,18,21,29,,,,,,,,2.0,1.0,1.8*25
$GNGSA,A,3,70,76,,,,,,,,,,,2.0,1.0,1.8*20
$GPGSA,A,3,05,08,16,18,21,29,31,,,,,,1.7,0.8,1.5*31
$GPGSV,2,1,07,05,18,042,23,08,13,329,15,16,36,307,23,18,15,158,18*7F
$GPGSV,2,2,07,21,68,192,21,29,47,081,29,31,22,221,16*44
$GLGSV,1,1,02,70,26,048,25,76,33,206,18*63
$QZGSV,1,1,,,,,,,,,,,,,0.0*4B
$QZGSA,1,1,,,,,,,,,,,,,0.0*5C
$GNGSA,A,3,05,08,16,18,21,29,31,,,,,,1.6,0.8,1.4*2F
$GNGSA,A,3,70,76,,,,,,,,,,,1.6,0.8,1.4*20
$GPGSA,A,3,05,08,16,18,21,29,31,,,,,,1.8,0.8,1.5*3E
$GPGSV,2,1,07,05,18,042,25,08,13,329,17,16,36,307,23,18,15,158,18*7B
$GPGSV,2,2,07,21,68,192,21,29,47,081,30,31,22,221,16*4C
$GLGSV,1,1,02,70,26,048,23,76,33,206,17*6A
$QZGSV,1,1,,,,,,,,,,,,,0.0*4B
$QZGSA,1,1,,,,,,,,,,,,,0.0*5C
$GNGSA,A,3,05,08,16,18,21,29,31,,,,,,1.6,0.8,1.4*2F
$GNGSA,A,3,76,,,,,,,,,,,,1.6,0.8,1.4*27
$GPGSA,A,3,05,08,16,18,21,27,29,31,,,,,1.7,0.8,1.4*35
$GPGSV,2,1,08,05,18,042,25,08,13,329,18,16,36,307,23,18,15,158,17*74
$GPGSV,2,2,08,21,68,192,21,27,09,275,13,29,47,081,30,31,22,221,17*7C
$GLGSV,1,1,02,70,26,048,25,76,33,206,17*6C
$QZGSV,1,1,,,,,,,,,,,,,0.0*4B
$QZGSA,1,1,,,,,,,,,,,,,0.0*5C
$GNGSA,A,3,05,08,16,18,21,27,29,31,,,,,1.6,0.8,1.4*2A
$GNGSA,A,3,76,,,,,,,,,,,,1.6,0.8,1.4*27
$GPGSA,A,3,05,08,16,18,21,27,29,31,,,,,1.6,0.6,1.4*3A
$GPGSV,2,1,08,05,18,042,25,08,13,329,18,16,36,307,23,18,15,158,17*74
$GPGSV,2,2,08,21,68,192,21,27,09,275,14,29,47,081,31,31,22,221,17*7A
$GLGSV,1,1,02,70,26,048,26,76,33,206,17*6F
$QZGSV,1,1,,,,,,,,,,,,,0.0*4B
$QZGSA,1,1,,,,,,,,,,,,,0.0*5C
$GNGSA,A,3,05,08,16,18,21,27,29,31,,,,,1.6,0.6,1.4*24
$GNGSA,A,3,70,76,,,,,,,,,,,1.6,0.6,1.4*2E
$GPRMC,080033.000,A,4950.682825,N,01819.361297,E,1.5,280.1,251014,,,A*68
$GPGGA,080033.000,4950.682825,N,01819.361297,E,1,10,0.6,242.2,M,42.4,M,,*55
$GPGSA,A,3,05,08,16,18,21,27,29,31,,,,,1.7,0.8,1.4*35
$GPGSV,2,1,08,05,18,042,25,08,13,329,18,16,36,307,23,18,15,158,16*75
$GPGSV,2,2,08,21,68,192,21,27,09,275,14,29,47,081,36,31,22,221,17*7D
$GLGSV,1,1,02,70,26,048,25,76,33,206,16*6D
$QZGSV,1,1,,,,,,,,,,,,,0.0*4B
$QZGSA,1,1,,,,,,,,,,,,,0.0*5C
$GNGSA,A,3,05,08,16,18,21,27,29,31,,,,,1.6,0.8,1.4*2A
$GNGSA,A,3,76,,,,,,,,,,,,1.6,0.8,1.4*27
$GPRMC,080034.000,A,4950.683203,N,01819.361478,E,1.0,292.0,251014,,,A*60
$GPGGA,080034.000,4950.683203,N,01819.361478,E,1,09,0.8,239.4,M,42.4,M,,*56
$GPGSA,A,3,05,08,16,18,21,27,29,31,,,,,1.7,0.8,1.4*35
$GPGSV,2,1,08,05,18,042,24,08,13,329,18,16,36,307,23,18,15,158,16*74
$GPGSV,2,2,08,21,68,192,21,27,09,275,14,29,47,081,33,31,22,221,17*78
$GLGSV,1,1,02,70,26,048,22,76,33,206,16*6A
$QZGSV,1,1,,,,,,,,,,,,,0.0*4B
$QZGSA,1,1,,,,,,,,,,,,,0.0*5C
$GNGSA,A,3,05,08,16,18,21,27,29,31,,,,,1.6,0.8,1.4*2A
$GNGSA,A,3,76,,,,,,,,,,,,1.6,0.8,1.4*27
$GPRMC,080035.000,A,4950.683513,N,01819.362281,E,0.9,297.0,251014,,,A*69
$GPGGA,080035.000,4950.683513,N,01819.362281,E,1,09,0.8,238.1,M,42.5,M,,*57
$GPGSA,A,1,,,,,,,,,,,,,,,*1E
$GPGSA,A,1,,,,,,,,,,,,,,,*1E
$GPGSV,2,1,06,05,18,042,21,16,36,307,17,18,15,158,22,21,69,192,25*75
$GPGSV,2,2,06,29,47,081,19,31,21,221,21*75
$GLGSV,1,1,02,70,26,048,24,76,33,206,19*63
$QZGSV,1,1,,,,,,,,,,,,,0.0*4B
$QZGSA,1,1,,,,,,,,,,,,,0.0*5C
$GPGSA,A,3,05,16,18,21,29,,,,,,,,2.2,1.0,1.8*39
$GPGSV,2,1,06,05,18,042,22,16,36,307,18,18,15,158,23,21,69,192,26*7B
$GPGSV,2,2,06,29,47,081,20,31,21,221,22*7C
$GLGSV,1,1,02,70,26,048,25,76,33,206,20*68
$QZGSV,1,1,,,,,,,,,,,,,0.0*4B
$QZGSA,1,1,,,,,,,,,,,,,0.0*5C
$GNGSA,A,3,05,16,18,21,29,,,,,,,,2.0,1.0,1.8*25
$GNGSA,A,3,76,,,,,,,,,,,,2.0,1.0,1.8*27
$GPGSA,A,3,05,16,18,21,29,31,,,,,,,2.0,1.0,1.7*36
$GPGSV,2,1,06,05,18,042,22,16,36,307,18,18,15,158,23,21,69,192,26*7B
$GPGSV,2,2,06,29,47,081,20,31,21,221,22*7C
$GLGSV,1,1,02,70,26,048,25,76,33,206,20*68
$QZGSV,1,1,,,,,,,,,,,,,0.0*4B
$QZGSA,1,1,,,,,,,,,,,,,0.0*5C
$GNGSA,A,3,05,16,18,21,29,31,,,,,,,2.0,1.0,1.6*29
$GNGSA,A,3,76,,,,,,,,,,,,2.0,1.0,1.6*29
$GPGSA,A,3,05,16,18,21,29,31,,,,,,,2.0,1.0,1.7*36
$GPGSV,2,1,06,05,18,042,22,16,36,307,18,18,15,158,23,21,69,192,27*7A
$GPGSV,2,2,06,29,47,081,21,31,21,221,22*7D
$GLGSV,1,1,01,76,33,206,20*53
$QZGSV,1,1,,,,,,,,,,,,,0.0*4B
$QZGSA,1,1,,,,,,,,,,,,,0.0*5C
$GNGSA,A,3,05,16,18,21,29,31,,,,,,,2.0,1.0,1.6*29
$GNGSA,A,3,76,,,,,,,,,,,,2.0,1.0,1.6*29
$GPGSA,A,3,05,16,18,21,27,29,31,,,,,,1.7,0.8,1.5*3C
$GPGSV,2,1,07,05,18,042,22,16,36,307,20,18,15,158,22,21,69,192,28*7E
$GPGSV,2,2,07,27,10,275,16,29,47,081,28,31,21,221,21*45
$GLGSV,1,1,02,70,26,048,24,76,33,206,22*6B
$QZGSV,1,1,,,,,,,,,,,,,0.0*4B
$QZGSA,1,1,,,,,,,,,,,,,0.0*5C
$GNGSA,A,3,05,16,18,21,27,29,31,,,,,,1.6,0.8,1.4*22
$GNGSA,A,3,76,,,,,,,,,,,,1.6,0.8,1.4*27
$GPGSA,A,3,05,16,18,21,27,29,31,,,,,,1.7,0.8,1.5*3C
$GPGSV,2,1,07,05,18,042,22,16,36,307,20,18,15,158,22,21,69,192,28*7E
$GPGSV,2,2,07,27,10,275,17,29,47,081,30,31,21,221,22*4E
$GLGSV,1,1,02,70,26,048,22,76,33,206,23*6C
$QZGSV,1,1,,,,,,,,,,,,,0.0*4B
$QZGSA,1,1,,,,,,,,,,,,,0.0*5C
$GNGSA,A,3,05,16,18,21,27,29,31,,,,,,1.6,0.8,1.4*22
$GNGSA,A,3,76,,,,,,,,,,,,1.6,0.8,1.4*27
$GPGSA,A,3,05,16,18,21,27,29,31,,,,,,1.8,0.8,1.5*33
$GPGSV,2,1,07,05,18,042,22,16,36,307,31,18,15,158,23,21,69,192,29*7E
$GPGSV,2,2,07,27,10,275,17,29,47,081,30,31,21,221,23*4F
$GLGSV,1,1,01,76,33,206,23*50
$QZGSV,1,1,,,,,,,,,,,,,0.0*4B
$QZGSA,1,1,,,,,,,,,,,,,0.0*5C
$GNGSA,A,3,05,16,18,21,27,29,31,,,,,,1.6,0.8,1.4*22
$GPGSA,A,3,05,16,18,21,27,29,31,,,,,,1.7,0.8,1.5*3C
$GPGSV,2,1,07,05,18,042,21,16,36,307,28,18,15,158,22,21,69,192,29*74
$GPGSV,2,2,07,27,10,275,19,29,47,081,22,31,21,221,22*43
$GLGSV,1,1,01,70,26,048,19*53
$QZGSV,1,1,,,,,,,,,,,,,0.0*4B
$QZGSA,1,1,,,,,,,,,,,,,0.0*5C
$GNGSA,A,3,05,16,18,21,27,29,31,,,,,,1.6,0.8,1.4*22
$GNGSA,A,3,70,,,,,,,,,,,,1.6,0.8,1.4*21
$GPGSA,A,3,05,16,18,21,27,29,31,,,,,,1.7,0.8,1.5*3C
$GPGSV,2,1,07,05,18,042,21,16,36,307,26,18,15,158,22,21,69,192,30*72
$GPGSV,2,2,07,27,10,275,20,29,47,081,20,31,21,221,22*4B
$GLGSV,1,1,02,70,26,048,18,76,33,206,18*6D
$QZGSV,1,1,,,,,,,,,,,,,0.0*4B
$QZGSA,1,1,,,,,,,,,,,,,0.0*5C
$GNGSA,A,3,05,16,18,21,27,29,31,,,,,,1.6,0.8,1.4*22
$GNGSA,A,3,70,,,,,,,,,,,,1.6,0.8,1.4*21
$GPRMC,080058.000,A,4950.686544,N,01819.368984,E,0.2,0.0,251014,,,A*66
$GPGGA,080058.000,4950.686544,N,01819.368984,E,1,08,0.8,255.5,M,42.5,M,,*51
$GPGSA,A,3,05,16,18,21,27,29,,,,,,,1.7,0.8,1.5*3E
$GPGSV,2,1,07,05,18,042,20,16,36,307,26,18,15,158,22,21,69,192,30*73
$GPGSV,2,2,07,27,10,275,20,29,47,081,19,31,21,221,08*49
$GLGSV,1,1,02,70,26,048,18,76,33,206,18*6D
$QZGSV,1,1,,,,,,,,,,,,,0.0*4B
$QZGSA,1,1,,,,,,,,,,,,,0.0*5C
$GNGSA,A,3,05,16,18,21,27,29,,,,,,,1.6,0.8,1.4*20
$GNGSA,A,3,70,76,,,,,,,,,,,1.6,0.8,1.4*20
$GPRMC,080059.000,A,4950.686710,N,01819.368059,E,0.2,0.0,251014,,,A*6D
$GPGGA,080059.000,4950.686710,N,01819.368059,E,1,08,0.8,254.4,M,42.4,M,,*5B
$GPGSA,A,3,05,16,18,21,27,29,,,,,,,1.7,0.8,1.5*3E
$GPGSV,2,1,07,05,18,042,20,16,36,307,26,18,15,158,22,21,69,192,29*7B
$GPGSV,2,2,07,27,10,275,20,29,47,081,19,31,21,221,08*49
$GLGSV,1,1,02,70,26,048,18,76,33,206,20*66
$QZGSV,1,1,,,,,,,,,,,,,0.0*4B
$QZGSA,1,1,,,,,,,,,,,,,0.0*5C
$GNGSA,A,3,05,16,18,21,27,29,,,,,,,1.6,0.8,1.4*20
$GNGSA,A,3,70,76,,,,,,,,,,,1.6,0.8,1.4*20
$GPRMC,080100.000,A,4950.686732,N,01819.367454,E,0.7,0.0,251014,,,A*63
$GPGGA,080100.000,4950.686732,N,01819.367454,E,1,08,0.8,251.8,M,42.5,M,,*58
$GPGSA,A,1,,,,,,,,,,,,,,,*1E
$GPGSA,A,3,05,16,21,29,31,,,,,,,,2.2,1.2,1.7*3F
$GPGSV,2,1,05,05,18,042,18,16,36,307,20,21,69,192,23,29,47,081,24*78
$GPGSV,2,2,05,31,21,221,23*4D
$QZGSV,1,1,,,,,,,,,,,,,0.0*4B
$QZGSA,1,1,,,,,,,,,,,,,0.0*5C
$GPGSA,A,3,05,16,21,29,31,,,,,,,,2.2,1.2,1.7*3F
$GPGSV,2,1,06,05,18,042,18,08,13,328,19,16,36,307,19,21,69,192,23*7D
$GPGSV,2,2,06,29,47,081,24,31,21,221,23*79
$QZGSV,1,1,,,,,,,,,,,,,0.0*4B
$QZGSA,1,1,,,,,,,,,,,,,0.0*5C
$GPGSA,A,3,05,08,16,21,27,29,31,,,,,,2.1,1.0,1.8*3C
$GPGSV,2,1,07,05,18,042,18,08,13,328,19,16,36,307,20,21,69,192,24*71
$GPGSV,2,2,07,27,10,275,17,29,47,081,27,31,21,221,22*48
$GLGSV,1,1,01,70,26,048,19*53
$QZGSV,1,1,,,,,,,,,,,,,0.0*4B
$QZGSA,1,1,,,,,,,,,,,,,0.0*5C
$GNGSA,A,3,05,08,16,21,27,29,31,,,,,,2.0,1.0,1.8*23
$GNGSA,A,3,70,,,,,,,,,,,,2.0,1.0,1.8*21
$GPGSA,A,3,05,08,16,21,27,29,31,,,,,,2.1,1.0,1.8*3C
$GPGSV,2,1,07,05,18,042,19,08,13,328,22,16,36,307,21,21,69,192,24*79
$GPGSV,2,2,07,27,10,275,17,29,47,081,29,31,21,221,22*46
$GLGSV,1,1,01,70,26,048,20*59
$QZGSV,1,1,,,,,,,,,,,,,0.0*4B
$QZGSA,1,1,,,,,,,,,,,,,0.0*5C
$GNGSA,A,3,05,08,16,21,27,29,31,,,,,,2.0,1.0,1.8*23
$GNGSA,A,3,70,,,,,,,,,,,,2.0,1.0,1.8*21
$GPGSA,A,3,05,08,16,21,27,29,31,,,,,,2.1,1.0,1.8*3C
$GPGSV,2,1,08,05,18,042,21,08,13,328,23,16,36,307,21,18,15,158,13*7F
$GPGSV,2,2,08,21,69,192,24,27,10,275,16,29,47,081,29,31,21,221,21*7B
$GLGSV,1,1,02,70,26,048,21,76,32,206,16*68
$QZGSV,1,1,,,,,,,,,,,,,0.0*4B
$QZGSA,1,1,,,,,,,,,,,,,0.0*5C
$GNGSA,A,3,05,08,16,21,27,29,31,,,,,,2.0,1.0,1.8*23
$GNGSA,A,3,70,,,,,,,,,,,,2.0,1.0,1.8*21
$GPGSA,A,3,05,08,16,18,21,27,29,31,,,,,1.7,0.8,1.5*34
$GPGSV,2,1,08,05,18,042,21,08,13,328,23,16,36,307,22,18,15,158,13*7C
$GPGSV,2,2,08,21,69,192,23,27,10,275,16,29,47,081,29,31,21,221,21*7C
$GLGSV,1,1,02,70,26,048,21,76,32,206,14*6A
$QZGSV,1,1,,,,,,,,,,,,,0.0*4B
$QZGSA,1,1,,,,,,,,,,,,,0.0*5C
$GNGSA,A,3,05,08,16,18,21,27,29,31,,,,,1.6,0.8,1.4*2A
$GNGSA,A,3,70,,,,,,,,,,,,1.6,0.8,1.4*21
$GPGSA,A,3,05,08,16,18,21,27,29,31,,,,,1.6,0.6,1.4*3A
$GPGSV,2,1,08,05,18,042,22,08,13,328,31,16,36,307,28,18,15,158,13*76
$GPGSV,2,2,08,21,69,192,23,27,10,275,16,29,47,081,30,31,21,221,21*74
$GLGSV,1,1,02,70,26,048,28,76,32,206,16*61
$QZGSV,1,1,,,,,,,,,,,,,0.0*4B
$QZGSA,1,1,,,,,,,,,,,,,0.0*5C
$GNGSA,A,3,05,08,16,18,21,27,29,31,,,,,1.6,0.6,1.4*24
$GNGSA,A,3,70,76,,,,,,,,,,,1.6,0.6,1.4*2E
$GPGSA,A,3,05,08,16,18,21,27,29,31,,,,,1.7,0.8,1.5*34
$GPGSV,2,1,08,05,18,042,23,08,13,328,28,16,36,307,28,18,15,158,13*7F
$GPGSV,2,2,08,21,69,192,23,27,10,275,16,29,47,081,37,31,21,221,21*73
$GLGSV,1,1,02,70,26,048,23,76,32,206,15*69
$QZGSV,1,1,,,,,,,,,,,,,0.0*4B
$QZGSA,1,1,,,,,,,,,,,,,0.0*5C
$GNGSA,A,3,05,08,16,18,21,27,29,31,,,,,1.6,0.8,1.4*2A
$GPGSA,A,3,05,08,16,18,21,27,29,31,,,,,1.7,0.8,1.5*34
$GPGSV,2,1,08,05,18,042,23,08,13,328,27,16,36,307,28,18,15,158,13*70
$GPGSV,2,2,08,21,69,192,23,27,10,275,16,29,47,081,35,31,21,221,21*71
$GLGSV,1,1,02,70,26,048,28,76,32,206,15*62
$QZGSV,1,1,,,,,,,,,,,,,0.0*4B
$QZGSA,1,1,,,,,,,,,,,,,0.0*5C
$GNGSA,A,3,05,08,16,18,21,27,29,31,,,,,1.6,0.8,1.4*2A
$GNGSA,A,3,70,,,,,,,,,,,,1.6,0.8,1.4*21
$GPRMC,080124.000,A,4950.698035,N,01819.378385,E,1.0,352.3,251014,,,A*6E
$GPGGA,080124.000,4950.698035,N,01819.378385,E,1,09,0.8,254.0,M,42.5,M,,*58
$GPGSA,A,3,05,08,16,18,21,27,29,31,,,,,1.7,0.8,1.5*34
$GPGSV,2,1,08,05,18,042,23,08,13,328,26,16,36,307,28,18,15,158,12*70
$GPGSV,2,2,08,21,69,192,22,27,10,275,17,29,47,081,34,31,21,221,21*70
$GLGSV,1,1,02,70,26,048,30,76,32,206,15*6B
$QZGSV,1,1,,,,,,,,,,,,,0.0*4B
$QZGSA,1,1,,,,,,,,,,,,,0.0*5C
$GNGSA,A,3,05,08,16,18,21,27,29,31,,,,,1.6,0.8,1.4*2A
$GNGSA,A,3,70,,,,,,,,,,,,1.6,0.8,1.4*21
$GPRMC,080125.000,A,4950.698739,N,01819.378104,E,1.1,349.9,251014,,,A*6E
$GPGGA,080125.000,4950.698739,N,01819.378104,E,1,09,0.8,253.3,M,42.5,M,,*5D
$GPGSA,A,3,05,08,16,18,21,27,29,31,,,,,1.7,0.8,1.5*34
$GPGSV,2,1,08,05,18,042,23,08,13,328,25,16,36,307,28,18,15,158,11*70
$GPGSV,2,2,08,21,69,192,22,27,10,275,17,29,47,081,34,31,21,221,21*70
$GLGSV,1,1,02,70,26,048,33,76,32,206,15*68
$QZGSV,1,1,,,,,,,,,,,,,0.0*4B
$QZGSA,1,1,,,,,,,,,,,,,0.0*5C
$GNGSA,A,3,05,08,16,18,21,27,29,31,,,,,1.6,0.8,1.4*2A
$GNGSA,A,3,70,,,,,,,,,,,,1.6,0.8,1.4*21
$GPRMC,080126.000,A,4950.699552,N,01819.377822,E,1.0,350.7,251014,,,A*66
$GPGGA,080126.000,4950.699552,N,01819.377822,E,1,09,0.8,252.9,M,42.4,M,,*58
$GPGSA,A,1,,,,,,,,,,,,,,,*1E
$GPGSV,1,1,02,08,13,328,28,31,21,221,28*78
$QZGSV,1,1,,,,,,,,,,,,,0.0*4B
$QZGSA,1,1,,,,,,,,,,,,,0.0*5C
$GPGSA,A,3,05,08,16,29,31,,,,,,,,2.9,1.0,2.6*3F
$GPGSV,2,1,05,05,18,042,19,08,13,328,29,16,37,307,18,29,46,081,24*7D
$GPGSV,2,2,05,31,21,221,29*47
$GLGSV,1,1,01,76,32,205,20*51
$QZGSV,1,1,,,,,,,,,,,,,0.0*4B
$QZGSA,1,1,,,,,,,,,,,,,0.0*5C
$GNGSA,A,3,05,08,16,29,31,,,,,,,,2.8,1.0,2.6*20
$GNGSA,A,3,76,,,,,,,,,,,,2.8,1.0,2.6*22
$GPGSA,A,3,05,08,16,29,31,,,,,,,,2.9,1.0,2.6*3F
$GPGSV,2,1,05,05,18,042,19,08,13,328,29,16,37,307,18,29,46,081,25*7C
$GPGSV,2,2,05,31,21,221,29*47
$GLGSV,1,1,01,76,32,205,20*51
$QZGSV,1,1,,,,,,,,,,,,,0.0*4B
$QZGSA,1,1,,,,,,,,,,,,,0.0*5C
$GNGSA,A,3,05,08,16,29,31,,,,,,,,2.8,1.0,2.6*20
$GNGSA,A,3,76,,,,,,,,,,,,2.8,1.0,2.6*22
$GPGSA,A,3,05,08,16,18,29,31,,,,,,,2.3,0.8,2.2*31
$GPGSV,2,1,08,05,18,042,19,08,13,328,28,16,37,307,18,18,16,158,17*73
$GPGSV,2,2,08,21,69,192,17,27,10,275,17,29,46,081,27,31,21,221,28*7C
$GLGSV,1,1,02,70,26,048,21,76,32,205,20*6E
$QZGSV,1,1,,,,,,,,,,,,,0.0*4B
$QZGSA,1,1,,,,,,,,,,,,,0.0*5C
$GNGSA,A,3,05,08,16,18,29,31,,,,,,,2.2,0.8,2.0*2C
$GNGSA,A,3,76,,,,,,,,,,,,2.2,0.8,2.0*27
$GPGSA,A,3,05,08,16,18,21,27,29,31,,,,,1.7,0.8,1.5*34
$GPGSV,2,1,08,05,18,042,20,08,13,328,28,16,37,307,18,18,16,158,17*79
$GPGSV,2,2,08,21,69,192,19,27,10,275,17,29,46,081,31,31,21,221,27*7A
$GLGSV,1,1,02,70,26,048,25,76,32,205,19*60
$QZGSV,1,1,,,,,,,,,,,,,0.0*4B
$QZGSA,1,1,,,,,,,,,,,,,0.0*5C
$GNGSA,A,3,05,08,16,18,21,27,29,31,,,,,1.6,0.8,1.4*2A
$GNGSA,A,3,76,,,,,,,,,,,,1.6,0.8,1.4*27
$GPGSA,A,3,05,08,16,18,21,27,29,31,,,,,1.7,0.8,1.5*34
$GPGSV,3,1,09,05,18,042,20,08,13,328,28,13,01,001,13,16,37,307,22*74
$GPGSV,3,2,09,18,16,158,16,21,69,192,19,27,10,275,17,29,46,081,31*7A
$GPGSV,3,3,09,31,21,221,24*46
$GLGSV,1,1,02,70,26,048,21,76,32,205,18*65
$QZGSV,1,1,,,,,,,,,,,,,0.0*4B
$QZGSA,1,1,,,,,,,,,,,,,0.0*5C
$GNGSA,A,3,05,08,16,18,21,27,29,31,,,,,1.6,0.8,1.4*2A
$GNGSA,A,3,76,,,,,,,,,,,,1.6,0.8,1.4*27
$GPGSA,A,3,05,08,16,18,21,27,29,31,,,,,1.6,0.6,1.5*3B
$GPGSV,3,1,09,05,18,042,21,08,13,328,18,13,01,001,11,16,37,307,22*74
$GPGSV,3,2,09,18,16,158,16,21,69,192,19,27,10,275,17,29,46,081,31*7A
$GPGSV,3,3,09,31,21,221,24*46
$GLGSV,1,1,02,70,26,048,22,76,32,205,18*66
$QZGSV,1,1,,,,,,,,,,,,,0.0*4B
$QZGSA,1,1,,,,,,,,,,,,,0.0*5C
$GNGSA,A,3,05,08,16,18,21,27,29,31,,,,,1.6,0.6,1.4*24
$GNGSA,A,3,70,76,,,,,,,,,,,1.6,0.6,1.4*2E
$GPRMC,080147.000,A,4950.703456,N,01819.368011,E,0.5,0.0,251014,,,A*65
$GPGGA,080147.000,4950.703456,N,01819.368011,E,1,10,0.6,266.6,M,42.5,M,,*51
$GPGSA,A,3,05,08,16,18,21,27,29,31,,,,,1.7,0.8,1.5*34
$GPGSV,3,1,09,05,18,042,22,08,13,328,20,13,01,001,10,16,37,307,21*7E
$GPGSV,3,2,09,18,16,158,15,21,69,192,19,27,10,275,16,29,46,081,31*78
$GPGSV,3,3,09,31,21,221,24*46
$GLGSV,1,1,02,70,26,048,23,76,32,205,18*67
$QZGSV,1,1,,,,,,,,,,,,,0.0*4B
$QZGSA,1,1,,,,,,,,,,,,,0.0*5C
$GNGSA,A,3,05,08,16,18,21,27,29,31,,,,,1.6,0.8,1.4*2A
$GNGSA,A,3,76,,,,,,,,,,,,1.6,0.8,1.4*27
$GPRMC,080148.000,A,4950.703430,N,01819.367424,E,0.4,0.0,251014,,,A*66
$GPGGA,080148.000,4950.703430,N,01819.367424,E,1,09,0.8,268.9,M,42.4,M,,*55
$GPGSA,A,3,05,08,16,18,21,27,29,31,,,,,1.7,0.8,1.5*34
$GPGSV,2,1,08,05,18,042,21,08,13,328,20,16,37,307,22,18,16,158,15*7B
$GPGSV,2,2,08,21,69,192,19,27,10,275,15,29,46,081,32,31,21,221,23*7F
$GLGSV,1,1,02,70,26,048,21,76,32,205,18*65
$QZGSV,1,1,,,,,,,,,,,,,0.0*4B
$QZGSA,1,1,,,,,,,,,,,,,0.0*5C
$GNGSA,A,3,05,08,16,18,21,27,29,31,,,,,1.6,0.8,1.4*2A
$GNGSA,A,3,76,,,,,,,,,,,,1.6,0.8,1.4*27
$GPRMC,080149.000,A,4950.703257,N,01819.368785,E,0.8,0.0,251014,,,A*6B
$GPGGA,080149.000,4950.703257,N,01819.368785,E,1,09,0.8,267.9,M,42.5,M,,*5A
$GPGSA,A,1,,,,,,,,,,,,,,,*1E
$GPGSA,A,1,,,,,,,,,,,,,,,*1E
$GPGSV,2,1,07,05,18,041,18,08,13,328,23,16,37,307,28,21,69,191,18*7E
$GPGSV,2,2,07,27,10,275,22,29,46,081,26,31,21,221,21*4D
$GLGSV,1,1,01,70,26,047,21*57
$QZGSV,1,1,,,,,,,,,,,,,0.0*4B
$QZGSA,1,1,,,,,,,,,,,,,0.0*5C
$GPGSA,A,3,05,08,16,27,29,31,,,,,,,2.7,1.0,2.4*36
$GPGSV,2,1,07,05,18,041,20,08,13,328,24,16,37,307,29,21,69,191,16*7D
$GPGSV,2,2,07,27,10,275,22,29,46,081,26,31,21,221,22*4E
$GLGSV,1,1,01,70,26,047,23*55
$QZGSV,1,1,,,,,,,,,,,,,0.0*4B
$QZGSA,1,1,,,,,,,,,,,,,0.0*5C
$GNGSA,A,3,05,08,16,27,29,31,,,,,,,2.6,1.0,2.4*29
$GNGSA,A,3,70,,,,,,,,,,,,2.6,1.0,2.4*28
$GPGSA,A,3,05,08,16,27,29,31,,,,,,,2.7,1.0,2.4*36
$GPGSV,2,1,07,05,18,041,20,08,13,328,24,16,37,307,29,21,69,191,16*7D
$GPGSV,2,2,07,27,10,275,22,29,46,081,27,31,21,221,22*4F
$GLGSV,1,1,01,70,26,047,23*55
$QZGSV,1,1,,,,,,,,,,,,,0.0*4B
$QZGSA,1,1,,,,,,,,,,,,,0.0*5C
$GNGSA,A,3,05,08,16,27,29,31,,,,,,,2.6,1.0,2.4*29
$GNGSA,A,3,70,,,,,,,,,,,,2.6,1.0,2.4*28
$GPGSA,A,3,05,08,16,21,27,29,31,,,,,,2.1,1.0,1.8*3C
$GPGSV,2,1,07,05,18,041,20,08,13,328,25,16,37,307,29,21,69,191,17*7D
$GPGSV,2,2,07,27,10,275,23,29,46,081,27,31,21,221,22*4E
$GLGSV,1,1,01,70,26,047,23*55
$QZGSV,1,1,,,,,,,,,,,,,0.0*4B
$QZGSA,1,1,,,,,,,,,,,,,0.0*5C
$GNGSA,A,3,05,08,16,21,27,29,31,,,,,,2.0,1.0,1.8*23
$GPGSA,A,3,05,08,16,21,27,29,31,,,,,,2.1,1.0,1.8*3C
$GPGSV,2,1,07,05,18,041,21,08,13,328,26,16,37,307,29,21,69,191,19*71
$GPGSV,2,2,07,27,10,275,24,29,46,081,29,31,21,221,22*47
$GLGSV,1,1,01,70,26,047,23*55
$QZGSV,1,1,,,,,,,,,,,,,0.0*4B
$QZGSA,1,1,,,,,,,,,,,,,0.0*5C
$GNGSA,A,3,05,08,16,21,27,29,31,,,,,,2.0,1.0,1.8*23
$GPGSA,A,3,05,08,16,21,27,29,31,,,,,,2.1,1.0,1.8*3C
$GPGSV,2,1,07,05,18,041,21,08,13,328,26,16,37,307,28,21,69,191,19*70
$GPGSV,2,2,07,27,10,275,24,29,46,081,29,31,21,221,22*47
$GLGSV,1,1,02,70,26,047,23,76,32,205,15*65
$QZGSV,1,1,,,,,,,,,,,,,0.0*4B
$QZGSA,1,1,,,,,,,,,,,,,0.0*5C
$GNGSA,A,3,05,08,16,21,27,29,31,,,,,,2.0,1.0,1.6*2D
$GNGSA,A,3,76,,,,,,,,,,,,2.0,1.0,1.6*29
$GPGSA,A,3,05,08,16,18,21,27,29,31,,,,,1.6,0.6,1.5*3B
$GPGSV,2,1,08,05,18,041,22,08,13,328,25,16,37,307,28,18,16,158,13*72
$GPGSV,2,2,08,21,69,191,19,27,10,275,23,29,46,081,28,31,21,221,22*73
$GLGSV,1,1,02,70,26,047,31,76,32,205,15*66
$QZGSV,1,1,,,,,,,,,,,,,0.0*4B
$QZGSA,1,1,,,,,,,,,,,,,0.0*5C
$GNGSA,A,3,05,08,16,18,21,27,29,31,,,,,1.6,0.6,1.4*24
$GNGSA,A,3,70,76,,,,,,,,,,,1.6,0.6,1.4*2E
$GPGSA,A,3,05,08,16,18,21,27,29,31,,,,,1.7,0.8,1.5*34
$GPGSV,2,1,08,05,18,041,22,08,13,328,25,16,37,307,27,18,16,158,15*7B
$GPGSV,2,2,08,21,69,191,19,27,10,275,23,29,46,081,23,31,21,221,22*78
$GLGSV,1,1,02,70,26,047,31,76,32,205,15*66
$QZGSV,1,1,,,,,,,,,,,,,0.0*4B
$QZGSA,1,1,,,,,,,,,,,,,0.0*5C
$GNGSA,A,3,05,08,16,18,21,27,29,31,,,,,1.6,0.8,1.4*2A
$GNGSA,A,3,70,,,,,,,,,,,,1.6,0.8,1.4*21
$GPGSA,A,3,05,08,16,18,21,27,29,31,,,,,1.6,0.6,1.5*3B
$GPGSV,2,1,08,05,18,041,21,08,13,328,25,16,37,307,25,18,16,158,16*79
$GPGSV,2,2,08,21,69,191,19,27,10,275,23,29,46,081,26,31,21,221,22*7D
$GLGSV,1,1,02,70,26,047,30,76,32,205,16*64
$QZGSV,1,1,,,,,,,,,,,,,0.0*4B
$QZGSA,1,1,,,,,,,,,,,,,0.0*5C
$GNGSA,A,3,05,08,16,18,21,27,29,31,,,,,1.6,0.6,1.4*24
$GNGSA,A,3,70,76,,,,,,,,,,,1.6,0.6,1.4*2E
$GPRMC,080212.000,A,4950.705670,N,01819.374515,E,1.3,308.7,251014,,,A*61
$GPGGA,080212.000,4950.705670,N,01819.374515,E,1,10,0.6,254.4,M,42.4,M,,*5C
$GPGSA,A,3,05,08,16,18,21,27,29,31,,,,,1.6,0.6,1.5*3B
$GPGSV,2,1,08,05,18,041,21,08,13,328,25,16,37,307,25,18,16,158,16*79
$GPGSV,2,2,08,21,69,191,19,27,10,275,23,29,46,081,26,31,21,221,23*7C
$GLGSV,1,1,02,70,26,047,29,76,32,205,17*6D
$QZGSV,1,1,,,,,,,,,,,,,0.0*4B
$QZGSA,1,1,,,,,,,,,,,,,0.0*5C
$GNGSA,A,3,05,08,16,18,21,27,29,31,,,,,1.6,0.6,1.4*24
$GNGSA,A,3,70,76,,,,,,,,,,,1.6,0.6,1.4*2E
$GPRMC,080213.000,A,4950.706652,N,01819.374918,E,0.8,307.9,251014,,,A*69
$GPGGA,080213.000,4950.706652,N,01819.374918,E,1,10,0.6,254.0,M,42.4,M,,*5B
$GPGSA,A,3,05,08,16,18,21,27,29,31,,,,,1.6,0.6,1.5*3B
$GPGSV,2,1,08,05,18,041,21,08,13,328,25,16,37,307,23,18,16,158,15*7C
$GPGSV,2,2,08,21,69,191,19,27,10,275,23,29,46,081,26,31,21,221,23*7C
$GLGSV,1,1,02,70,26,047,18,76,32,205,17*6F
$QZGSV,1,1,,,,,,,,,,,,,0.0*4B
$QZGSA,1,1,,,,,,,,,,,,,0.0*5C
$GNGSA,A,3,05,08,16,18,21,27,29,31,,,,,1.6,0.6,1.4*24
$GNGSA,A,3,70,76,,,,,,,,,,,1.6,0.6,1.4*2E
$GPRMC,080214.000,A,4950.706944,N,01819.375012,E,0.7,307.1,251014,,,A*63
$GPGGA,080214.000,4950.706944,N,01819.375012,E,1,10,0.6,254.0,M,42.5,M,,*57
$GPGSA,A,1,,,,,,,,,,,,,,,*1E
$GPGSV,1,1,01,16,37,307,31*4D
$QZGSV,1,1,,,,,,,,,,,,,0.0*4B
$QZGSA,1,1,,,,,,,,,,,,,0.0*5C
$GPGSA,A,1,,,,,,,,,,,,,,,*1E
$GPGSV,2,1,06,05,17,041,21,08,13,328,25,16,37,307,30,21,69,191,20*7E
$GPGSV,2,2,06,29,46,081,24,31,21,221,22*79
$GLGSV,1,1,01,70,26,047,25*53
$QZGSV,1,1,,,,,,,,,,,,,0.0*4B
$QZGSA,1,1,,,,,,,,,,,,,0.0*5C
$GPGSA,A,3,08,16,21,29,31,,,,,,,,2.4,1.0,2.1*33
$GPGSV,2,1,07,05,17,041,20,08,13,328,25,16,37,307,29,21,69,191,20*76
$GPGSV,2,2,07,27,10,275,17,29,46,081,24,31,21,221,21*49
$GLGSV,1,1,01,70,26,047,25*53
$QZGSV,1,1,,,,,,,,,,,,,0.0*4B
$QZGSA,1,1,,,,,,,,,,,,,0.0*5C
$GNGSA,A,3,08,16,21,29,31,,,,,,,,2.4,1.0,2.0*2C
$GNGSA,A,3,70,,,,,,,,,,,,2.4,1.0,2.0*2E
$GPGSA,A,3,08,16,21,29,31,,,,,,,,2.3,1.2,1.9*3D
$GPGSV,2,1,06,08,13,328,25,16,37,307,28,21,69,191,20,27,10,275,17*70
$GPGSV,2,2,06,29,46,081,24,31,21,221,21*7A
$GLGSV,1,1,01,70,26,047,25*53
$QZGSV,1,1,,,,,,,,,,,,,0.0*4B
$QZGSA,1,1,,,,,,,,,,,,,0.0*5C
$GNGSA,A,3,08,16,21,29,31,,,,,,,,2.2,1.2,1.8*23
$GPGSA,A,3,08,16,21,27,29,31,,,,,,,2.6,1.2,2.2*35
$GPGSV,2,1,06,08,13,328,25,16,37,307,28,21,69,191,20,27,10,275,18*7F
$GPGSV,2,2,06,29,46,081,24,31,21,221,21*7A
$GLGSV,1,1,01,70,26,047,24*52
$QZGSV,1,1,,,,,,,,,,,,,0.0*4B
$QZGSA,1,1,,,,,,,,,,,,,0.0*5C
$GNGSA,A,3,08,16,21,27,29,31,,,,,,,2.6,1.2,2.2*2B
$GPGSA,A,3,08,16,21,27,29,31,,,,,,,2.6,1.2,2.2*35
$GPGSV,2,1,07,05,17,041,23,08,13,328,25,16,37,307,27,21,69,191,21*7A
$GPGSV,2,2,07,27,10,275,15,29,46,081,23,31,21,221,20*4D
$GLGSV,1,1,01,76,32,205,16*54
$QZGSV,1,1,,,,,,,,,,,,,0.0*4B
$QZGSA,1,1,,,,,,,,,,,,,0.0*5C
$GNGSA,A,3,08,16,21,27,29,31,,,,,,,2.6,1.2,2.2*2B
$GPGSA,A,3,05,08,16,21,27,29,31,,,,,,2.0,0.8,1.8*34
$GPGSV,2,1,07,05,17,041,23,08,13,328,25,16,37,307,26,21,69,191,20*7A
$GPGSV,2,2,07,27,10,275,14,29,46,081,24,31,21,221,20*4B
$GLGSV,1,1,02,70,26,047,17,76,32,205,17*60
$QZGSV,1,1,,,,,,,,,,,,,0.0*4B
$QZGSA,1,1,,,,,,,,,,,,,0.0*5C
$GNGSA,A,3,05,08,16,21,27,29,31,,,,,,2.0,0.8,1.6*24
$GNGSA,A,3,70,76,,,,,,,,,,,2.0,0.8,1.6*27
$GPGSA,A,3,05,08,16,18,21,27,29,31,,,,,1.6,0.6,1.5*3B
$GPGSV,2,1,08,05,17,041,26,08,13,328,25,16,37,307,24,18,16,158,13*75
$GPGSV,2,2,08,21,69,191,19,27,10,275,14,29,46,081,28,31,21,221,19*7F
$GLGSV,1,1,02,70,26,047,19,76,32,205,18*61
$QZGSV,1,1,,,,,,,,,,,,,0.0*4B
$QZGSA,1,1,,,,,,,,,,,,,0.0*5C
$GNGSA,A,3,05,08,16,18,21,27,29,31,,,,,1.6,0.6,1.4*24
$GNGSA,A,3,70,76,,,,,,,,,,,1.6,0.6,1.4*2E
$GPGSA,A,3,16,18,21,27,29,31,,,,,,,1.9,0.8,1.6*34
$GPGSV,2,1,08,05,17,041,18,08,13,328,13,16,37,307,24,18,16,158,16*78
$GPGSV,2,2,08,21,69,191,19,27,10,275,14,29,46,081,25,31,21,221,19*72
$GLGSV,1,1,02,70,26,047,19,76,32,205,18*61
$QZGSV,1,1,,,,,,,,,,,,,0.0*4B
$QZGSA,1,1,,,,,,,,,,,,,0.0*5C
$GNGSA,A,3,16,18,21,27,29,31,,,,,,,1.8,0.8,1.6*2B
$GNGSA,A,3,70,76,,,,,,,,,,,1.8,0.8,1.6*2C
$GPRMC,080236.000,A,4950.703414,N,01819.358568,E,1.3,254.7,251014,,,A*6D
$GPGGA,080236.000,4950.703414,N,01819.358568,E,1,08,0.8,241.1,M,42.4,M,,*5E
$GPGSA,A,3,08,16,18,21,27,29,31,,,,,,1.7,0.8,1.5*31
$GPGSV,2,1,08,05,17,041,06,08,13,328,20,16,37,307,23,18,16,158,18*7E
$GPGSV,2,2,08,21,69,191,19,27,10,275,13,29,46,081,26,31,21,221,19*76
$GLGSV,1,1,02,70,26,047,19,76,32,205,18*61
$QZGSV,1,1,,,,,,,,,,,,,0.0*4B
$QZGSA,1,1,,,,,,,,,,,,,0.0*5C
$GNGSA,A,3,08,16,18,21,27,29,31,,,,,,1.6,0.8,1.4*2F
$GNGSA,A,3,70,76,,,,,,,,,,,1.6,0.8,1.4*20
$GPRMC,080237.000,A,4950.703456,N,01819.359552,E,0.4,253.4,251014,,,A*60
$GPGGA,080237.000,4950.703456,N,01819.359552,E,1,09,0.8,240.1,M,42.4,M,,*51
$GPGSA,A,3,05,08,16,18,21,27,29,31,,,,,1.6,0.6,1.5*3B
$GPGSV,2,1,08,05,17,041,16,08,13,328,21,16,37,307,23,18,16,158,19*7F
$GPGSV,2,2,08,21,69,191,20,27,10,275,13,29,46,081,26,31,21,221,19*7C
$GLGSV,1,1,02,70,26,047,19,76,32,205,17*6E
$QZGSV,1,1,,,,,,,,,,,,,0.0*4B
$QZGSA,1,1,,,,,,,,,,,,,0.0*5C
$GNGSA,A,3,05,08,16,18,21,27,29,31,,,,,1.6,0.6,1.4*24
$GNGSA,A,3,70,76,,,,,,,,,,,1.6,0.6,1.4*2E
$GPRMC,080238.000,A,4950.702160,N,01819.360392,E,0.8,252.1,251014,,,A*66
$GPGGA,080238.000,4950.702160,N,01819.360392,E,1,10,0.6,237.8,M,42.5,M,,*51
$GPGSA,A,1,,,,,,,,,,,,,,,*1E
$GPGSA,A,1,,,,,,,,,,,,,,,*1E
$GPGSV,1,1,02,16,37,307,20,29,46,082,29*76
$GLGSV,1,1,01,70,26,047,19*5C
$QZGSV,1,1,,,,,,,,,,,,,0.0*4B
$QZGSA,1,1,,,,,,,,,,,,,0.0*5C
$GPGSA,A,1,,,,,,,,,,,,,,,*1E
$GPGSV,1,1,02,16,37,307,20,29,46,082,29*76
$GLGSV,1,1,01,70,26,047,19*5C
$QZGSV,1,1,,,,,,,,,,,,,0.0*4B
$QZGSA,1,1,,,,,,,,,,,,,0.0*5C
$GPGSA,A,1,,,,,,,,,,,,,,,*1E
$GPGSV,1,1,02,16,37,307,23,29,46,082,28*74
$GLGSV,1,1,01,70,26,047,18*5D
$QZGSV,1,1,,,,,,,,,,,,,0.0*4B
$QZGSA,1,1,,,,,,,,,,,,,0.0*5C
$GPGSA,A,1,,,,,,,,,,,,,,,*1E
$GPGSV,1,1,03,05,17,041,14,16,37,307,23,29,46,082,26*48
$GLGSV,1,1,01,70,26,047,18*5D
$QZGSV,1,1,,,,,,,,,,,,,0.0*4B
$QZGSA,1,1,,,,,,,,,,,,,0.0*5C
$GPGSA,A,3,05,16,21,29,,,,,,,,,3.7,2.0,3.0*3D
$GPGSV,2,1,05,05,17,041,15,16,37,307,23,21,69,191,15,29,46,082,26*7D
$GPGSV,2,2,05,31,21,221,13*4E
$GLGSV,1,1,01,70,26,047,19*5C
$QZGSV,1,1,,,,,,,,,,,,,0.0*4B
$QZGSA,1,1,,,,,,,,,,,,,0.0*5C
$GNGSA,A,3,05,16,21,29,,,,,,,,,3.6,2.0,3.0*22
$GNGSA,A,3,70,,,,,,,,,,,,3.6,2.0,3.0*2F
$GPGSA,A,3,05,16,29,31,,,,,,,,,2.5,1.2,2.1*3E
$GPGSV,2,1,05,05,17,041,15,16,37,307,23,21,69,191,14,29,46,082,26*7C
$GPGSV,2,2,05,31,21,221,13*4E
$GLGSV,1,1,01,70,26,047,19*5C
$QZGSV,1,1,,,,,,,,,,,,,0.0*4B
$QZGSA,1,1,,,,,,,,,,,,,0.0*5C
$GNGSA,A,3,05,16,29,31,,,,,,,,,2.4,1.2,2.0*20
$GNGSA,A,3,70,,,,,,,,,,,,2.4,1.2,2.0*2C
$GPGSA,A,3,05,16,21,29,31,,,,,,,,2.4,1.2,2.0*3D
$GPGSV,2,1,05,05,17,041,17,16,37,307,28,21,69,191,19,29,46,082,26*78
$GPGSV,2,2,05,31,21,221,13*4E
$GLGSV,1,1,01,70,26,047,19*5C
$QZGSV,1,1,,,,,,,,,,,,,0.0*4B
$QZGSA,1,1,,,,,,,,,,,,,0.0*5C
$GNGSA,A,3,05,16,21,29,31,,,,,,,,2.2,1.2,1.8*2E
$GNGSA,A,3,70,,,,,,,,,,,,2.2,1.2,1.8*21
$GPGSA,A,3,05,16,21,29,31,,,,,,,,2.4,1.2,2.0*3D
$GPGSV,2,1,05,05,17,041,16,16,37,307,27,21,69,191,20,29,46,082,27*7D
$GPGSV,2,2,05,31,21,221,13*4E
$GLGSV,1,1,01,70,26,047,18*5D
$QZGSV,1,1,,,,,,,,,,,,,0.0*4B
$QZGSA,1,1,,,,,,,,,,,,,0.0*5C
$GNGSA,A,3,05,16,21,29,31,,,,,,,,2.2,1.2,1.8*2E
$GNGSA,A,3,70,,,,,,,,,,,,2.2,1.2,1.8*21
$GPRMC,080259.939,A,4950.703558,N,01819.362396,E,1.6,227.6,251014,,,A*60
$GPGGA,080259.939,4950.703558,N,01819.362396,E,1,06,1.2,244.1,M,42.5,M,,*52
$GPGSA,A,3,05,16,21,29,31,,,,,,,,2.4,1.2,2.0*3D
$GPGSV,2,1,05,05,17,041,16,16,37,307,28,21,69,191,27,29,46,082,35*76
$GPGSV,2,2,05,31,21,221,13*4E
$GLGSV,1,1,01,70,26,047,18*5D
$QZGSV,1,1,,,,,,,,,,,,,0.0*4B
$QZGSA,1,1,,,,,,,,,,,,,0.0*5C
$GNGSA,A,3,05,16,21,29,31,,,,,,,,2.2,1.2,1.8*2E
$GNGSA,A,3,70,,,,,,,,,,,,2.2,1.2,1.8*21
$GPRMC,080300.939,A,4950.703846,N,01819.365060,E,1.4,207.9,251014,,,A*6D
$GPGGA,080300.939,4950.703846,N,01819.365060,E,1,06,1.2,243.7,M,42.5,M,,*51
$GPGSA,A,3,05,16,21,29,31,,,,,,,,2.4,1.2,2.0*3D
$GPGSV,2,1,05,05,17,041,16,16,37,307,27,21,69,191,26,29,46,082,34*79
$GPGSV,2,2,05,31,21,221,14*49
$GLGSV,1,1,01,70,26,047,18*5D
$QZGSV,1,1,,,,,,,,,,,,,0.0*4B
$QZGSA,1,1,,,,,,,,,,,,,0.0*5C
$GNGSA,A,3,05,16,21,29,31,,,,,,,,2.2,1.2,1.8*2E
$GNGSA,A,3,70,,,,,,,,,,,,2.2,1.2,1.8*21
$GPRMC,080302.000,A,4950.704371,N,01819.364518,E,0.9,206.2,251014,,,A*69
$GPGGA,080302.000,4950.704371,N,01819.364518,E,1,06,1.2,244.7,M,42.5,M,,*54
$GPGSA,A,1,,,,,,,,,,,,,,,*1E
$GPGSA,A,1,,,,,,,,,,,,,,,*1E
$GLGSV,1,1,01,70,26,047,36*51
$GPGSA,A,3,05,08,16,29,,,,,,,,,4.3,3.0,3.0*34
$GPGSV,2,1,05,05,17,041,23,08,13,328,23,16,37,307,21,29,46,082,26*79
$GPGSV,2,2,05,31,20,221,21*4E
$GLGSV,1,1,01,70,26,047,36*51
$QZGSV,1,1,,,,,,,,,,,,,0.0*4B
$QZGSA,1,1,,,,,,,,,,,,,0.0*5C
$GNGSA,A,3,05,08,16,29,,,,,,,,,4.2,3.0,3.0*2B
$GNGSA,A,3,70,,,,,,,,,,,,4.2,3.0,3.0*2D
$GPGSA,A,3,05,08,16,29,31,,,,,,,,2.8,1.0,2.6*3E
$GPGSV,2,1,05,05,17,041,23,08,13,328,23,16,37,307,21,29,46,082,26*79
$GPGSV,2,2,05,31,20,221,21*4E
$GLGSV,1,1,01,70,26,047,36*51
$QZGSV,1,1,,,,,,,,,,,,,0.0*4B
$QZGSA,1,1,,,,,,,,,,,,,0.0*5C
$GNGSA,A,3,05,08,16,29,31,,,,,,,,2.8,1.0,2.6*20
$GNGSA,A,3,70,,,,,,,,,,,,2.8,1.0,2.6*24
$GPGSA,A,3,05,08,16,27,29,31,,,,,,,2.7,1.0,2.4*36
$GPGSV,2,1,06,05,17,041,23,08,13,328,24,16,37,307,22,27,10,276,16*79
$GPGSV,2,2,06,29,46,082,27,31,20,221,22*78
$GLGSV,1,1,01,70,26,047,34*53
$QZGSV,1,1,,,,,,,,,,,,,0.0*4B
$QZGSA,1,1,,,,,,,,,,,,,0.0*5C
$GNGSA,A,3,05,08,16,27,29,31,,,,,,,2.6,1.0,2.4*29
$GNGSA,A,3,70,,,,,,,,,,,,2.6,1.0,2.4*28
$GPGSA,A,3,05,08,16,27,29,31,,,,,,,2.7,1.0,2.4*36
$GPGSV,2,1,06,05,17,041,24,08,13,328,24,16,37,307,23,27,10,276,17*7E
$GPGSV,2,2,06,29,46,082,27,31,20,221,22*78
$GLGSV,1,1,01,70,26,047,34*53
$QZGSV,1,1,,,,,,,,,,,,,0.0*4B
$QZGSA,1,1,,,,,,,,,,,,,0.0*5C
$GNGSA,A,3,05,08,16,27,29,31,,,,,,,2.6,1.0,2.4*29
