$GNRMC,192454.00,A,4935.76234,N,01822.28614,E,0.124,,170818,,,A,V*17
$GNVTG,,T,,M,0.124,N,0.230,K,A*3B
$GNGGA,192454.00,4935.76234,N,01822.28614,E,1,12,0.59,434.6,M,41.1,M,,*4F
$GNGSA,A,3,09,23,06,07,03,02,16,26,,,,,1.11,0.59,0.94,1*0A
$GNGSA,A,3,72,65,74,73,88,81,75,71,87,,,,1.11,0.59,0.94,2*01
$GNGSA,A,3,19,27,12,30,07,,,,,,,,1.11,0.59,0.94,3*09
$GPGSV,3,1,11,02,28,309,11,03,27,125,28,06,48,250,29,07,38,188,22,0*64
$GPGSV,3,2,11,09,85,322,36,16,18,074,13,22,07,127,,23,59,069,34,0*6F
$GPGSV,3,3,11,26,15,045,25,29,01,357,,30,10,201,06,0*5F
$GLGSV,3,1,10,65,55,313,31,66,01,288,,71,15,096,23,72,62,066,26,0*70
$GLGSV,3,2,10,73,30,037,22,74,53,104,23,75,22,164,19,81,23,325,23,0*7F
$GLGSV,3,3,10,87,09,227,25,88,29,270,26,0*74
$GAGSV,2,1,08,04,00,275,,07,21,091,11,11,13,330,,12,32,277,28,0*7F
$GAGSV,2,2,08,19,54,284,25,21,16,160,,27,40,107,23,30,27,048,19,0*7B
$GNGLL,4935.76234,N,01822.28614,E,192454.00,A,A*74
$GNRMC,192455.00,A,4935.76229,N,01822.28614,E,0.061,,170818,,,A,V*1A
$GNVTG,,T,,M,0.061,N,0.113,K,A*39
$GNGGA,192455.00,4935.76229,N,01822.28614,E,1,12,0.57,434.6,M,41.1,M,,*4C
$GNGSA,A,3,09,23,06,07,03,02,26,30,,,,,1.08,0.57,0.92,1*0E
$GNGSA,A,3,72,65,,,,,,1.08,0.57,0.92,3*09
$GPGSV,3,1,11,02,28,309,11,03,27,125,28,06,48,250,29,07,38,188,21,0*67
$GPGSV,3,2,11,09,85,322,35,16,18,074,09,22,07,127,,23,59,069,34,0*67
$GPGSV,3,3,11,26,15,045,25,29,01,357,,30,10,201,10,0*58
$GLGSV,3,1,10,65,56,314,31,66,01,288,,71,15,096,21,72,62,066,26,0*76
$GLGSV,3,2,10,73,30,037,23,74,53,104,23,75,22,164,17,81,23,325,23,0*70
$GLGSV,3,3,10,87,09,227,25,88,29,270,26,0*74
$GAGSV,2,1,08,04,00,275,,07,21,091,14,11,13,330,,12,32,277,28,0*7A
$GAGSV,2,2,08,19,54,284,25,21,16,160,,27,40,107,23,30,27,048,19,0*7B
$GNGLL,4935.76229,N,01822.28614,E,192455.00,A,A*79
$GNRMC,192456.00,A,4935.76227,N,01822.28616,E,0.076,,170818,,,A,V*13
$GNVTG,,T,,M,0.076,N,0.141,K,A*38
$GNGGA,192456.00,4935.76227,N,01822.28616,E,1,12,0.63,434.5,M,41.1,M,,*47
$GNGSA,A,3,09,23,06,07,03,02,26,30,,,,,1.22,0.63,1.04,1*0F
$GNGSA,A,3,72,65,74,73,88,81,75,71,87,,,,1.22,0.63,1.04,2*00
$GNGSA,A,3,19,27,12,30,07,,,,,,,,1.22,0.63,1.04,3*08
$GPGSV,3,1,11,02,28,309,13,03,27,125,28,06,48,250,29,07,38,188,19,0*6E
$GPGSV,3,2,11,09,85,322,35,16,18,074,10,22,07,127,,23,59,069,34,0*6F
$GPGSV,3,3,11,26,15,045,25,29,01,357,,30,10,201,07,0*5E
$GLGSV,3,1,10,65,56,314,31,66,02,289,,71,15,096,21,72,62,066,26,0*74
$GLGSV,3,2,10,73,30,037,23,74,53,104,23,75,22,164,18,81,23,325,23,0*7F
$GLGSV,3,3,10,87,09,227,26,88,29,270,25,0*74
$GAGSV,2,1,08,04,00,275,,07,21,091,12,11,13,330,,12,32,277,28,0*7C
$GAGSV,2,2,08,19,54,284,25,21,16,160,,27,40,107,23,30,27,048,19,0*7B
$GNGLL,4935.76227,N,01822.28616,E,192456.00,A,A*76
$GNRMC,192457.00,A,4935.76224,N,01822.28619,E,0.108,,170818,,,A,V*16
$GNVTG,,T,,M,0.108,N,0.199,K,A*35
$GNGGA,192457.00,4935.76224,N,01822.28619,E,1,12,0.60,434.3,M,41.1,M,,*4F
$GNGSA,A,3,09,23,06,07,03,02,16,26,,,,,1.14,0.60,0.97,1*06
$GNGSA,A,3,72,65,74,73,88,81,75,71,87,,,,1.14,0.60,0.97,2*0D
$GNGSA,A,3,19,27,12,30,07,,,,,,,,1.14,0.60,0.97,3*,0*64
$GPGSV,3,2,11,09,85,322,36,16,18,074,12,22,07,127,,23,59,069,34,0*6E
$GPGSV,3,3,11,26,15,045,25,29,01,357,,30,10,201,,0*59
$GLGSV,3,1,10,65,56,314,31,66,02,289,,71,15,096,21,72,62,066,26,0*74
$GLGSV,3,2,10,73,30,037,23,74,53,104,24,75,22,164,18,81,23,325,23,0*78
$GLGSV,3,3,10,87,09,227,26,88,29,270,26,0*77
$GAGSV,2,1,08,04,00,275,,07,21,091,10,11,13,330,,12,32,277,28,0*7E
$GAGSV,2,2,08,19,54,284,25,21,16,160,,27,40,107,23,30,27,048,18,0*7A
$GNGLL,4935.76224,N,01822.28619,E,192457.00,A,A*7B
$GNRMC,192458.00,A,4935.76224,N,01822.28622,E,0.161,,170818,,,A,V*1E
$GNVTG,,T,,M,0.161,N,0.299,K,A*39
$GNGGA,192458.00,4935.76224,N,01822.28622,E,1,12,0.60,434.1,M,41.1,M,,*4A
$GNGSA,A,3,09,23,06,07,03,02,16,26,,,,,1.14,0.60,0.97,1*06
$GNGSA,A,3,72,65,74,73,88,81,75,71,87,,,,1.14,0.60,0.97,2*0D
$GNGSA,A,3,19,27,12,30,07,,,,,,,,1.14,0.60,0.97,3*05
$GPGSV,3,1,11,02,28,309,13,03,27,125,28,06,48,250,29,07,38,188,20,0*64
$GPGSV,3,2,11,09,85,322,35,16,18,074,11,22,07,127,,23,59,069,34,0*6E
$GPGSV,3,3,11,26,15,045,26,29,01,357,,30,10,201,,0*5A
$GLGSV,3,1,10,65,56,314,31,66,02,289,,71,15,096,20,72,62,066,27,0*74
$GLGSV,3,2,10,73,30,037,24,74,53,104,24,75,22,164,17,81,23,325,22,0*71
$GLGSV,3,3,10,87,09,227,27,88,29,270,26,0*76
$GAGSV,2,1,08,04,00,275,,07,21,091,14,11,13,330,,12,32,277,28,0*7A
$GAGSV,2,2,08,19,54,284,24,21,16,160,,27,40,107,22,30,27,048,18,0*7A
$GNGLL,4935.76224,N,01822.28622,E,192458.00,A,A*7C
$GNRMC,192459.00,A,4935.76220,N,01822.28622,E,0.049,,170818,,,A,V*10
$GNVTG,,T,,M,0.049,N,0.090,K,A*39
$GNGGA,192459.00,4935.76220,N,01822.28622,E,1,12,0.64,434.1,M,41.1,M,,*4B
$GNGSA,A,3,09,23,06,07,03,02,26,,,,,,1.20,0.64,1.01,1*0C
$GNGSA,A,3,72,65,74,73,88,81,75,71,87,,,,1.20,0.64,1.01,2*00
$GNGSA,A,3,19,27,12,30,07,,,,,,,,1.20,0.64,1.01,3*08
$GPGSV,3,1,11,02,28,309,13,03,27,125,28,06,48,250,28,07,38,188,20,0*65
$GPGSV,3,2,11,09,85,32,127,,23,59,069,34,0*67
$GPGSV,3,3,11,26,15,045,26,29,01,357,,30,10,201,,0*5A
$GLGSV,3,1,10,65,56,314,31,66,02,289,,71,15,096,20,72,62,066,27,0*74
$GLGSV,3,2,10,73,30,037,24,74,53,104,24,75,22,164,15,81,23,325,20,0*71
$GLGSV,3,3,10,87,09,227,27,88,29,270,26,0*76
$GAGSV,2,1,08,04,00,275,,07,21,091,10,11,13,330,,12,32,277,28,0*7E
$GAGSV,2,2,08,19,54,284,24,21,16,160,,27,40,107,21,30,27,048,19,0*78
$GNGLL,4935.76220,N,01822.28622,E,192459.00,A,A*79
$GNRMC,192500.00,A,4935.76213,N,01822.28622,E,0.091,,170818,,,A,V*18
$GNVTG,,T,,M,0.091,N,0.169,K,A*3B
$GNGGA,192500.00,4935.76213,N,01822.28622,E,1,12,0.61,434.2,M,41.1,M,,*40
$GNGSA,A,3,09,23,06,07,03,02,26,,,,,,1.18,0.61,1.00,1*03
$GNGSA,A,3,72,65,74,73,88,81,75,71,87,,,,1.18,0.61,1.00,2*0F
$GNGSA,A,3,19,27,12,30,07,,,,,,,,1.18,0.61,1.00,3*07
$GPGSV,3,1,11,02,28,309,13,03,27,125,29,06,48,250,29,07,38,188,20,0*65
$GPGSV,3,2,11,09,85,322,35,16,18,074,09,22,07,127,,23,59,069,34,0*67
$GPGSV,3,3,11,26,15,045,26,29,01,357,,30,10,201,,0*5A
$GLGSV,3,1,10,65,56,314,31,66,02,289,,71,15,096,20,72,62,066,27,0*74
$GLGSV,3,2,10,73,30,037,24,74,53,104,24,75,22,164,14,81,23,325,20,0*70
$GLGSV,3,3,10,87,09,227,28,88,29,270,25,0*7A
$GAGSV,2,1,08,04,00,275,,07,21,091,10,11,13,330,,12,32,277,28,0*7E
$GAGSV,2,2,08,19,54,284,25,21,16,160,,27,40,107,21,30,27,048,19,0*79
$GNGLL,4935.76213,N,01822.28622,E,192500.00,A,A*74
$GNRMC,192501.00,A,4935.76212,N,01822.28624,E,0.056,,170818,,,A,V*15
$GNVTG,,T,,M,0.056,N,0.104,K,A*3B
$GNGGA,192501.00,4935.76212,N,01822.28624,E,1,12,0.65,434.2,M,41.1,M,,*42
$GNGSA,A,3,09,23,06,07,03,02,26,,,,,,1.23,0.65,1.04,1*0B
$GNGSA,A,3,72,65,74,73,88,81,75,71,87,,,,1.23,0.65,1.04,2*07
$GNGSA,A,3,19,27,12,30,,,,,,,,,1.23,0.65,1.04,3*08
$GPGSV,3,1,11,02,28,309,13,03,27,125,29,06,48,250,29,07,38,188,20,0*65
$GPGSV,3,2,11,09,85,322,35,16,18,074,08,22,07,127,,23,596,15,045,26,29,01,357,,30,10,201,,0*5A
$GLGSV,3,1,10,65,56,314,31,66,02,289,,71,15,097,20,72,62,066,27,0*75
$GLGSV,3,2,10,73,30,037,24,74,53,104,24,75,22,164,15,81,23,325,19,0*7B
$GLGSV,3,3,10,87,09,227,28,88,29,270,25,0*7A
$GAGSV,2,1,08,04,00,275,,07,21,091,06,11,13,330,,12,32,277,28,0*79
$GAGSV,2,2,08,19,54,284,24,21,16,160,,27,40,107,21,30,27,048,18,0*79
$GNGLL,4935.76212,N,01822.28624,E,192501.00,A,A*72
$GNRMC,192502.00,A,4935.76211,N,01822.28626,E,0.085,,170818,,,A,V*19
$GNVTG,,T,,M,0.085,N,0.157,K,A*33
$GNGGA,192502.00,4935.76211,N,01822.28626,E,1,12,0.66,434.4,M,41.1,M,,*45
$GNGSA,A,3,09,23,06,07,03,02,16,26,,,,,1.20,0.66,1.01,1*09
$GNGSA,A,3,72,65,74,73,88,81,75,71,87,,,,1.20,0.66,1.01,2*02
$GNGSA,A,3,19,27,12,30,07,,,,,,,,1.20,0.66,1.01,3*0A
$GPGSV,3,1,11,02,28,309,14,03,27,125,29,06,48,250,29,07,38,188,21,0*63
$GPGSV,3,2,11,09,85,322,35,16,18,074,08,22,07,127,,23,59,069,34,0*66
$GPGSV,3,3,11,26,15,045,26,29,01,357,,30,10,201,,0*5A
$GLGSV,3,1,10,65,56,314,31,66,02,289,,71,15,097,19,72,61,067,27,0*7D
$GLGSV,3,2,10,73,30,037,23,74,53,104,23,75,22,164,15,81,23,325,19,0*7B
$GLGSV,3,3,10,87,09,227,28,88,29,270,25,0*7A
$GAGSV,2,1,08,04,00,275,,07,21,091,10,11,13,330,,12,32,277,28,0*7E
$GAGSV,2,2,08,19,54,284,23,21,16,160,,27,40,107,22,30,27,048,18,0*7D
$GNGLL,4935.76211,N,01822.28626,E,192502.00,A,A*70
$GNRMC,192502.20,A,4935.76213,N,01822.28630,E,0.253,,170818,,,A,V*14
$GNVTG,,T,,M,0.253,N,0.469,K,A*32
$GNGGA,192502.20,4935.76213,N,01822.28630,E,1,12,0.63,434.4,M,41.1,M,,*44
$GNGSA,A,3,09,23,06,07,03,02,26,,,,,,1.19,0.63,1.01,1*01
$GNGSA,A,3,72,65,74,73,88,81,75,71,87,,,,1.19,0.63,1.01,2*0D
$GNGSA,A,3,19,27,12,30,07,,,,,,,,1.19,0.63,1.01,3*05
$GPGSV,3,1,11,02,28,309,14,03,27,125,28,06,48,250,29,07,38,188,22,0*61
$GPGSV,3,2,11,09,85,322,35,16,18,074,10,22,07,127,,23,59,069,34,0*6F
$GPGSV,3,3,11,26,15,045,25,29,01,357,,30,10,201,02,289,,71,15,097,18,72,61,067,27,0*7C
$GLGSV,3,2,10,73,29,037,23,74,53,104,23,75,22,164,14,81,23,325,18,0*73
$GLGSV,3,3,10,87,09,227,27,88,29,270,25,0*75
$GAGSV,2,1,08,04,00,275,,07,21,091,13,11,13,330,,12,32,277,28,0*7D
$GAGSV,2,2,08,19,54,284,23,21,16,160,,27,40,107,22,30,27,048,19,0*7C
$GNGLL,4935.76213,N,01822.28630,E,192502.20,A,A*74
$GNRMC,192504.00,A,4935.76214,N,01822.28636,E,0.177,,170818,,,A,V*17
$GNVTG,,T,,M,0.177,N,0.329,K,A*34
$GNGGA,192504.00,4935.76214,N,01822.28636,E,1,12,0.61,434.4,M,41.1,M,,*40
$GNGSA,A,3,09,23,06,07,03,02,16,26,,,,,1.15,0.61,0.98,1*09
$GNGSA,A,3,72,65,74,73,88,81,75,71,87,,,,1.15,0.61,0.98,2*02
$GNGSA,A,3,19,27,12,30,07,,,,,,,,1.15,0.61,0.98,3*0A
$GPGSV,3,1,11,02,28,309,14,03,27,125,28,06,48,250,29,07,38,188,22,0*61
$GPGSV,3,2,11,09,85,322,34,16,18,074,11,22,07,127,,23,59,069,34,0*6F
$GPGSV,3,3,11,26,15,045,25,29,01,357,,30,10,201,,0*59
$GLGSV,3,1,10,65,56,314,32,66,02,289,,71,15,097,18,72,61,067,27,0*7F
$GLGSV,3,2,10,73,29,037,22,74,53,102,23,75,22,164,13,81,23,325,17,0*7C
$GLGSV,3,3,10,87,09,227,27,88,29,270,25,0*75
$GAGSV,2,1,08,04,00,275,,07,21,091,09,11,13,330,,12,32,277,28,0*76
$GAGSV,2,2,08,19,54,284,22,21,16,160,,27,40,107,22,30,27,048,19,0*7D
$GNGLL,4935.76214,N,01822.28636,E,192504.00,A,A*72
$GNRMC,192505.00,A,4935.76212,N,01822.28644,E,0.162,,170818,,,A,V*11
$GNVTG,,T,,M,0.162,N,0.300,K,A*3B
$GNGGA,192505.00,4935.76212,N,01822.28644,E,1,12,0.68,434.4,M,41.1,M,,*4B
$GNGSA,A,3,09,23,06,07,03,16,26,,,,,,1.25,0.68,1.06,1*07
$GNGSA,A,3,72,65,74,73,88,81,75,71,87,,,,1.25,0.68,1.06,2*0E
$GNGSA,A,3,19,27,12,30,07,,,,,,,,1.25,0.68,1.06,3*06
$GPGSV,3,1,11,02,28,309,,03,27,125,27,06,48,250,28,07,38,188,22,0*6A
$GPGSV,3,2,11,09,85,322,34,16,18,074,12,22,07,127,,23,59,069,34,0*6C
$GPGSV,3,3,11,26,15,045,25,29,01,357,,30,10,201,,0*59
$GLGSV,3,1,10,65,56,314,32,66,02,289,,71,15,097,19,72,61,067,21,74,53,102,22,75,22,164,13,81,23,325,15,0*7C
$GLGSV,3,3,10,87,09,227,27,88,29,270,25,0*75
$GAGSV,2,1,08,04,00,275,,07,21,091,08,11,13,330,,12,32,277,28,0*77
$GAGSV,2,2,08,19,54,284,22,21,16,160,,27,40,107,22,30,27,048,20,0*77
$GNGLL,4935.76212,N,01822.28644,E,192505.00,A,A*70
$GNRMC,192506.00,A,4935.76209,N,01822.28653,E,0.083,,170818,,,A,V*10
$GNVTG,,T,,M,0.083,N,0.154,K,A*36
$GNGGA,192506.00,4935.76209,N,01822.28653,E,1,12,0.64,434.4,M,41.1,M,,*48
$GNGSA,A,3,09,23,06,07,03,16,26,,,,,,1.18,0.64,0.99,1*02
$GNGSA,A,3,72,65,74,73,88,81,75,71,87,,,,1.18,0.64,0.99,2*0B
$GNGSA,A,3,19,27,12,30,07,,,,,,,,1.18,0.64,0.99,3*03
$GPGSV,3,1,11,02,28,309,17,03,27,125,27,06,48,250,28,07,38,188,23,0*6D
$GPGSV,3,2,11,09,85,322,35,16,18,074,12,22,07,127,,23,59,069,34,0*6D
$GPGSV,3,3,11,26,15,045,26,29,01,357,,30,10,201,,0*5A
$GLGSV,3,1,10,65,56,314,32,66,02,289,,71,15,097,18,72,61,067,27,0*7F
$GLGSV,3,2,10,73,29,037,20,74,53,102,22,75,22,164,14,81,23,325,12,0*7D
$GLGSV,3,3,10,87,09,227,27,88,29,270,26,0*76
$GAGSV,2,1,08,04,00,275,,07,21,091,09,11,13,330,,12,32,277,28,0*76
$GAGSV,2,2,08,19,54,284,22,21,16,160,,27,40,107,22,30,27,048,19,0*7D
$GNGLL,4935.76209,N,01822.28653,E,192506.00,A,A*7F
$GNRMC,192507.00,A,4935.76198,N,01822.28655,E,0.093,,170818,,,A,V*1D
$GNVTG,,T,,M,0.093,N,0.172,K,A*33
$GNGGA,192507.00,4935.76198,N,01822.28655,E,1,12,0.63,434.5,M,41.1,M,,*42
$GNGSA,A,3,09,23,06,07,03,16,26,,,,,,1.16,0.63,0.98,1*0A
$GNGSA,A,3,72,65,74,73,88,81,75,71,87,,,,1.16,0.63,0.98,2*03
$GNGSA,A,3,19,27,12,30,07,,,,,,,,1.16,0.63,0.98,3*0B
$GPGSV,3,1,11,02,28,309,15,03,27,125,27,06,48,250,28,07,38,188,24,0*68
$GPGSV,3,2,11,09,85,322,35,16,18,074,12,22,07,127,,23,59,069,34,0*6D
$GPGSV,3,3,11,26,15,045,26,29,01,357,,30,10,201,,0*5A
$GLGSV,3,1,10,65,56,314,371
$GLGSV,3,2,10,73,29,037,21,74,53,102,22,75,22,164,16,81,23,325,11,0*7D
$GLGSV,3,3,10,87,09,227,26,88,29,270,27,0*76
$GAGSV,2,1,08,04,00,275,,07,21,091,14,11,13,330,,12,32,277,28,0*7A
$GAGSV,2,2,08,19,54,284,22,21,16,160,,27,40,107,22,30,27,048,19,0*7D
$GNGLL,4935.76198,N,01822.28655,E,192507.00,A,A*73
$GNRMC,192508.00,A,4935.76194,N,01822.28660,E,0.193,,170818,,,A,V*19
$GNVTG,,T,,M,0.193,N,0.357,K,A*37
$GNGGA,192508.00,4935.76194,N,01822.28660,E,1,12,0.64,434.4,M,41.1,M,,*41
$GNGSA,A,3,09,23,06,07,03,16,26,,,,,,1.20,0.64,1.01,1*09
$GNGSA,A,3,72,65,74,73,88,81,75,71,87,,,,1.20,0.64,1.01,2*00
$GNGSA,A,3,19,27,12,30,07,,,,,,,,1.20,0.64,1.01,3*08
$GPGSV,3,1,11,02,28,309,15,03,27,125,27,06,48,250,28,07,38,188,24,0*68
$GPGSV,3,2,11,09,85,322,35,16,18,074,09,22,07,127,,23,59,069,34,0*67
$GPGSV,3,3,11,26,15,045,26,29,01,357,,30,10,201,,0*5A
$GLGSV,3,1,10,65,56,314,33,66,02,289,,71,15,097,16,72,61,067,27,0*70
$GLGSV,3,2,10,73,29,037,21,74,53,102,22,75,22,164,17,81,23,325,08,0*74
$GLGSV,3,3,10,87,09,227,26,88,29,270,28,0*79
$GAGSV,2,1,08,04,00,275,,07,21,091,12,11,13,330,,12,32,277,28,0*7C
$GAGSV,2,2,08,19,54,284,22,21,16,160,,27,40,107,23,30,27,048,19,0*7C
$GNGLL,4935.76194,N,01822.28660,E,192508.00,A,A*76
$GNRMC,192509.00,A,4935.76185,N,01822.28663,E,0.108,,170818,,,A,V*19
$GNVTG,,T,,M,0.108,N,0.199,K,A*35
$GNGGA,192509.00,4935.76185,N,01822.28663,E,1,12,0.69,434.2,M,41.1,M,,*48
$GNGSA,A,3,09,23,06,07,03,16,26,,,,,,1.23,0.69,1.02,1*04
$GNGSA,A,3,72,65,74,73,88,75,71,87,,,,,1.23,0.69,1.02,2*04
$GNGSA,A,3,19,27,12,30,07,,,,,,,,1.23,0.69,1.02,3*05
$GPGSV,3,1,11,02,28,309,14,03,27,125,28,06,48,250,28,07,38,188,23,0*61
$GPGSV,3,2,11,09,85,322,35,16,18,074,09,22,07,127,,23,59,069,34,0*67
$GPGSV,3,3,11,26,15,045,25,29,01,357,,30,10,201,,0*59
$GLGSV,3,1,10,65,56,314,32,66,02,289,,71,15,097,16,72,61,067,27,0*71
$GLGSV,3,2,10,73,29,075,22,164,19,81,23,325,08,0*79
$GLGSV,3,3,10,87,09,227,25,88,29,270,28,0*7A
$GAGSV,2,1,08,04,00,275,,07,21,091,12,11,13,330,,12,32,277,28,0*7C
$GAGSV,2,2,08,19,54,284,22,21,16,160,,27,40,107,23,30,27,048,20,0*76
$GNGLL,4935.76185,N,01822.28663,E,192509.00,A,A*74
$GNRMC,192510.00,A,4935.76181,N,01822.28667,E,0.284,,170818,,,A,V*16
$GNVTG,,T,,M,0.284,N,0.527,K,A*33
$GNGGA,192510.00,4935.76181,N,01822.28667,E,1,12,0.69,434.1,M,41.1,M,,*43
$GNGSA,A,3,09,23,06,07,03,16,26,,,,,,1.23,0.69,1.02,1*04
$GNGSA,A,3,72,65,74,73,88,75,71,87,,,,,1.23,0.69,1.02,2*04
$GNGSA,A,3,19,27,12,30,07,,,,,,,,1.23,0.69,1.02,3*05
$GPGSV,3,1,11,02,28,309,14,03,27,125,28,06,48,250,29,07,38,188,22,0*61
$GPGSV,3,2,11,09,85,322,35,16,18,074,09,22,07,127,,23,59,069,34,0*67
$GPGSV,3,3,11,26,15,045,25,29,01,357,,30,10,201,,0*59
$GLGSV,3,1,10,65,56,314,33,66,02,289,,71,15,097,15,72,61,067,27,0*73
$GLGSV,3,2,10,73,29,037,22,74,53,102,22,75,22,164,18,81,23,325,08,0*78
$GLGSV,3,3,10,87,09,227,24,88,29,270,28,0*7B
$GAGSV,2,1,08,04,00,275,,07,21,091,12,11,13,330,,12,32,277,28,0*7C
$GAGSV,2,2,08,19,54,284,21,21,16,160,,27,40,107,23,30,27,048,20,0*75
$GNGLL,4935.76181,N,01822.28667,E,192510.00,A,A*7C
$GNRMC,192511.00,A,4935.76177,N,01822.28669,E,0.230,,170818,,,A,V*1F
$GNVTG,,T,,M,0.230,N,0.426,K,A*3C
$GNGGA,192511.00,4935.76177,N,01822.28669,E,1,12,0.70,433.9,M,41.1,M,,*42
$GNGSA,A,3,09,23,06,07,03,02,26,,,,,,1.27,0.70,1.06,1*09
$GNGSA,A,3,72,65,74,73,88,81,75,71,87,,,,1.27,0.70,1.06,2*05
$GNGSA,A,3,19,27,12,30,07,,,,,,,,1.27,0.70,1.06,3*0D
$GPGSV,3,1,11,02,28,309,14,03,27,125,29,06,48,250,28,07,38,188,23,0*60
$GPGSV,3,2,11,09,85,322,35,16,18,074,09,22,07,127,,23,59,069,34,0*67
$GPGSV,3,3,11,26,15,045,25,29,01,357,,30,10,201,,0*59
$GLGSV,3,1,10,65,56,314,33,66,02,289,,71,15,097,15,72,61,067,27,0*73
$GLGSV,3,2,10,73,29,037,23,74,53,102,22,75,22,164,1LGSV,3,3,10,87,09,227,23,88,29,270,29,0*7D
$GAGSV,2,1,08,04,00,275,,07,21,091,10,11,13,330,,12,32,277,28,0*7E
$GAGSV,2,2,08,19,54,284,21,21,16,160,,27,40,107,24,30,27,048,20,0*72
$GNGLL,4935.76177,N,01822.28669,E,192511.00,A,A*7A
$GNRMC,192512.00,A,4935.76178,N,01822.28672,E,0.274,,170818,,,A,V*19
$GNVTG,,T,,M,0.274,N,0.508,K,A*31
$GNGGA,192512.00,4935.76178,N,01822.28672,E,1,12,0.64,433.8,M,41.1,M,,*40
$GNGSA,A,3,09,23,06,07,03,02,26,,,,,,1.20,0.64,1.01,1*0C
$GNGSA,A,3,72,65,74,73,88,81,75,71,87,,,,1.20,0.64,1.01,2*00
$GNGSA,A,3,19,27,12,30,07,,,,,,,,1.20,0.64,1.01,3*08
$GPGSV,3,1,11,02,28,309,12,03,27,125,29,06,48,250,28,07,38,188,23,0*66
$GPGSV,3,2,11,09,85,322,35,16,18,074,09,22,07,127,,23,59,069,35,0*66
$GPGSV,3,3,11,26,15,045,25,29,01,357,,30,10,201,,0*59
$GLGSV,3,1,10,65,56,314,32,66,02,289,,71,15,097,13,72,61,067,27,0*74
$GLGSV,3,2,10,73,29,037,23,74,53,102,23,75,22,164,20,81,23,324,09,0*73
$GLGSV,3,3,10,87,09,227,22,88,29,270,29,0*7C
$GAGSV,2,1,08,04,00,275,,07,21,091,10,11,13,330,,12,32,277,28,0*7E
$GAGSV,2,2,08,19,54,284,20,21,16,160,,27,40,107,24,30,27,048,20,0*73
$GNGLL,4935.76178,N,01822.28672,E,192512.00,A,A*7C
$GNRMC,192512.20,A,4935.76174,N,01822.28674,E,0.043,,170818,,,A,V*14
$GNVTG,,T,,M,0.043,N,0.080,K,A*32
$GNGGA,192512.20,4935.76174,N,01822.28674,E,1,12,0.64,433.8,M,41.1,M,,*4B
$GNGSA,A,3,09,23,06,07,03,02,26,,,,,,1.20,0.64,1.01,1*0C
$GNGSA,A,3,72,65,74,73,88,81,75,71,87,,,,1.20,0.64,1.01,2*00
$GNGSA,A,3,19,27,12,30,07,,,,,,,,1.20,0.64,1.01,3*08
$GPGSV,3,1,11,02,28,309,15,03,27,125,29,06,48,250,28,07,38,188,23,0*61
$GPGSV,3,2,11,09,85,322,35,16,18,074,09,22,07,127,,23,59,069,35,0*66
$GPGSV,3,3,11,26,15,045,24,29,01,357,,30,10,201,,0*58
$GLGSV,3,1,10,65,56,314,32,66,02,289,,71,15,097,12,72,61,067,27,0*75
$GLGSV,3,2,10,73,29,037,23,74,53,102,23,75,22,164,22,81,23,324,14,0*7D
$GLGSV,3,3,10,87,09,227,21,88,29,270,29,0*7275,,07,21,091,14,11,13,330,,12,32,277,28,0*7A
$GAGSV,2,2,08,19,54,284,21,21,16,160,,27,40,107,25,30,27,048,20,0*73
$GNGLL,4935.76174,N,01822.28674,E,192512.20,A,A*77
$GNRMC,192514.00,A,4935.76168,N,01822.28674,E,0.029,,170818,,,A,V*12
$GNVTG,,T,,M,0.029,N,0.054,K,A*37
$GNGGA,192514.00,4935.76168,N,01822.28674,E,1,12,0.64,434.0,M,41.1,M,,*4E
$GNGSA,A,3,09,23,06,07,03,02,16,26,,,,,1.20,0.64,1.01,1*0B
$GNGSA,A,3,72,65,74,73,88,81,75,71,87,,,,1.20,0.64,1.01,2*00
$GNGSA,A,3,19,27,12,30,07,,,,,,,,1.20,0.64,1.01,3*08
$GPGSV,3,1,11,02,28,309,16,03,27,125,30,06,48,250,28,07,38,188,23,0*6A
$GPGSV,3,2,11,09,85,322,35,16,18,074,10,22,07,127,,23,59,069,35,0*6E
$GPGSV,3,3,11,26,15,045,24,29,01,357,,30,10,201,,0*58
$GLGSV,3,1,10,65,56,314,31,66,02,289,,71,15,097,10,72,61,067,27,0*74
$GLGSV,3,2,10,73,29,037,23,74,53,102,24,75,22,164,23,81,23,324,14,0*7B
$GLGSV,3,3,10,87,09,227,20,88,29,270,29,0*7E
$GAGSV,2,1,08,04,00,275,,07,21,091,14,11,13,330,,12,32,277,28,0*7A
$GAGSV,2,2,08,19,54,284,21,21,16,160,,27,40,107,25,30,27,048,20,0*73
$GNGLL,4935.76168,N,01822.28674,E,192514.00,A,A*7D
$GNRMC,192515.00,A,4935.76168,N,01822.28672,E,0.049,,170818,,,A,V*13
$GNVTG,,T,,M,0.049,N,0.091,K,A*38
$GNGGA,192515.00,4935.76168,N,01822.28672,E,1,12,0.63,434.0,M,41.1,M,,*4E
$GNGSA,A,3,09,23,06,07,03,02,16,26,,,,,1.16,0.63,0.98,1*08
$GNGSA,A,3,72,65,74,73,88,81,75,87,,,,,1.16,0.63,0.98,2*05
$GNGSA,A,3,19,27,12,30,07,,,,,,,,1.16,0.63,0.98,3*0B
$GPGSV,3,1,11,02,28,309,16,03,27,125,30,06,48,250,28,07,38,188,23,0*6A
$GPGSV,3,2,11,09,85,322,34,16,18,074,10,22,07,127,,23,59,069,35,0*6F
$GPGSV,3,3,11,26,15,045,24,29,01,357,,30,10,201,,0*58
$GLGSV,3,1,10,65,56,314,31,66,02,289,,71,15,097,09,72,61,067,27,0*7C
$GLGSV,3,2,10,73,29,23,324,14,0*7A
$GLGSV,3,3,10,87,09,227,19,88,29,270,29,0*74
$GAGSV,2,1,08,04,00,275,,07,21,091,10,11,13,330,,12,32,277,28,0*7E
$GAGSV,2,2,08,19,54,284,22,21,16,160,,27,40,107,25,30,27,048,19,0*7A
$GNGLL,4935.76168,N,01822.28672,E,192515.00,A,A*7A
$GNRMC,192516.00,A,4935.76172,N,01822.28667,E,0.163,,170818,,,A,V*16
$GNVTG,,T,,M,0.163,N,0.302,K,A*38
$GNGGA,192516.00,4935.76172,N,01822.28667,E,1,12,0.63,434.1,M,41.1,M,,*43
$GNGSA,A,3,09,23,06,07,03,02,16,26,,,,,1.16,0.63,0.98,1*08
$GNGSA,A,3,72,65,74,73,88,81,75,87,,,,,1.16,0.63,0.98,2*05
$GNGSA,A,3,19,27,12,30,07,,,,,,,,1.16,0.63,0.98,3*0B
$GPGSV,3,1,11,02,28,309,17,03,27,125,30,06,48,250,28,07,38,188,23,0*6B
$GPGSV,3,2,11,09,85,322,34,16,18,074,10,22,07,127,,23,59,069,35,0*6F
$GPGSV,3,3,11,26,15,045,25,29,01,357,,30,10,201,,0*59
$GLGSV,3,1,10,65,56,314,31,66,02,289,,71,15,097,08,72,61,067,27,0*7D
$GLGSV,3,2,10,73,29,037,22,74,53,102,26,75,22,164,23,81,23,324,14,0*78
$GLGSV,3,3,10,87,09,227,18,88,29,270,29,0*75
$GAGSV,2,1,08,04,00,275,,07,21,091,14,11,13,330,,12,32,277,29,0*7B
$GAGSV,2,2,08,19,54,284,21,21,16,160,,27,40,107,26,30,27,048,19,0*7A
$GNGLL,4935.76172,N,01822.28667,E,192516.00,A,A*76
$GNRMC,192517.00,A,4935.76171,N,01822.28664,E,0.107,,170818,,,A,V*15
$GNVTG,,T,,M,0.107,N,0.198,K,A*3B
$GNGGA,192517.00,4935.76171,N,01822.28664,E,1,12,0.64,434.1,M,41.1,M,,*45
$GNGSA,A,3,09,23,06,07,03,02,26,,,,,,1.20,0.64,1.01,1*0C
$GNGSA,A,3,72,65,74,73,88,81,75,71,87,,,,1.20,0.64,1.01,2*00
$GNGSA,A,3,19,27,12,30,07,,,,,,,,1.20,0.64,1.01,3*08
$GPGSV,3,1,11,02,28,309,18,03,27,125,29,06,48,250,28,07,38,188,23,0*6C
$GPGSV,3,2,11,09,85,322,34,16,18,074,10,22,07,127,,23,59,069,35,0*6F
$GPGSV,3,3,11,26,15,045,24,29,01,357,,30,10,201,,0*58
$GLGSV,3,1,10,65,56,314,31,66,02,289,,71,15,097,10,72,61,067,27,0*74
$GLGSV,3,2,10,73,29,037,22,74,53,102,26,75,22,164,24,81,23,324,13,0*78
$GLGSV,3,3,10,87,08,227,16,88,29,270,30,0*72
$GAGSV,2,1,08,04,00,275,,07,2,32,277,29,0*7D
$GAGSV,2,2,08,19,54,284,22,21,16,160,,27,40,107,25,30,27,048,20,0*70
$GNGLL,4935.76171,N,01822.28664,E,192517.00,A,A*77
$GNRMC,192518.00,A,4935.76163,N,01822.28659,E,0.318,,170818,,,A,V*1B
$GNVTG,,T,,M,0.318,N,0.588,K,A*32
$GNGGA,192518.00,4935.76163,N,01822.28659,E,1,12,0.64,434.2,M,41.1,M,,*44
$GNGSA,A,3,09,23,06,07,03,02,26,,,,,,1.20,0.64,1.01,1*0C
$GNGSA,A,3,72,65,74,73,88,81,75,71,87,,,,1.20,0.64,1.01,2*00
$GNGSA,A,3,19,27,12,30,07,,,,,,,,1.20,0.64,1.01,3*08
$GPGSV,3,1,11,02,28,309,19,03,27,125,29,06,48,250,28,07,38,188,24,0*6A
$GPGSV,3,2,11,09,85,322,34,16,18,074,10,22,07,127,,23,59,069,35,0*6F
$GPGSV,3,3,11,26,15,045,24,29,01,357,,30,10,201,,0*58
$GLGSV,3,1,10,65,56,314,31,66,02,289,,71,15,097,14,72,61,067,27,0*70
$GLGSV,3,2,10,73,29,037,22,74,53,102,27,75,22,164,25,81,23,324,13,0*78
$GLGSV,3,3,10,87,08,227,15,88,28,270,30,0*70
$GAGSV,2,1,08,04,00,275,,07,21,091,13,11,13,330,,12,32,277,29,0*7C
$GAGSV,2,2,08,19,54,284,22,21,16,160,,27,40,107,26,30,27,048,20,0*73
$GNGLL,4935.76163,N,01822.28659,E,192518.00,A,A*75
$GNRMC,192519.00,A,4935.76157,N,01822.28655,E,0.201,,170818,,,A,V*18
$GNVTG,,T,,M,0.201,N,0.372,K,A*38
$GNGGA,192519.00,4935.76157,N,01822.28655,E,1,12,0.64,434.2,M,41.1,M,,*4E
$GNGSA,A,3,09,23,06,07,03,02,26,,,,,,1.20,0.64,1.01,1*0C
$GNGSA,A,3,72,65,74,73,88,81,75,71,87,,,,1.20,0.64,1.01,2*00
$GNGSA,A,3,19,27,12,30,07,,,,,,,,1.20,0.64,1.01,3*08
$GPGSV,3,1,11,02,28,309,20,03,27,125,29,06,48,250,28,07,38,188,25,0*61
$GPGSV,3,2,11,09,85,322,33,16,18,074,10,22,07,127,,23,59,069,35,0*68
$GPGSV,3,3,11,26,15,045,24,29,01,357,,30,10,201,,0*58
$GLGSV,3,1,10,65,56,314,31,66,02,289,,71,15,097,17,72,61,067,26,0*72
$GLGSV,3,2,10,73,29,037,21,74,53,102,27,75,22,164,25,81,23,324,18,0*70
$GLGSV,3,3,10,87,08,227,13,88,28,270,31,0*77
$GAGSV,2,1,08,04,00,275,,07,27A
$GAGSV,2,2,08,19,54,284,22,21,16,160,,27,40,107,25,30,27,048,20,0*70
$GNGLL,4935.76157,N,01822.28655,E,192519.00,A,A*7F
$GNRMC,192520.00,A,4935.76156,N,01822.28652,E,0.028,,170818,,,A,V*1D
$GNVTG,,T,,M,0.028,N,0.053,K,A*31
$GNGGA,192520.00,4935.76156,N,01822.28652,E,1,12,0.64,434.3,M,41.1,M,,*43
$GNGSA,A,3,09,23,06,07,03,02,26,,,,,,1.20,0.64,1.01,1*0C
$GNGSA,A,3,72,65,74,73,88,81,75,71,87,,,,1.20,0.64,1.01,2*00
$GNGSA,A,3,19,27,12,30,07,,,,,,,,1.20,0.64,1.01,3*08
$GPGSV,3,1,11,02,28,308,20,03,27,125,29,06,48,250,27,07,38,188,25,0*6F
$GPGSV,3,2,11,09,85,322,33,16,18,074,,22,07,127,,23,59,069,35,0*69
$GPGSV,3,3,11,26,15,045,23,29,01,357,,30,10,201,,0*5F
$GLGSV,3,1,10,65,56,314,30,66,02,289,,71,15,097,19,72,61,067,26,0*7D
$GLGSV,3,2,10,73,29,037,20,74,53,102,27,75,22,164,25,81,23,324,18,0*71
$GLGSV,3,3,10,87,08,227,09,88,28,270,30,0*7D
$GAGSV,2,1,08,04,00,275,,07,21,091,11,11,13,330,,12,32,277,29,0*7E
$GAGSV,2,2,08,19,54,284,22,21,16,160,,27,40,107,25,30,27,048,20,0*70
$GNGLL,4935.76156,N,01822.28652,E,192520.00,A,A*73
$GNRMC,192521.00,A,4935.76155,N,01822.28646,E,0.167,,170818,,,A,V*10
$GNVTG,,T,,M,0.167,N,0.309,K,A*37
$GNGGA,192521.00,4935.76155,N,01822.28646,E,1,12,0.68,434.4,M,41.1,M,,*4F
$GNGSA,A,3,09,23,06,07,03,02,26,,,,,,1.33,0.68,1.15,1*07
$GNGSA,A,3,72,65,74,73,88,81,75,71,,,,,1.33,0.68,1.15,2*04
$GNGSA,A,3,19,27,12,30,07,,,,,,,,1.33,0.68,1.15,3*03
$GPGSV,3,1,11,02,28,308,20,03,27,125,29,06,48,250,26,07,38,188,25,0*6E
$GPGSV,3,2,11,09,85,322,33,16,18,074,,22,07,127,,23,59,069,35,0*69
$GPGSV,3,3,11,26,15,045,23,29,01,357,,30,10,201,,0*5F
$GLGSV,3,1,10,65,56,314,29,66,02,289,,71,15,097,18,72,61,067,25,0*77
$GLGSV,3,2,10,73,29,037,20,74,53,102,27,75,22,164,26,81,23,324,18,0*72
$GLGSV,3,3,10,87,08,227,07,88,28,270,31,0*72
$GAGSV,2,1,08,04,00,275,,07,21,09,25,30,27,048,20,0*71
$GNGLL,4935.76155,N,01822.28646,E,192521.00,A,A*74
$GNRMC,192522.00,A,4935.76153,N,01822.28642,E,0.156,,170818,,,A,V*13
$GNVTG,,T,,M,0.156,N,0.289,K,A*3C
$GNGGA,192522.00,4935.76153,N,01822.28642,E,1,12,0.68,434.5,M,41.1,M,,*4F
$GNGSA,A,3,09,23,06,07,03,02,26,,,,,,1.33,0.68,1.15,1*07
$GNGSA,A,3,72,65,74,73,88,81,75,71,,,,,1.33,0.68,1.15,2*04
$GNGSA,A,3,19,27,12,30,07,,,,,,,,1.33,0.68,1.15,3*03
$GPGSV,3,1,11,02,28,308,20,03,27,125,29,06,48,250,26,07,38,188,24,0*6F
$GPGSV,3,2,11,09,85,322,33,16,18,074,,22,07,127,,23,59,069,35,0*69
$GPGSV,3,3,11,26,15,045,23,29,01,357,,30,10,201,,0*5F
$GLGSV,3,1,10,65,56,314,29,66,02,289,,71,15,097,17,72,61,067,25,0*78
$GLGSV,3,2,10,73,29,037,20,74,53,102,27,75,22,164,25,81,23,324,18,0*71
$GLGSV,3,3,10,87,08,227,07,88,28,270,31,0*72
$GAGSV,2,1,08,04,00,275,,07,21,091,13,11,13,330,,12,32,277,29,0*7C
$GAGSV,2,2,08,19,54,284,22,21,16,160,,27,40,107,25,30,27,048,19,0*7A
$GNGLL,4935.76153,N,01822.28642,E,192522.00,A,A*75
$GNRMC,192522.20,A,4935.76159,N,01822.28635,E,0.028,,170818,,,A,V*10
$GNVTG,,T,,M,0.028,N,0.052,K,A*30
$GNGGA,192522.20,4935.76159,N,01822.28635,E,1,12,0.64,434.5,M,41.1,M,,*48
$GNGSA,A,3,09,23,06,07,03,02,26,,,,,,1.20,0.64,1.01,1*0C
$GNGSA,A,3,72,65,74,73,88,81,75,71,87,,,,1.20,0.64,1.01,2*00
$GNGSA,A,3,19,27,12,30,07,,,,,,,,1.20,0.64,1.01,3*08
$GPGSV,3,1,11,02,28,308,20,03,27,125,28,06,48,249,26,07,38,188,23,0*61
$GPGSV,3,2,11,09,85,322,33,16,18,074,,22,07,127,,23,59,069,35,0*69
$GPGSV,3,3,11,26,15,045,23,29,01,357,,30,10,201,,0*5F
$GLGSV,3,1,10,65,56,314,30,66,02,289,,71,15,097,15,72,61,067,25,0*72
$GLGSV,3,2,10,73,29,037,20,74,53,102,26,75,22,164,26,81,23,324,16,0*7D
$GLGSV,3,3,10,87,08,227,15,88,28,270,31,0*71
$GAGSV,2,1,08,04,00,275,,07,21,0*7D
$GAGSV,2,2,08,19,54,284,22,21,16,160,,27,40,107,25,30,27,048,18,0*7B
$GNGLL,4935.76159,N,01822.28635,E,192522.20,A,A*7E
$GNRMC,192524.00,A,4935.76168,N,01822.28630,E,0.081,,170818,,,A,V*13
$GNVTG,,T,,M,0.081,N,0.151,K,A*31
$GNGGA,192524.00,4935.76168,N,01822.28630,E,1,12,0.64,434.5,M,41.1,M,,*48
$GNGSA,A,3,09,23,06,07,03,02,26,,,,,,1.20,0.64,1.01,1*0C
$GNGSA,A,3,72,65,74,73,88,81,75,71,87,,,,1.20,0.64,1.01,2*00
$GNGSA,A,3,19,27,12,30,07,,,,,,,,1.20,0.64,1.01,3*08
$GPGSV,3,1,11,02,28,308,19,03,27,125,29,06,48,249,25,07,39,188,23,0*68
$GPGSV,3,2,11,09,85,322,33,16,18,074,,22,07,127,,23,59,069,35,0*69
$GPGSV,3,3,11,26,15,045,23,29,01,357,,30,10,201,,0*5F
$GLGSV,3,1,10,65,56,314,30,66,02,289,,71,15,097,12,72,61,067,25,0*75
$GLGSV,3,2,10,73,29,037,20,74,53,102,26,75,22,164,26,81,23,324,18,0*73
$GLGSV,3,3,10,87,08,227,15,88,28,270,32,0*72
$GAGSV,2,1,08,04,00,275,,07,21,091,14,11,13,330,,12,32,277,28,0*7A
$GAGSV,2,2,08,19,54,284,22,21,16,160,,27,40,107,25,30,27,048,17,0*74
$GNGLL,4935.76168,N,01822.28630,E,192524.00,A,A*7E
$GNRMC,192525.00,A,4935.76170,N,01822.28625,E,0.083,,170818,,,A,V*1D
$GNVTG,,T,,M,0.083,N,0.154,K,A*36
$GNGGA,192525.00,4935.76170,N,01822.28625,E,1,12,0.64,434.6,M,41.1,M,,*47
$GNGSA,A,3,09,23,06,07,03,02,26,,,,,,1.20,0.64,1.01,1*0C
$GNGSA,A,3,72,65,74,73,88,81,75,87,,,,,1.20,0.64,1.01,2*06
$GNGSA,A,3,19,27,12,30,07,,,,,,,,1.20,0.64,1.01,3*08
$GPGSV,3,1,11,02,28,308,18,03,27,125,28,06,48,249,25,07,39,188,23,0*68
$GPGSV,3,2,11,09,85,322,33,16,18,074,,22,07,127,,23,59,069,35,0*69
$GPGSV,3,3,11,26,15,045,23,29,01,357,,30,10,201,,0*5F
$GLGSV,3,1,10,65,56,314,30,66,02,289,,71,15,097,09,72,61,067,26,0*7C
$GLGSV,3,2,10,73,29,037,20,74,53,102,26,75,22,164,25,81,23,324,16,0*7E
$GLGSV,3,3,10,87,08,227,14,88,28,270,31,0*70
$GAGSV,2,1,08,04,00,275,,07,21,09*7F
$GAGSV,2,2,08,19,54,284,23,21,16,160,,27,40,107,25,30,27,048,16,0*74
$GNGLL,4935.76170,N,01822.28625,E,192525.00,A,A*72
$GNRMC,192526.00,A,4935.76167,N,01822.28622,E,0.038,,170818,,,A,V*1F
$GNVTG,,T,,M,0.038,N,0.071,K,A*30
$GNGGA,192526.00,4935.76167,N,01822.28622,E,1,12,0.69,434.6,M,41.1,M,,*48
$GNGSA,A,3,09,23,06,07,03,02,26,,,,,,1.24,0.69,1.03,1*07
$GNGSA,A,3,72,65,74,73,88,81,75,87,,,,,1.24,0.69,1.03,2*0D
$GNGSA,A,3,19,27,12,30,07,,,,,,,,1.24,0.69,1.03,3*03
$GPGSV,3,1,11,02,28,308,17,03,27,125,28,06,48,249,25,07,39,188,24,0*60
$GPGSV,3,2,11,09,85,329,33,16,18,074,,22,07,127,,23,59,069,35,0*62
$GPGSV,3,3,11,26,15,045,23,29,01,357,,30,10,201,,0*5F
$GLGSV,3,1,10,65,56,314,29,66,02,289,,71,15,097,08,72,61,067,26,0*75
$GLGSV,3,2,10,73,29,037,20,74,53,102,26,75,22,164,25,81,23,324,16,0*7E
$GLGSV,3,3,10,87,08,227,14,88,28,270,32,0*73
$GAGSV,2,1,08,04,00,275,,07,21,091,15,11,13,330,,12,32,277,28,0*7B
$GAGSV,2,2,08,19,54,284,23,21,16,160,,27,40,107,23,30,27,048,16,0*72
$GNGLL,4935.76167,N,01822.28622,E,192526.00,A,A*70
$GNRMC,192527.00,A,4935.76164,N,01822.28620,E,0.081,,170818,,,A,V*1D
$GNVTG,,T,,M,0.081,N,0.149,K,A*38
$GNGGA,192527.00,4935.76164,N,01822.28620,E,1,12,0.69,434.6,M,41.1,M,,*48
$GNGSA,A,3,09,23,06,07,03,02,26,,,,,,1.24,0.69,1.03,1*07
$GNGSA,A,3,72,65,74,73,88,81,75,87,,,,,1.24,0.69,1.03,2*0D
$GNGSA,A,3,19,27,12,30,07,,,,,,,,1.24,0.69,1.03,3*03
$GPGSV,3,1,11,02,28,308,15,03,27,125,28,06,48,249,24,07,39,188,24,0*63
$GPGSV,3,2,11,09,85,329,33,16,18,074,,22,07,127,,23,59,069,35,0*62
$GPGSV,3,3,11,26,15,045,23,29,01,357,,30,10,201,,0*5F
$GLGSV,3,1,10,65,56,314,29,66,02,289,,71,15,097,08,72,61,067,25,0*76
$GLGSV,3,2,10,73,29,037,21,74,53,102,27,75,22,164,25,81,23,324,15,0*7D
$GLGSV,3,3,10,87,08,227,14,88,28,270,31,0*70
$GAGSV,2,1,08,04,00,275,,07,21,091,12,11,13,330,,12,32,277,29,0*7D
$GAGSV,2,2,08,19,54,284,23,21,16,160,,27,40,107,23,30,27,048,15,0*71
$GNGLL,4935.76164,N,018,A*70
$GNRMC,192528.00,A,4935.76158,N,01822.28618,E,0.011,,170818,,,A,V*1F
$GNVTG,,T,,M,0.011,N,0.021,K,A*3E
$GNGGA,192528.00,4935.76158,N,01822.28618,E,1,12,0.69,434.7,M,41.1,M,,*42
$GNGSA,A,3,09,23,06,07,03,02,26,,,,,,1.24,0.69,1.03,1*07
$GNGSA,A,3,72,65,74,73,88,81,75,87,,,,,1.24,0.69,1.03,2*0D
$GNGSA,A,3,19,27,12,30,07,,,,,,,,1.24,0.69,1.03,3*03
$GPGSV,3,1,11,02,28,308,16,03,27,125,28,06,48,249,24,07,39,188,25,0*61
$GPGSV,3,2,11,09,85,329,34,16,18,074,07,22,07,127,,23,59,069,35,0*62
$GPGSV,3,3,11,26,15,045,23,29,01,357,,30,10,201,,0*5F
$GLGSV,3,1,10,65,56,314,29,66,02,289,,71,15,097,08,72,61,067,25,0*76
$GLGSV,3,2,10,73,29,037,22,74,53,102,27,75,22,164,25,81,23,324,15,0*7E
$GLGSV,3,3,10,87,08,227,14,88,28,270,32,0*73
$GAGSV,2,1,08,04,00,275,,07,21,091,13,11,13,330,,12,32,277,29,0*7C
$GAGSV,2,2,08,19,54,284,23,21,16,160,,27,40,107,23,30,27,048,15,0*71
$GNGLL,4935.76158,N,01822.28618,E,192528.00,A,A*7B
$GNRMC,192529.00,A,4935.76149,N,01822.28616,E,0.061,,170818,,,A,V*17
$GNVTG,,T,,M,0.061,N,0.113,K,A*39
$GNGGA,192529.00,4935.76149,N,01822.28616,E,1,12,0.69,434.8,M,41.1,M,,*42
$GNGSA,A,3,09,23,06,07,03,02,26,,,,,,1.24,0.69,1.03,1*07
$GNGSA,A,3,72,65,74,73,88,81,75,71,87,,,,1.24,0.69,1.03,2*0B
$GNGSA,A,3,19,27,12,30,07,,,,,,,,1.24,0.69,1.03,3*03
$GPGSV,3,1,11,02,28,308,17,03,27,125,28,06,48,249,25,07,39,188,25,0*61
$GPGSV,3,2,11,09,85,329,33,16,18,074,09,22,07,127,,23,59,069,35,0*6B
$GPGSV,3,3,11,26,15,045,23,29,01,357,,30,10,201,,0*5F
$GLGSV,3,1,10,65,56,314,29,66,02,289,,71,15,097,09,72,61,067,25,0*77
$GLGSV,3,2,10,73,29,037,22,74,53,102,27,75,22,164,25,81,23,324,16,0*7D
$GLGSV,3,3,10,87,08,227,18,88,28,270,31,0*7C
$GAGSV,2,1,08,04,00,275,,07,21,091,16,11,13,330,,12,32,277,28,16,160,,27,40,107,23,30,27,048,13,0*77
$GNGLL,4935.76149,N,01822.28616,E,192529.00,A,A*74
$GNRMC,192530.00,A,4935.76147,N,01822.28616,E,0.047,,170818,,,A,V*15
$GNVTG,,T,,M,0.047,N,0.088,K,A*3E
$GNGGA,192530.00,4935.76147,N,01822.28616,E,1,12,0.64,434.8,M,41.1,M,,*49
$GNGSA,A,3,09,23,06,07,03,02,26,,,,,,1.20,0.64,1.01,1*0C
$GNGSA,A,3,72,65,74,73,88,81,75,71,87,,,,1.20,0.64,1.01,2*00
$GNGSA,A,3,19,27,12,30,07,,,,,,,,1.20,0.64,1.01,3*08
$GPGSV,3,1,11,02,28,308,16,03,27,125,28,06,48,249,25,07,39,188,24,0*61
$GPGSV,3,2,11,09,85,329,33,16,18,074,15,22,07,127,,23,59,069,35,0*66
$GPGSV,3,3,11,26,15,045,23,29,01,357,,30,10,201,,0*5F
$GLGSV,3,1,10,65,56,314,29,66,02,289,,71,15,097,15,72,61,067,25,0*7A
$GLGSV,3,2,10,73,29,037,22,74,53,102,27,75,22,164,24,81,23,324,15,0*7F
$GLGSV,3,3,10,87,08,227,18,88,28,270,31,0*7C
$GAGSV,2,1,08,04,00,275,,07,21,091,11,11,13,330,,12,32,277,28,0*7F
$GAGSV,2,2,08,19,54,284,23,21,16,160,,27,40,107,22,30,27,048,13,0*76
$GNGLL,4935.76147,N,01822.28616,E,192530.00,A,A*72
$GNRMC,192531.00,A,4935.76143,N,01822.28612,E,0.146,,170818,,,A,V*14
$GNVTG,,T,,M,0.146,N,0.270,K,A*3B
$GNGGA,192531.00,4935.76143,N,01822.28612,E,1,12,0.64,434.9,M,41.1,M,,*49
$GNGSA,A,3,09,23,06,07,03,02,26,,,,,,1.20,0.64,1.01,1*0C
$GNGSA,A,3,72,65,74,73,88,81,75,71,87,,,,1.20,0.64,1.01,2*00
$GNGSA,A,3,19,27,12,30,07,,,,,,,,1.20,0.64,1.01,3*08
$GPGSV,3,1,11,02,28,308,16,03,27,125,28,06,48,249,25,07,39,188,24,0*61
$GPGSV,3,2,11,09,85,329,33,16,18,074,16,22,07,127,,23,59,069,35,0*65
$GPGSV,3,3,11,26,15,045,22,29,01,357,,30,10,201,,0*5E
$GLGSV,3,1,10,65,56,314,28,66,02,289,,71,15,097,15,72,61,067,25,0*7B
$GLGSV,3,2,10,73,29,037,22,74,53,102,28,75,22,164,23,81,23,324,15,0*77
$GLGSV,3,3,10,87,08,227,21,88,28,270,31,0*76
$GAGSV,2,1,08,04,00,275,,07,21,091,13,11,13,330,,12,32,277,28,0*7D
$GAGSV,2,2,08,19,54,284,2GNGLL,4935.76143,N,01822.28612,E,192531.00,A,A*73
$GNRMC,192532.00,A,4935.76136,N,01822.28604,E,0.105,,170818,,,A,V*15
$GNVTG,,T,,M,0.105,N,0.194,K,A*35
$GNGGA,192532.00,4935.76136,N,01822.28604,E,1,12,0.64,435.2,M,41.1,M,,*45
$GNGSA,A,3,09,23,06,07,03,02,16,26,,,,,1.20,0.64,1.01,1*0B
$GNGSA,A,3,72,65,74,73,88,81,75,71,87,,,,1.20,0.64,1.01,2*00
$GNGSA,A,3,19,27,12,30,07,,,,,,,,1.20,0.64,1.01,3*08
$GPGSV,3,1,11,02,28,308,17,03,27,125,28,06,48,249,26,07,39,188,24,0*63
$GPGSV,3,2,11,09,85,329,33,16,18,074,16,22,07,127,,23,59,069,35,0*65
$GPGSV,3,3,11,26,15,045,22,29,01,357,,30,10,201,,0*5E
$GLGSV,3,1,10,65,56,314,28,66,02,289,,71,15,097,15,72,61,067,25,0*7B
$GLGSV,3,2,10,73,29,037,22,74,53,102,29,75,22,164,25,81,23,324,13,0*76
$GLGSV,3,3,10,87,08,227,17,88,28,270,31,0*73
$GAGSV,2,1,08,04,00,275,,07,21,091,13,11,13,330,,12,32,277,28,0*7D
$GAGSV,2,2,08,19,54,284,23,21,16,160,,27,40,107,22,30,27,048,12,0*77
$GNGLL,4935.76136,N,01822.28604,E,192532.00,A,A*75
$GNRMC,192532.20,A,4935.76129,N,01822.28598,E,0.110,,170818,,,A,V*18
$GNVTG,,T,,M,0.110,N,0.203,K,A*3C
$GNGGA,192532.20,4935.76129,N,01822.28598,E,1,12,0.64,435.3,M,41.1,M,,*4D
$GNGSA,A,3,09,23,06,07,03,02,16,26,,,,,1.20,0.64,1.01,1*0B
$GNGSA,A,3,72,65,74,73,88,81,75,71,87,,,,1.20,0.64,1.01,2*00
$GNGSA,A,3,19,27,12,30,07,,,,,,,,1.20,0.64,1.01,3*08
$GPGSV,3,1,11,02,28,308,19,03,27,125,28,06,48,249,26,07,39,188,23,0*6A
$GPGSV,3,2,11,09,85,329,34,16,19,073,14,22,07,127,,23,59,069,35,0*66
$GPGSV,3,3,11,26,15,045,22,29,01,357,,30,10,201,,0*5E
$GLGSV,3,1,10,65,56,314,29,66,02,289,,71,15,097,15,72,61,067,25,0*7A
$GLGSV,3,2,10,73,29,037,22,74,53,102,29,75,22,164,25,81,23,324,13,0*76
$GLGSV,3,3,10,87,08,227,18,88,28,270,31,0*7C
$GAGSV,2,1,08,04,00,275,,07,12,0*77
$GNGLL,4935.76129,N,01822.28598,E,192532.20,A,A*7C
$GNRMC,192534.00,A,4935.76124,N,01822.28594,E,0.217,,170818,,,A,V*1A
$GNVTG,,T,,M,0.217,N,0.401,K,A*3C
$GNGGA,192534.00,4935.76124,N,01822.28594,E,1,12,0.64,435.4,M,41.1,M,,*4C
$GNGSA,A,3,09,23,06,07,03,02,16,26,,,,,1.20,0.64,1.01,1*0B
$GNGSA,A,3,72,65,74,73,88,81,75,71,87,,,,1.20,0.64,1.01,2*00
$GNGSA,A,3,19,27,12,30,07,,,,,,,,1.20,0.64,1.01,3*08
$GPGSV,3,1,11,02,28,308,20,03,27,125,28,06,48,249,26,07,39,188,22,0*61
$GPGSV,3,2,11,09,85,329,34,16,19,073,15,22,07,127,,23,59,069,36,0*64
$GPGSV,3,3,11,26,15,045,23,29,01,357,,30,10,201,,0*5F
$GLGSV,3,1,10,65,56,314,29,66,02,289,,71,15,097,16,72,61,067,25,0*79
$GLGSV,3,2,10,73,29,037,22,74,53,102,29,75,22,164,25,81,23,324,15,0*70
$GLGSV,3,3,10,87,08,227,19,88,28,270,32,0*7E
$GAGSV,2,1,08,04,00,275,,07,21,091,12,11,13,330,,12,32,277,28,0*7C
$GAGSV,2,2,08,19,54,284,23,21,16,160,,27,40,107,21,30,27,048,11,0*77
$GNGLL,4935.76124,N,01822.28594,E,192534.00,A,A*7A
$GNRMC,192535.00,A,4935.76113,N,01822.28588,E,0.066,,170818,,,A,V*16
$GNVTG,,T,,M,0.066,N,0.122,K,A*3C
$GNGGA,192535.00,4935.76113,N,01822.28588,E,1,12,0.64,435.5,M,41.1,M,,*45
$GNGSA,A,3,09,23,06,07,03,02,16,26,,,,,1.20,0.64,1.01,1*0B
$GNGSA,A,3,72,65,74,73,88,81,75,71,87,,,,1.20,0.64,1.01,2*00
$GNGSA,A,3,19,27,12,30,07,,,,,,,,1.20,0.64,1.01,3*08
$GPGSV,3,1,11,02,28,308,21,03,27,125,29,06,48,249,26,07,39,188,22,0*61
$GPGSV,3,2,11,09,85,329,34,16,19,073,16,22,07,127,,23,59,069,35,0*64
$GPGSV,3,3,11,26,15,045,22,29,01,357,,30,10,201,,0*5E
$GLGSV,3,1,10,65,56,314,29,66,02,289,,71,15,097,17,72,61,067,25,0*78
$GLGSV,3,2,10,73,29,037,22,74,53,102,29,75,22,164,25,81,23,324,18,0*7D
$GLGSV,3,3,10,87,08,227,18,88,28,270,32,0*7F
$GAGSV,2,1,08,04,00,275,,07,21,091,15,11,13,330,,12,32,277,,,27,40,107,22,30,27,048,11,0*75
$GNGLL,4935.76113,N,01822.28588,E,192535.00,A,A*72
$GNRMC,192536.00,A,4935.76097,N,01822.28579,E,0.142,,170818,,,A,V*11
$GNVTG,,T,,M,0.142,N,0.263,K,A*3D
$GNGGA,192536.00,4935.76097,N,01822.28579,E,1,12,0.61,435.9,M,41.1,M,,*4C
$GNGSA,A,3,09,23,06,07,03,02,16,26,,,,,1.17,0.61,1.00,1*0B
$GNGSA,A,3,72,65,74,73,88,81,75,71,87,,,,1.17,0.61,1.00,2*00
$GNGSA,A,3,19,27,12,30,07,,,,,,,,1.17,0.61,1.00,3*08
$GPGSV,3,1,11,02,28,308,21,03,27,125,29,06,48,249,25,07,39,188,24,0*64
$GPGSV,3,2,11,09,85,329,34,16,19,073,16,22,07,127,,23,59,069,35,0*64
$GPGSV,3,3,11,26,15,045,22,29,01,357,,30,10,201,,0*5E
$GLGSV,3,1,10,65,56,314,29,66,02,289,,71,15,097,18,72,61,067,25,0*77
$GLGSV,3,2,10,73,29,037,21,74,53,102,29,75,22,164,25,81,23,324,20,0*75
$GLGSV,3,3,10,87,08,227,18,88,28,270,32,0*7F
$GAGSV,2,1,08,04,00,275,,07,21,091,19,11,13,330,,12,32,277,29,0*76
$GAGSV,2,2,08,19,54,284,23,21,16,160,,27,40,107,22,30,27,048,11,0*74
$GNGLL,4935.76097,N,01822.28579,E,192536.00,A,A*72
$GNRMC,192537.00,A,4935.76095,N,01822.28577,E,0.288,,170818,,,A,V*19
$GNVTG,,T,,M,0.288,N,0.533,K,A*3A
$GNGGA,192537.00,4935.76095,N,01822.28577,E,1,12,0.64,435.8,M,41.1,M,,*45
$GNGSA,A,3,09,23,06,07,03,02,16,26,,,,,1.20,0.64,1.01,1*0B
$GNGSA,A,3,72,65,74,73,88,81,75,71,87,,,,1.20,0.64,1.01,2*00
$GNGSA,A,3,19,27,12,30,07,,,,,,,,1.20,0.64,1.01,3*08
$GPGSV,3,1,11,02,28,308,22,03,27,125,29,06,48,249,26,07,39,188,26,0*66
$GPGSV,3,2,11,09,85,329,34,16,19,073,16,22,07,127,,23,59,069,35,0*64
$GPGSV,3,3,11,26,15,045,22,29,01,357,,30,10,201,,0*5E
$GLGSV,3,1,10,65,56,314,29,66,02,289,,71,15,097,18,72,61,067,25,0*77
$GLGSV,3,2,10,73,29,037,21,74,53,102,29,75,22,164,25,81,23,324,20,0*75
$GLGSV,3,3,10,87,08,227,18,88,28,270,31,0*7C
$GAGSV,2,1,08,04,00,275,,07,21,091,15,11,13,330,,12,32,277,16,160,,27,40,107,22,30,27,048,13,0*76
$GNGLL,4935.76095,N,01822.28577,E,192537.00,A,A*7F
$GNRMC,192538.00,A,4935.76087,N,01822.28573,E,0.324,,170818,,,A,V*16
$GNVTG,,T,,M,0.324,N,0.601,K,A*3F
$GNGGA,192538.00,4935.76087,N,01822.28573,E,1,12,0.64,435.9,M,41.1,M,,*4C
$GNGSA,A,3,09,23,06,07,03,02,16,26,,,,,1.20,0.64,1.01,1*0B
$GNGSA,A,3,72,65,74,73,88,81,75,71,87,,,,1.20,0.64,1.01,2*00
$GNGSA,A,3,19,27,12,30,07,,,,,,,,1.20,0.64,1.01,3*08
$GPGSV,3,1,11,02,28,308,22,03,27,125,29,06,48,249,27,07,39,188,26,0*67
$GPGSV,3,2,11,09,85,329,34,16,19,073,15,22,07,127,,23,59,069,35,0*67
$GPGSV,3,3,11,26,15,045,22,29,01,357,,30,10,201,,0*5E
$GLGSV,3,1,10,65,56,314,30,66,02,289,,71,15,097,19,72,61,067,25,0*7E
$GLGSV,3,2,10,73,29,037,21,74,53,102,29,75,22,164,24,81,23,324,20,0*74
$GLGSV,3,3,10,87,08,227,18,88,28,270,32,0*7F
$GAGSV,2,1,08,04,00,275,,07,21,091,14,11,13,330,,12,32,277,28,0*7A
$GAGSV,2,2,08,19,54,284,23,21,16,160,,27,40,107,22,30,27,048,11,0*74
$GNGLL,4935.76087,N,01822.28573,E,192538.00,A,A*77
$GNRMC,192539.00,A,4935.76084,N,01822.28570,E,0.343,,170818,,,A,V*16
$GNVTG,,T,,M,0.343,N,0.635,K,A*39
$GNGGA,192539.00,4935.76084,N,01822.28570,E,1,12,0.64,436.0,M,41.1,M,,*47
$GNGSA,A,3,09,23,06,07,03,02,16,26,,,,,1.20,0.64,1.01,1*0B
$GNGSA,A,3,72,65,74,73,88,81,75,71,87,,,,1.20,0.64,1.01,2*00
$GNGSA,A,3,19,27,12,30,07,,,,,,,,1.20,0.64,1.01,3*08
$GPGSV,3,1,11,02,28,308,22,03,27,125,29,06,48,249,27,07,39,188,26,0*67
$GPGSV,3,2,11,09,85,329,35,16,19,073,14,22,06,127,,23,59,069,35,0*66
$GPGSV,3,3,11,26,15,045,21,29,01,357,,30,10,201,,0*5D
$GLGSV,3,1,10,65,56,314,30,66,02,289,,71,15,097,20,72,61,067,26,0*77
$GLGSV,3,2,10,73,29,037,20,74,53,102,29,75,22,164,25,81,23,324,20,0*74
$GLGSV,3,3,10,87,08,227,19,88,28,270,32,0*7E
$GAGSV,2,1,08,04,00,275,,07,21,091,16,11,13,330,,12,32,277,28,0*78
$GAGSV,2,2,08,19,54,284,24,21,16,160,,27,40,107,22,30,27,048,12,0*70
$GNGLL,4935.76084$GNRMC,192540.00,A,4935.76078,N,01822.28564,E,0.391,,170818,,,A,V*11
$GNVTG,,T,,M,0.391,N,0.723,K,A*30
$GNGGA,192540.00,4935.76078,N,01822.28564,E,1,12,0.61,436.3,M,41.1,M,,*49
$GNGSA,A,3,09,23,06,07,03,02,16,26,,,,,1.17,0.61,1.00,1*0B
$GNGSA,A,3,72,65,74,73,88,81,75,71,87,,,,1.17,0.61,1.00,2*00
$GNGSA,A,3,19,27,12,30,07,,,,,,,,1.17,0.61,1.00,3*08
$GPGSV,3,1,11,02,28,308,21,03,27,125,29,06,48,249,27,07,39,188,27,0*65
$GPGSV,3,2,11,09,85,329,34,16,19,073,15,22,06,127,,23,58,069,35,0*67
$GPGSV,3,3,11,26,15,045,21,29,01,357,,30,10,201,18,0*54
$GLGSV,3,1,10,65,56,314,29,66,02,289,,71,15,097,20,72,61,067,25,0*7C
$GLGSV,3,2,10,73,29,037,19,74,53,102,29,75,22,164,23,81,23,324,20,0*78
$GLGSV,3,3,10,87,08,227,18,88,28,270,32,0*7F
$GAGSV,2,1,08,04,00,275,,07,21,091,17,11,13,330,,12,32,277,28,0*79
$GAGSV,2,2,08,19,54,284,24,21,16,160,,27,40,107,22,30,27,048,13,0*71
$GNGLL,4935.76078,N,01822.28564,E,192540.00,A,A*7E
$GNRMC,192541.00,A,4935.76072,N,01822.28557,E,0.038,,170818,,,A,V*1A
$GNVTG,,T,,M,0.038,N,0.071,K,A*30
$GNGGA,192541.00,4935.76072,N,01822.28557,E,1,12,0.61,436.6,M,41.1,M,,*47
$GNGSA,A,3,09,23,06,07,03,02,16,26,,,,,1.17,0.61,1.00,1*0B
$GNGSA,A,3,72,65,74,73,88,81,75,71,87,,,,1.17,0.61,1.00,2*00
$GNGSA,A,3,19,27,12,30,07,,,,,,,,1.17,0.61,1.00,3*08
$GPGSV,3,1,11,02,28,308,20,03,27,125,29,06,48,249,27,07,39,188,27,0*64
$GPGSV,3,2,11,09,85,329,34,16,19,073,16,22,06,127,,23,58,069,35,0*64
$GPGSV,3,3,11,26,15,045,21,29,01,357,,30,10,201,16,0*5A
$GLGSV,3,1,10,65,56,314,29,66,02,289,,71,15,097,21,72,61,067,25,0*7D
$GLGSV,3,2,10,73,29,037,19,74,53,102,29,75,22,164,23,81,23,324,20,0*78
$GLGSV,3,3,10,87,08,227,17,88,28,270,32,0*70
$GAGSV,2,1,08,04,00,275,,$GAGSV,2,2,08,19,54,284,24,21,16,160,,27,40,107,23,30,27,048,12,0*71
$GNGLL,4935.76072,N,01822.28557,E,192541.00,A,A*75
$GNRMC,192542.00,A,4935.76075,N,01822.28554,E,0.173,,170818,,,A,V*13
$GNVTG,,T,,M,0.173,N,0.320,K,A*39
$GNGGA,192542.00,4935.76075,N,01822.28554,E,1,12,0.61,436.6,M,41.1,M,,*40
$GNGSA,A,3,09,23,06,07,03,02,16,26,,,,,1.17,0.61,1.00,1*0B
$GNGSA,A,3,72,65,74,73,88,81,75,71,87,,,,1.17,0.61,1.00,2*00
$GNGSA,A,3,19,27,12,30,07,,,,,,,,1.17,0.61,1.00,3*08
$GPGSV,3,1,11,02,28,308,18,03,27,125,29,06,48,249,27,07,39,188,27,0*6F
$GPGSV,3,2,11,09,85,329,34,16,19,073,18,22,06,127,,23,58,069,35,0*6A
$GPGSV,3,3,11,26,15,045,21,29,01,357,,30,10,201,14,0*58
$GLGSV,3,1,10,65,56,314,29,66,02,289,,71,15,097,21,72,61,067,26,0*7E
$GLGSV,3,2,10,73,29,037,18,74,53,102,29,75,22,164,23,81,23,324,18,0*72
$GLGSV,3,3,10,87,08,227,15,88,28,270,32,0*72
$GAGSV,2,1,08,04,00,275,,07,21,091,17,11,13,330,,12,32,277,28,0*79
$GAGSV,2,2,08,19,54,284,24,21,16,160,,27,40,107,23,30,27,048,14,0*77
$GNGLL,4935.76075,N,01822.28554,E,192542.00,A,A*72
$GNRMC,192542.20,A,4935.76068,N,01822.28545,E,0.120,,170818,,,A,V*18
$GNVTG,,T,,M,0.120,N,0.223,K,A*3D
$GNGGA,192542.20,4935.76068,N,01822.28545,E,1,12,0.61,437.0,M,41.1,M,,*4A
$GNGSA,A,3,09,23,06,07,03,02,16,26,,,,,1.17,0.61,1.00,1*0B
$GNGSA,A,3,72,65,74,73,88,81,75,71,87,,,,1.17,0.61,1.00,2*00
$GNGSA,A,3,19,27,12,30,07,,,,,,,,1.17,0.61,1.00,3*08
$GPGSV,3,1,11,02,28,308,18,03,27,125,29,06,48,249,27,07,39,188,27,0*6F
$GPGSV,3,2,11,09,85,329,35,16,19,073,19,22,06,127,,23,58,069,35,0*6A
$GPGSV,3,3,11,26,15,045,20,29,01,357,,30,10,201,14,0*59
$GLGSV,3,1,10,65,56,314,29,66,02,289,,71,15,097,20,72,61,067,26,0*7F
$GLGSV,3,2,10,73,29,037,19,74,53,102,30,75,22,164,23,81,23,324,16,0*75
$GLGSV,3,3,10,87,08,227,14,88,28,270,32,0*73
$GAGSV,2,1,08,04,00,275,,07,21,091,16,11,13,330,,12,32,271,16,160,,27,40,107,23,30,27,048,10,0*72
$GNGLL,4935.76068,N,01822.28545,E,192542.20,A,A*7F
$GNRMC,192544.00,A,4935.76061,N,01822.28538,E,0.112,,170818,,,A,V*1D
$GNVTG,,T,,M,0.112,N,0.208,K,A*35
$GNGGA,192544.00,4935.76061,N,01822.28538,E,1,12,0.61,437.3,M,41.1,M,,*4D
$GNGSA,A,3,09,23,06,07,03,02,16,26,30,,,,1.17,0.61,1.00,1*08
$GNGSA,A,3,72,65,74,73,88,81,75,71,87,,,,1.17,0.61,1.00,2*00
$GNGSA,A,3,19,27,12,30,07,,,,,,,,1.17,0.61,1.00,3*08
$GPGSV,3,1,11,02,28,308,16,03,27,125,29,06,48,249,27,07,39,188,26,0*60
$GPGSV,3,2,11,09,85,329,35,16,19,073,20,22,06,127,,23,58,069,35,0*60
$GPGSV,3,3,11,26,15,045,21,29,01,357,,30,10,201,14,0*58
$GLGSV,3,1,10,65,56,314,29,66,02,289,,71,15,097,20,72,61,067,26,0*7F
$GLGSV,3,2,10,73,29,037,19,74,53,102,29,75,22,164,22,81,23,324,16,0*7C
$GLGSV,3,3,10,87,08,227,13,88,28,270,32,0*74
$GAGSV,2,1,08,04,00,275,,07,21,091,17,11,13,330,,12,32,277,29,0*78
$GAGSV,2,2,08,19,54,284,25,21,16,160,,27,40,107,23,30,27,048,07,0*74
$GNGLL,4935.76061,N,01822.28538,E,192544.00,A,A*7B
$GNRMC,192545.00,A,4935.76056,N,01822.28532,E,0.079,,170818,,,A,V*1E
$GNVTG,,T,,M,0.079,N,0.146,K,A*30
$GNGGA,192545.00,4935.76056,N,01822.28532,E,1,12,0.64,437.6,M,41.1,M,,*42
$GNGSA,A,3,09,23,06,07,03,02,16,26,30,,,,1.20,0.64,1.02,1*0B
$GNGSA,A,3,72,65,74,73,88,81,75,71,87,,,,1.20,0.64,1.02,2*03
$GNGSA,A,3,19,27,12,07,,,,,,,,,1.20,0.64,1.02,3*08
$GPGSV,3,1,11,02,28,308,15,03,27,125,29,06,48,249,27,07,39,188,26,0*63
$GPGSV,3,2,11,09,85,329,35,16,19,073,20,22,06,127,,23,58,069,35,0*60
$GPGSV,3,3,11,26,15,045,20,29,01,357,,30,10,201,15,0*58
$GLGSV,3,1,10,65,56,314,29,66,02,289,,71,15,097,20,72,61,067,26,0*7F
$GLGSV,3,2,10,73,29,037,20,74,53,102,29,75,22,164,22,81,23,324,18,0*78
$GLGSV,3,3,10,87,08,227,14,88,28,270,32,0*73
$GAGSV,2,1,08,04,00,275,,07,21,091,17,11,13,330,,12,32,27,2,08,19,54,284,25,21,16,160,,27,40,107,23,30,27,048,07,0*74
$GNGLL,4935.76056,N,01822.28532,E,192545.00,A,A*74
$GNRMC,192546.00,A,4935.76046,N,01822.28521,E,0.079,,170818,,,A,V*1E
$GNVTG,,T,,M,0.079,N,0.147,K,A*31
$GNGGA,192546.00,4935.76046,N,01822.28521,E,1,12,0.61,438.0,M,41.1,M,,*4E
$GNGSA,A,3,09,23,06,07,03,02,16,26,30,,,,1.17,0.61,1.00,1*08
$GNGSA,A,3,72,65,74,73,88,81,75,71,87,,,,1.17,0.61,1.00,2*00
$GNGSA,A,3,19,27,12,30,07,,,,,,,,1.17,0.61,1.00,3*08
$GPGSV,3,1,11,02,28,308,15,03,27,125,29,06,48,249,27,07,39,188,25,0*60
$GPGSV,3,2,11,09,85,329,35,16,19,073,20,22,06,127,,23,58,069,35,0*60
$GPGSV,3,3,11,26,15,045,21,29,01,357,,30,10,201,15,0*59
$GLGSV,3,1,10,65,56,314,29,66,02,289,,71,15,097,20,72,61,067,26,0*7F
$GLGSV,3,2,10,73,29,037,19,74,53,102,29,75,22,164,22,81,23,324,21,0*78
$GLGSV,3,3,10,87,08,227,15,88,28,270,32,0*72
$GAGSV,2,1,08,04,00,275,,07,21,091,17,11,13,330,,12,32,277,28,0*79
$GAGSV,2,2,08,19,54,284,25,21,16,160,,27,40,107,23,30,27,048,10,0*72
$GNGLL,4935.76046,N,01822.28521,E,192546.00,A,A*74
$GNRMC,192547.00,A,4935.76038,N,01822.28516,E,0.140,,170818,,,A,V*19
$GNVTG,,T,,M,0.140,N,0.259,K,A*36
$GNGGA,192547.00,4935.76038,N,01822.28516,E,1,12,0.64,438.4,M,41.1,M,,*43
$GNGSA,A,3,09,23,06,07,03,02,16,26,30,,,,1.20,0.64,1.01,1*08
$GNGSA,A,3,72,65,74,73,88,81,75,71,87,,,,1.20,0.64,1.01,2*00
$GNGSA,A,3,19,27,12,30,07,,,,,,,,1.20,0.64,1.01,3*08
$GPGSV,3,1,11,02,28,308,15,03,27,125,30,06,48,249,27,07,39,188,25,0*68
$GPGSV,3,2,11,09,85,329,35,16,19,073,20,22,06,127,,23,58,069,36,0*63
$GPGSV,3,3,11,26,15,045,20,29,01,357,,30,10,201,16,0*5B
$GLGSV,3,1,10,65,56,314,28,66,02,289,,71,15,097,20,72,61,067,25,0*7D
$GLGSV,3,2,10,73,29,037,20,74,53,102,29,75,22,164,22,81,23,324,23,0*70
$GLGSV,3,3,10,87,08,227,15,88,28,270,33,0*73
$GAGSV,2,1,08,04,00,275,,07,21,091,17,11,13,330,,12,32,277,28,0*79
$GAGSV,2,2,08,19,54,284,25,21,16,160,,27,40,107,22,72
$GNGLL,4935.76038,N,01822.28516,E,192547.00,A,A*78
$GNRMC,192548.00,A,4935.76040,N,01822.28511,E,0.162,,170818,,,A,V*1E
$GNVTG,,T,,M,0.162,N,0.301,K,A*3A
$GNGGA,192548.00,4935.76040,N,01822.28511,E,1,12,0.64,438.5,M,41.1,M,,*45
$GNGSA,A,3,09,23,06,07,03,02,16,26,30,,,,1.18,0.64,0.99,1*03
$GNGSA,A,3,72,65,74,73,88,81,75,71,87,,,,1.18,0.64,0.99,2*0B
$GNGSA,A,3,19,27,12,30,07,,,,,,,,1.18,0.64,0.99,3*03
$GPGSV,3,1,11,02,28,308,13,03,27,125,29,06,48,249,28,07,39,188,25,0*69
$GPGSV,3,2,11,09,85,329,35,16,19,073,19,22,06,127,,23,58,069,36,0*69
$GPGSV,3,3,11,26,15,045,20,29,01,357,,30,10,201,18,0*55
$GLGSV,3,1,10,65,56,314,29,66,02,289,,71,15,097,21,72,61,067,25,0*7D
$GLGSV,3,2,10,73,29,037,20,74,53,102,29,75,22,164,21,81,23,324,25,0*75
$GLGSV,3,3,10,87,08,227,14,88,28,270,33,0*72
$GAGSV,2,1,08,04,00,275,,07,21,091,17,11,13,330,,12,32,277,28,0*79
$GAGSV,2,2,08,19,54,284,25,21,16,160,,27,40,107,23,30,27,048,09,0*7A
$GNGLL,4935.76040,N,01822.28511,E,192548.00,A,A*7F
$GNRMC,192549.00,A,4935.76038,N,01822.28504,E,0.088,,170818,,,A,V*11
$GNVTG,,T,,M,0.088,N,0.162,K,A*38
$GNGGA,192549.00,4935.76038,N,01822.28504,E,1,12,0.64,438.7,M,41.1,M,,*4D
$GNGSA,A,3,09,23,06,07,03,02,16,26,30,,,,1.18,0.64,0.99,1*03
$GNGSA,A,3,72,65,74,73,88,81,75,71,87,,,,1.18,0.64,0.99,2*0B
$GNGSA,A,3,19,27,12,30,07,,,,,,,,1.18,0.64,0.99,3*03
$GPGSV,3,1,11,02,28,308,11,03,27,125,29,06,48,249,28,07,39,188,25,0*6B
$GPGSV,3,2,11,09,85,329,34,16,19,073,18,22,06,127,,23,58,069,36,0*69
$GPGSV,3,3,11,26,15,045,20,29,01,357,,30,10,201,18,0*55
$GLGSV,3,1,10,65,56,314,29,66,02,289,,71,15,097,21,72,61,067,25,0*7D
$GLGSV,3,2,10,73,29,037,20,74,53,102,30,75,22,164,19,81,23,324,26,0*75
$GLGSV,3,3,10,87,08,227,13,88,28,270,33,0*75
$GAGSV,2,1,08,04,00,275,,07,21,091,16,11,13,330,,12,32,,19,54,284,25,21,16,160,,27,40,107,23,30,27,048,11,0*73
$GNGLL,4935.76038,N,01822.28504,E,192549.00,A,A*75
$GNRMC,192550.00,A,4935.76032,N,01822.28498,E,0.021,,170818,,,A,V*14
$GNVTG,,T,,M,0.021,N,0.040,K,A*3A
$GNGGA,192550.00,4935.76032,N,01822.28498,E,1,12,0.63,439.0,M,41.1,M,,*4A
$GNGSA,A,3,09,23,06,07,03,02,16,26,30,,,,1.17,0.63,0.99,1*0B
$GNGSA,A,3,72,65,74,73,88,81,75,71,87,,,,1.17,0.63,0.99,2*03
$GNGSA,A,3,19,27,12,30,07,,,,,,,,1.17,0.63,0.99,3*0B
$GPGSV,3,1,11,02,28,308,09,03,27,125,29,06,48,249,28,07,39,188,26,0*61
$GPGSV,3,2,11,09,85,329,34,16,19,073,18,22,06,127,,23,58,069,36,0*69
$GPGSV,3,3,11,26,15,045,20,29,01,357,,30,10,201,18,0*55
$GLGSV,3,1,10,65,56,314,29,66,02,289,,71,15,097,22,72,61,067,25,0*7E
$GLGSV,3,2,10,73,29,037,20,74,53,102,29,75,22,164,19,81,23,324,26,0*7D
$GLGSV,3,3,10,87,08,227,12,88,28,270,33,0*74
$GAGSV,2,1,08,04,00,275,,07,21,091,16,11,13,330,,12,32,277,29,0*79
$GAGSV,2,2,08,19,54,284,25,21,16,160,,27,40,107,23,30,27,048,09,0*7A
$GNGLL,4935.76032,N,01822.28498,E,192550.00,A,A*73
$GNRMC,192551.00,A,4935.76022,N,01822.28492,E,0.167,,170818,,,A,V*1D
$GNVTG,,T,,M,0.167,N,0.309,K,A*37
$GNGGA,192551.00,4935.76022,N,01822.28492,E,1,12,0.64,439.3,M,41.1,M,,*44
$GNGSA,A,3,09,23,06,07,03,16,26,30,,,,,1.18,0.64,0.99,1*01
$GNGSA,A,3,72,65,74,73,88,81,75,71,87,,,,1.18,0.64,0.99,2*0B
$GNGSA,A,3,19,27,12,30,07,,,,,,,,1.18,0.64,0.99,3*03
$GPGSV,3,1,11,02,28,308,08,03,27,125,29,06,48,249,28,07,39,188,26,0*60
$GPGSV,3,2,11,09,85,329,34,16,19,073,18,22,06,127,,23,58,069,35,0*6A
$GPGSV,3,3,11,26,15,045,21,29,01,357,,30,10,201,19,0*55
$GLGSV,3,1,10,65,56,314,29,66,02,289,,71,15,097,21,72,61,067,25,0*7D
$GLGSV,3,2,10,73,29,037,20,74,53,102,29,75,22,164,20,81,23,324,25,0*74
$GLGSV,3,3,10,87,08,227,10,88,28,270,33,0*76
$GAGSV,2,1,08,04,00,275,,8,19,54,284,25,21,16,160,,27,40,107,23,30,27,048,08,0*7B
$GNGLL,4935.76022,N,01822.28492,E,192551.00,A,A*79
$GNRMC,192552.00,A,4935.76021,N,01822.28493,E,0.091,,170818,,,A,V*14
$GNVTG,,T,,M,0.091,N,0.169,K,A*3B
$GNGGA,192552.00,4935.76021,N,01822.28493,E,1,12,0.64,439.2,M,41.1,M,,*44
$GNGSA,A,3,09,23,06,07,03,16,26,30,,,,,1.18,0.64,0.99,1*01
$GNGSA,A,3,72,65,74,73,88,81,75,71,87,,,,1.18,0.64,0.99,2*0B
$GNGSA,A,3,19,27,12,30,07,,,,,,,,1.18,0.64,0.99,3*03
$GPGSV,3,1,11,02,28,308,07,03,27,125,29,06,48,249,29,07,39,188,26,0*6E
$GPGSV,3,2,11,09,85,329,34,16,19,073,17,22,06,127,,23,58,069,36,0*66
$GPGSV,3,3,11,26,15,045,21,29,01,357,,30,10,201,19,0*55
$GLGSV,3,1,10,65,56,314,29,66,02,289,,71,15,097,21,72,61,067,25,0*7D
$GLGSV,3,2,10,73,29,037,21,74,53,102,29,75,22,164,20,81,23,324,25,0*75
$GLGSV,3,3,10,87,08,227,08,88,28,270,33,0*7F
$GAGSV,2,1,08,04,00,275,,07,21,091,14,11,13,330,,12,32,277,29,0*7B
$GAGSV,2,2,08,19,54,284,25,21,16,160,,27,40,107,23,30,27,048,07,0*74
$GNGLL,4935.76021,N,01822.28493,E,192552.00,A,A*78
$GNRMC,192552.20,A,4935.76021,N,01822.28497,E,0.098,,170818,,,A,V*18
$GNVTG,,T,,M,0.098,N,0.181,K,A*34
$GNGGA,192552.20,4935.76021,N,01822.28497,E,1,12,0.67,439.1,M,41.1,M,,*41
$GNGSA,A,3,09,23,06,07,03,16,26,30,,,,,1.22,0.67,1.01,1*0B
$GNGSA,A,3,72,65,74,73,88,81,75,71,87,,,,1.22,0.67,1.01,2*01
$GNGSA,A,3,19,27,12,30,07,,,,,,,,1.22,0.67,1.01,3*09
$GPGSV,3,1,11,02,28,308,07,03,27,125,28,06,48,249,29,07,39,188,26,0*6F
$GPGSV,3,2,11,09,85,329,34,16,19,073,17,22,06,127,,23,58,069,36,0*66
$GPGSV,3,3,11,26,15,045,21,29,01,357,,30,10,201,20,0*5F
$GLGSV,3,1,10,65,56,314,30,66,02,289,,71,15,097,21,72,61,067,25,0*75
$GLGSV,3,2,10,73,29,037,21,74,53,102,28,75,22,164,20,81,23,324,23,0*72
$GLGSV,3,3,10,87,08,227,12,88,28,270,33,0*74
$GAGSV,2,1,08,04,00,275,,07,21,091,15,11,13,330,,12,32,277,29,0*7A
$GAGSV,2,2,08,19,54,284,25,21,16,160,,27,40,107,23,3022.28497,E,192552.20,A,A*7D
$GNRMC,192554.00,A,4935.76016,N,01822.28495,E,0.031,,170818,,,A,V*1A
$GNVTG,,T,,M,0.031,N,0.057,K,A*3D
$GNGGA,192554.00,4935.76016,N,01822.28495,E,1,12,0.64,439.3,M,41.1,M,,*41
$GNGSA,A,3,09,23,06,07,03,16,26,30,,,,,1.18,0.64,0.99,1*01
$GNGSA,A,3,72,65,74,73,88,81,75,71,87,,,,1.18,0.64,0.99,2*0B
$GNGSA,A,3,19,27,12,30,07,,,,,,,,1.18,0.64,0.99,3*03
$GPGSV,3,1,11,02,28,308,07,03,27,125,28,06,48,249,28,07,39,188,26,0*6E
$GPGSV,3,2,11,09,85,329,34,16,19,073,16,22,06,127,,23,58,069,36,0*67
$GPGSV,3,3,11,26,15,045,21,29,01,357,,30,10,201,20,0*5F
$GLGSV,3,1,10,65,56,314,30,66,02,289,,71,15,097,21,72,61,067,25,0*75
$GLGSV,3,2,10,73,29,037,21,74,53,102,28,75,22,164,19,81,23,324,22,0*79
$GLGSV,3,3,10,87,08,227,08,88,28,270,33,0*7F
$GAGSV,2,1,08,04,00,275,,07,21,091,16,11,13,330,,12,32,277,29,0*79
$GAGSV,2,2,08,19,54,284,25,21,16,160,,27,40,107,23,30,27,048,12,0*70
$GNGLL,4935.76016,N,01822.28495,E,192554.00,A,A*7C
$GNRMC,192555.00,A,4935.76014,N,01822.28494,E,0.059,,170818,,,A,V*16
$GNVTG,,T,,M,0.059,N,0.110,K,A*31
$GNGGA,192555.00,4935.76014,N,01822.28494,E,1,12,0.64,439.3,M,41.1,M,,*43
$GNGSA,A,3,09,23,06,07,03,16,26,30,,,,,1.18,0.64,0.99,1*01
$GNGSA,A,3,72,65,74,73,88,81,75,71,87,,,,1.18,0.64,0.99,2*0B
$GNGSA,A,3,19,27,12,30,07,,,,,,,,1.18,0.64,0.99,3*03
$GPGSV,3,1,11,02,28,308,07,03,27,125,27,06,48,249,28,07,39,188,26,0*61
$GPGSV,3,2,11,09,85,329,34,16,19,073,16,22,06,127,,23,58,069,36,0*67
$GPGSV,3,3,11,26,15,045,21,29,01,357,17,30,10,201,19,0*53
$GLGSV,3,1,10,65,56,314,30,66,02,289,,71,15,097,21,72,61,067,25,0*75
$GLGSV,3,2,10,73,29,037,21,74,53,102,28,75,22,164,18,81,23,324,20,0*7A
$GLGSV,3,3,10,87,08,227,12,88,28,270,33,0*74
$GAGSV,2,1,08,04,00,275,,07,21,091,16,11,13,330,,12,32,277,29,0*79
$GAGSV,2,2,08,19,54,30,27,048,10,0*72
$GNGLL,4935.76014,N,01822.28494,E,192555.00,A,A*7E
$GNRMC,192556.00,A,4935.76011,N,01822.28499,E,0.115,,170818,,,A,V*14
$GNVTG,,T,,M,0.115,N,0.214,K,A*3F
$GNGGA,192556.00,4935.76011,N,01822.28499,E,1,12,0.66,439.3,M,41.1,M,,*4A
$GNGSA,A,3,09,23,06,07,03,02,16,26,30,,,,1.26,0.66,1.07,1*0A
$GNGSA,A,3,72,65,74,73,88,81,75,71,87,,,,1.26,0.66,1.07,2*02
$GNGSA,A,3,19,27,12,30,07,,,,,,,,1.26,0.66,1.07,3*0A
$GPGSV,3,1,11,02,28,308,13,03,27,125,26,06,48,249,27,07,39,188,26,0*6A
$GPGSV,3,2,11,09,85,329,35,16,19,073,15,22,06,127,,23,58,069,36,0*65
$GPGSV,3,3,11,26,15,045,21,29,01,357,13,30,10,201,19,0*57
$GLGSV,3,1,10,65,56,314,30,66,02,289,,71,15,097,21,72,61,067,25,0*75
$GLGSV,3,2,10,73,29,037,21,74,53,102,29,75,22,164,17,81,23,324,19,0*7E
$GLGSV,3,3,10,87,08,227,13,88,28,270,33,0*75
$GAGSV,2,1,08,04,00,275,,07,21,091,16,11,13,330,,12,32,277,29,0*79
$GAGSV,2,2,08,19,54,284,24,21,16,160,,27,40,107,23,30,27,048,11,0*72
$GNGLL,4935.76011,N,01822.28499,E,192556.00,A,A*75
$GNRMC,192557.00,A,4935.76009,N,01822.28500,E,0.051,,170818,,,A,V*1C
$GNVTG,,T,,M,0.051,N,0.095,K,A*35
$GNGGA,192557.00,4935.76009,N,01822.28500,E,1,12,0.60,439.4,M,41.1,M,,*42
$GNGSA,A,3,09,23,06,07,03,02,16,26,30,,,,1.14,0.60,0.97,1*05
$GNGSA,A,3,72,65,74,73,88,81,75,71,87,,,,1.14,0.60,0.97,2*0D
$GNGSA,A,3,19,27,12,30,07,,,,,,,,1.14,0.60,0.97,3*05
$GPGSV,3,1,11,02,28,308,13,03,27,125,26,06,48,249,27,07,39,188,27,0*6B
$GPGSV,3,2,11,09,85,329,35,16,19,073,14,22,06,127,,23,58,069,36,0*64
$GPGSV,3,3,11,26,15,045,21,29,01,357,09,30,10,201,20,0*56
$GLGSV,3,1,10,65,56,314,30,66,02,289,,71,15,097,21,72,61,067,25,0*75
$GLGSV,3,2,10,73,29,037,22,74,53,102,29,75,22,164,16,81,23,324,18,0*7D
$GLGSV,3,3,10,87,08,227,16,88,28,270,33,0*70
$GAGSV,2,1,08,04,00,275,,07,21,091,16,11,13,330,,12,39,54,284,25,21,16,160,,27,40,107,23,30,27,048,14,0*76
$GNGLL,4935.76009,N,01822.28500,E,192557.00,A,A*7C
$GNRMC,192558.00,A,4935.76007,N,01822.28500,E,0.085,,170818,,,A,V*14
$GNVTG,,T,,M,0.085,N,0.157,K,A*33
$GNGGA,192558.00,4935.76007,N,01822.28500,E,1,12,0.60,439.4,M,41.1,M,,*43
$GNGSA,A,3,09,23,06,07,03,02,16,26,30,,,,1.14,0.60,0.97,1*05
$GNGSA,A,3,72,65,74,73,88,81,75,71,87,,,,1.14,0.60,0.97,2*0D
$GNGSA,A,3,19,27,12,30,07,,,,,,,,1.14,0.60,0.97,3*05
$GPGSV,3,1,11,02,28,308,13,03,27,125,26,06,48,249,27,07,39,188,27,0*6B
$GPGSV,3,2,11,09,85,329,35,16,19,073,13,22,06,127,,23,58,069,36,0*63
$GPGSV,3,3,11,26,15,045,21,29,01,357,08,30,10,201,20,0*57
$GLGSV,3,1,10,65,56,314,30,66,02,289,,71,15,097,20,72,61,067,25,0*74
$GLGSV,3,2,10,73,29,037,22,74,53,102,28,75,22,164,17,81,23,324,16,0*73
$GLGSV,3,3,10,87,08,227,12,88,28,270,33,0*74
$GAGSV,2,1,08,04,00,275,,07,21,091,16,11,13,330,,12,32,277,29,0*79
$GAGSV,2,2,08,19,54,284,25,21,16,160,,27,40,107,23,30,27,048,13,0*71
$GNGLL,4935.76007,N,01822.28500,E,192558.00,A,A*7D
$GNRMC,192559.00,A,4935.76010,N,01822.28503,E,0.133,,170818,,,A,V*1C
$GNVTG,,T,,M,0.133,N,0.247,K,A*3D
$GNGGA,192559.00,4935.76010,N,01822.28503,E,1,12,0.64,439.3,M,41.1,M,,*44
$GNGSA,A,3,09,23,06,07,03,16,26,30,,,,,1.18,0.64,0.99,1*01
$GNGSA,A,3,72,65,74,73,88,81,75,71,87,,,,1.18,0.64,0.99,2*0B
$GNGSA,A,3,19,27,12,30,07,,,,,,,,1.18,0.64,0.99,3*03
$GPGSV,3,1,11,02,28,308,13,03,27,125,25,06,48,249,27,07,39,188,27,0*68
$GPGSV,3,2,11,09,85,329,35,16,19,073,12,22,06,127,,23,58,069,36,0*62
$GPGSV,3,3,11,26,15,045,21,29,01,357,09,30,10,201,20,0*56
$GLGSV,3,1,10,65,56,314,29,66,02,289,,71,15,097,18,72,61,067,26,0*74
$GLGSV,3,2,10,73,29,037,22,74,53,102,28,75,22,164,16,81,23,324,14,0*70
